STATION_ID,STATION_NAME,LONGITUDE,LATITUDE,STATION_TYPE,VS30,MMI_VALUE,MMI_STDDEV,PGA_LN_SIGMA,PGA_VALUE,PGV_LN_SIGMA,PGV_VALUE,SA(0.3)_LN_SIGMA,SA(0.3)_VALUE,SA(1.0)_LN_SIGMA,SA(1.0)_VALUE,SA(3.0)_LN_SIGMA,SA(3.0)_VALUE,VS30_TYPE,REFERENCES
KOR,Korinthos-OTE Building,22.93,37.93,seismic,383.69,6.9,0.63,0.0,0.310204,0.0,22.6,0.0,0.586735,0.0,0.252041,0.0,0.039694,inferred,Stations_USGS
XLC,Xilokastro-OTE Building,22.63,38.08,seismic,600.0,6.9,0.63,0.0,0.289796,0.0,22.7,0.0,0.982653,0.0,0.468367,0.0,0.048878,inferred,Stations_USGS
OBS_412,Petroupolis,23.67,38.02,macroseismic,462.74,6.5,0.3,0.8059,0.194447,0.875,17.3476,1.0131,0.390186,1.0822,0.224626,1.4737,0.045422,inferred,Stations_USGS
OBS_347,Moschokarya,22.27,39.0,macroseismic,633.82,5.0,0.3,0.8059,0.06059,0.875,5.8151,1.0131,0.130904,1.0822,0.078726,1.4737,0.016916,inferred,Stations_USGS
OBS_250,Koroneia,22.95,38.33,macroseismic,399.85,7.0,0.3,0.8059,0.321981,0.875,24.9729,1.0131,0.57036,1.0822,0.296794,1.4737,0.058311,inferred,Stations_USGS
OBS_467,Skourta,23.53,38.2,macroseismic,286.57,7.5,0.3,0.8059,0.386298,0.875,35.9498,1.0131,0.703817,1.0822,0.477769,1.4737,0.093403,inferred,Stations_USGS
OBS_69,ANALIPSI  AITOLOAKARNANIA(1074),21.716,38.487,macroseismic,709.89,4.0,0.3,0.8059,0.026092,0.875,2.2794,1.0131,0.033477,1.0822,0.028112,1.4737,0.005461,inferred,Stations_USGS
OBS_429,Prosilion,22.32,38.57,macroseismic,900.0,5.5,0.3,0.8059,0.093622,0.875,8.3711,1.0131,0.211318,1.0822,0.108526,1.4737,0.022774,inferred,Stations_USGS
OBS_454,Savalia,21.3,37.817,macroseismic,244.77,5.5,0.3,0.8059,0.076743,0.875,8.3711,1.0131,0.190348,1.0822,0.122589,1.4737,0.026106,inferred,Stations_USGS
OBS_88,VASILOPOULO  AITOLOAKARNANIA(636),21.072,38.598,macroseismic,829.27,4.0,0.3,0.8059,0.019874,0.875,2.2794,1.0131,0.028905,1.0822,0.032151,1.4737,0.006681,inferred,Stations_USGS
OBS_505,Tithorea,22.67,38.57,macroseismic,900.0,5.0,0.3,0.8059,0.074181,0.875,5.8151,1.0131,0.16675,1.0822,0.069542,1.4737,0.014721,inferred,Stations_USGS
OBS_521,Vasilikon,22.667,38.417,macroseismic,634.52,5.5,0.3,0.8059,0.110446,0.875,8.3711,1.0131,0.230499,1.0822,0.098072,1.4737,0.02033,inferred,Stations_USGS
OBS_320,Marmarion,24.32,38.03,macroseismic,585.03,6.0,0.3,0.8059,0.114693,0.875,12.0507,1.0131,0.263642,1.0822,0.17248,1.4737,0.035959,inferred,Stations_USGS
OBS_272,Lamia,22.433,38.9,macroseismic,541.51,5.5,0.3,0.8059,0.086424,0.875,8.3711,1.0131,0.202616,1.0822,0.11398,1.4737,0.02406,inferred,Stations_USGS
OBS_324,Megalo Chorion,21.72,38.82,macroseismic,900.0,5.0,0.3,0.8059,0.058196,0.875,5.8151,1.0131,0.124279,1.0822,0.080696,1.4737,0.017391,inferred,Stations_USGS
OBS_27,KAISARIANI  ATHINA(26803),23.796,37.957,macroseismic,900.0,6.0,0.3,0.8059,0.133901,0.875,12.0507,1.0131,0.286001,1.0822,0.156864,1.4737,0.032331,inferred,Stations_USGS
OBS_11,NEA-PHILADELPHIA  ATHINA(25261),23.738,38.037,macroseismic,415.79,6.5,0.3,0.8059,0.188365,0.875,17.3476,1.0131,0.383722,1.0822,0.229044,1.4737,0.046424,inferred,Stations_USGS
OBS_442,Rizomylos,22.75,39.433,macroseismic,266.71,5.0,0.3,0.8059,0.056308,0.875,5.8151,1.0131,0.119111,1.0822,0.082344,1.4737,0.01779,inferred,Stations_USGS
OBS_43,DOKIMIO  AITOLOAKARNANIA(2198),21.361,38.595,macroseismic,244.29,5.0,0.3,0.8059,0.056347,0.875,5.8151,1.0131,0.119217,1.0822,0.082309,1.4737,0.017781,inferred,Stations_USGS
OBS_163,Exarchos,22.92,38.57,macroseismic,534.32,5.5,0.3,0.8059,0.103777,0.875,8.3711,1.0131,0.223074,1.0822,0.101888,1.4737,0.021218,inferred,Stations_USGS
OBS_518,Vartholomion,21.2,37.83,macroseismic,235.49,5.0,0.3,0.8059,0.055369,0.875,5.8151,1.0131,0.116559,1.0822,0.083197,1.4737,0.017996,inferred,Stations_USGS
OBS_42,ASTAKOS  AITOLOAKARNANIA(2542),21.102,38.506,macroseismic,552.11,5.0,0.3,0.8059,0.054487,0.875,5.8151,1.0131,0.114174,1.0822,0.08402,1.4737,0.018196,inferred,Stations_USGS
OBS_426,Pournarion,22.3,39.15,macroseismic,594.25,5.0,0.3,0.8059,0.058701,0.875,5.8151,1.0131,0.125671,1.0822,0.080269,1.4737,0.017288,inferred,Stations_USGS
OBS_298,Lygia,21.13,37.83,macroseismic,600.0,5.0,0.3,0.8059,0.054785,0.875,5.8151,1.0131,0.114979,1.0822,0.083739,1.4737,0.018128,inferred,Stations_USGS
OBS_355,Nea Epidavros,23.12,37.67,macroseismic,769.12,6.5,0.3,0.8059,0.200188,0.875,17.3476,1.0131,0.396201,1.0822,0.220656,1.4737,0.044523,inferred,Stations_USGS
OBS_9,MAROUSI  ATHINA(64092),23.805,38.046,macroseismic,390.67,6.5,0.3,0.8059,0.183058,0.875,17.3476,1.0131,0.378,1.0822,0.233092,1.4737,0.047345,inferred,Stations_USGS
OBS_237,Kifisia,23.78,38.07,macroseismic,413.96,6.0,0.3,0.8059,0.135522,0.875,12.0507,1.0131,0.287815,1.0822,0.155711,1.4737,0.032065,inferred,Stations_USGS
OBS_124,Chora,21.82,37.7,macroseismic,742.07,5.0,0.3,0.8059,0.061524,0.875,5.8151,1.0131,0.133508,1.0822,0.077991,1.4737,0.016739,inferred,Stations_USGS
OBS_63,AETOPETRA  AITOLOAKARNANIA(322),21.685,38.61,macroseismic,900.0,4.0,0.3,0.8059,0.024957,0.875,2.2794,1.0131,0.032683,1.0822,0.028736,1.4737,0.005644,inferred,Stations_USGS
OBS_57,MONASTIRAKI  AITOLOAKARNANIA(1802),20.918,38.847,macroseismic,616.93,4.5,0.3,0.8059,0.03824,0.875,4.0395,1.0131,0.054665,1.0822,0.057995,1.4737,0.012784,inferred,Stations_USGS
OBS_24,GALATSI  ATHINA(57230),23.755,38.019,macroseismic,540.6,6.0,0.3,0.8059,0.13686,0.875,12.0507,1.0131,0.289306,1.0822,0.154777,1.4737,0.031849,inferred,Stations_USGS
OBS_201,Kalamata,22.1,37.02,macroseismic,600.0,5.0,0.3,0.8059,0.057373,0.875,5.8151,1.0131,0.122022,1.0822,0.081403,1.4737,0.017562,inferred,Stations_USGS
OBS_491,Strofylia,23.38,38.82,macroseismic,389.91,5.5,0.3,0.8059,0.091173,0.875,8.3711,1.0131,0.208394,1.0822,0.110303,1.4737,0.023192,inferred,Stations_USGS
OBS_102,Athikia,22.92,37.82,macroseismic,478.54,6.5,0.3,0.8059,0.233703,0.875,17.3476,1.0131,0.429791,1.0822,0.200683,1.4737,0.040032,inferred,Stations_USGS
OBS_479,Stamna,21.27,38.52,macroseismic,475.66,5.5,0.3,0.8059,0.076201,0.875,8.3711,1.0131,0.18964,1.0822,0.123123,1.4737,0.026233,inferred,Stations_USGS
OBS_444,Rododafni,22.033,38.25,macroseismic,562.73,5.5,0.3,0.8059,0.091152,0.875,8.3711,1.0131,0.208368,1.0822,0.110319,1.4737,0.023196,inferred,Stations_USGS
OBS_410,Perivolion,22.18,39.07,macroseismic,450.07,5.0,0.3,0.8059,0.059082,0.875,5.8151,1.0131,0.126722,1.0822,0.079952,1.4737,0.017212,inferred,Stations_USGS
OBS_281,Lefkochorion,21.97,37.67,macroseismic,428.73,5.5,0.3,0.8059,0.086531,0.875,8.3711,1.0131,0.202747,1.0822,0.113894,1.4737,0.02404,inferred,Stations_USGS
OBS_434,Pyli,23.47,38.22,macroseismic,605.74,7.5,0.3,0.8059,0.399108,0.875,35.9498,1.0131,0.715992,1.0822,0.468311,1.4737,0.091333,inferred,Stations_USGS
OBS_378,Oxylithos,24.1,38.57,macroseismic,510.18,5.0,0.3,0.8059,0.062593,0.875,5.8151,1.0131,0.136502,1.0822,0.077173,1.4737,0.016542,inferred,Stations_USGS
OBS_82,PAPPADATOS  AITOLOAKARNANIA(1059),21.195,38.732,macroseismic,341.75,4.0,0.3,0.8059,0.020265,0.875,2.2794,1.0131,0.02921,1.0822,0.031843,1.4737,0.006585,inferred,Stations_USGS
OBS_65,AGIOS-NIKOLAOS-VONITSAS  AITOLOAKARNANIA(448),20.787,38.889,macroseismic,461.36,4.0,0.3,0.8059,0.017579,0.875,2.2794,1.0131,0.027053,1.0822,0.034156,1.4737,0.007316,inferred,Stations_USGS
OBS_490,Strefion,21.55,37.667,macroseismic,411.43,5.0,0.3,0.8059,0.058171,0.875,5.8151,1.0131,0.12421,1.0822,0.080717,1.4737,0.017396,inferred,Stations_USGS
OBS_158,Eretria,23.783,38.383,macroseismic,600.0,6.0,0.3,0.8059,0.130785,0.875,12.0507,1.0131,0.282481,1.0822,0.159145,1.4737,0.032858,inferred,Stations_USGS
OBS_373,Nikaia,23.62,37.97,macroseismic,527.29,6.5,0.3,0.8059,0.198506,0.875,17.3476,1.0131,0.394447,1.0822,0.2218,1.4737,0.044782,inferred,Stations_USGS
OBS_139,Dimaina,23.07,37.68,macroseismic,900.0,6.0,0.3,0.8059,0.148255,0.875,12.0507,1.0131,0.301729,1.0822,0.147372,1.4737,0.030147,inferred,Stations_USGS
OBS_511,Trikerion,23.067,39.1,macroseismic,740.08,5.0,0.3,0.8059,0.061493,0.875,5.8151,1.0131,0.133422,1.0822,0.078016,1.4737,0.016745,inferred,Stations_USGS
OBS_436,Rafina,24.0,38.02,macroseismic,408.61,6.5,0.3,0.8059,0.170617,0.875,17.3476,1.0131,0.364269,1.0822,0.243367,1.4737,0.04969,inferred,Stations_USGS
OBS_380,Palaeokerasea,22.72,38.92,macroseismic,900.0,5.0,0.3,0.8059,0.064397,0.875,5.8151,1.0131,0.14159,1.0822,0.07584,1.4737,0.016223,inferred,Stations_USGS
OBS_144,Drapetsona,23.617,37.95,macroseismic,369.3,6.0,0.3,0.8059,0.145148,0.875,12.0507,1.0131,0.298388,1.0822,0.149298,1.4737,0.030588,inferred,Stations_USGS
OBS_517,Varnavas,23.917,38.217,macroseismic,510.53,7.0,0.3,0.8059,0.237745,0.875,24.9729,1.0131,0.486298,1.0822,0.357427,1.4737,0.071818,inferred,Stations_USGS
OBS_96,KATAPHYGIO  AITOLOAKARNANIA(340),21.917,38.508,macroseismic,900.0,3.0,0.3,,,,,,,,,,,inferred,Stations_USGS
OBS_98,PALIAMPELA  AITOLOAKARNANIA(1062),20.955,38.919,macroseismic,486.85,3.0,0.3,,,,,,,,,,,inferred,Stations_USGS
OBS_140,Diminio,22.534,37.984,macroseismic,900.0,7.5,0.3,0.8059,0.393463,0.875,35.9498,1.0131,0.71065,1.0822,0.472418,1.4737,0.092231,inferred,Stations_USGS
OBS_321,Mavrommation,23.12,38.32,macroseismic,420.33,8.0,0.3,0.8059,0.616932,0.875,51.7516,1.0131,1.009429,1.0822,0.645422,1.4737,0.122924,inferred,Stations_USGS
OBS_384,Palaiovracha,22.07,38.9,macroseismic,825.27,5.0,0.3,0.8059,0.060437,0.875,5.8151,1.0131,0.130476,1.0822,0.078849,1.4737,0.016946,inferred,Stations_USGS
OBS_148,Efyra,21.52,37.83,macroseismic,424.12,5.0,0.3,0.8059,0.058463,0.875,5.8151,1.0131,0.125015,1.0822,0.08047,1.4737,0.017337,inferred,Stations_USGS
OBS_217,Karatoulas,21.52,37.72,macroseismic,453.83,5.5,0.3,0.8059,0.079281,0.875,8.3711,1.0131,0.193632,1.0822,0.120168,1.4737,0.025529,inferred,Stations_USGS
OBS_323,Megala Kalyvia,21.783,39.5,macroseismic,214.97,5.0,0.3,0.8059,0.053014,0.875,5.8151,1.0131,0.110215,1.0822,0.085443,1.4737,0.018542,inferred,Stations_USGS
OBS_198,Kaisariani,23.75,37.967,macroseismic,415.27,6.0,0.3,0.8059,0.136613,0.875,12.0507,1.0131,0.289031,1.0822,0.154948,1.4737,0.031889,inferred,Stations_USGS
OBS_5,AGIOI-ANARGYROI  ATHINA(30739),23.717,38.022,macroseismic,324.16,6.5,0.3,0.8059,0.190079,0.875,17.3476,1.0131,0.385554,1.0822,0.227776,1.4737,0.046136,inferred,Stations_USGS
OBS_358,Nea Manolas,21.37,38.03,macroseismic,328.48,5.0,0.3,0.8059,0.057339,0.875,5.8151,1.0131,0.121929,1.0822,0.081433,1.4737,0.017569,inferred,Stations_USGS
OBS_546,Ypati,22.22,38.87,macroseismic,900.0,5.0,0.3,0.8059,0.062131,0.875,5.8151,1.0131,0.135205,1.0822,0.077524,1.4737,0.016627,inferred,Stations_USGS
OBS_367,Neochorion,21.2,37.9,macroseismic,355.75,5.0,0.3,0.8059,0.05552,0.875,5.8151,1.0131,0.11697,1.0822,0.083058,1.4737,0.017963,inferred,Stations_USGS
OBS_428,Prokopion,23.47,38.72,macroseismic,747.54,5.5,0.3,0.8059,0.093646,0.875,8.3711,1.0131,0.211347,1.0822,0.108509,1.4737,0.02277,inferred,Stations_USGS
OBS_155,Ellinika,23.32,39.0,macroseismic,565.97,5.5,0.3,0.8059,0.086117,0.875,8.3711,1.0131,0.202236,1.0822,0.114229,1.4737,0.024119,inferred,Stations_USGS
OBS_152,Elateia,22.75,38.62,macroseismic,360.51,5.5,0.3,0.8059,0.099736,0.875,8.3711,1.0131,0.218465,1.0822,0.104398,1.4737,0.021805,inferred,Stations_USGS
OBS_437,Regkinion,22.7,38.717,macroseismic,748.4,5.5,0.3,0.8059,0.094823,0.875,8.3711,1.0131,0.212739,1.0822,0.107681,1.4737,0.022575,inferred,Stations_USGS
OBS_138,Didyma,23.17,37.47,macroseismic,521.12,6.0,0.3,0.8059,0.130506,0.875,12.0507,1.0131,0.282165,1.0822,0.159353,1.4737,0.032906,inferred,Stations_USGS
OBS_268,Lafka,22.37,37.82,macroseismic,900.0,6.5,0.3,0.8059,0.186907,0.875,17.3476,1.0131,0.382157,1.0822,0.230138,1.4737,0.046673,inferred,Stations_USGS
OBS_70,ANGELOKASTRO  AITOLOAKARNANIA(1849),21.289,38.578,macroseismic,449.3,4.0,0.3,0.8059,0.021471,0.875,2.2794,1.0131,0.030136,1.0822,0.030949,1.4737,0.006309,inferred,Stations_USGS
OBS_362,Nea Styra,24.2,38.17,macroseismic,600.0,5.5,0.3,0.8059,0.086357,0.875,8.3711,1.0131,0.202533,1.0822,0.114034,1.4737,0.024073,inferred,Stations_USGS
OBS_122,Cholargos,23.783,38.0,macroseismic,301.66,6.5,0.3,0.8059,0.184398,0.875,17.3476,1.0131,0.379452,1.0822,0.232052,1.4737,0.047108,inferred,Stations_USGS
OBS_25,GLYPHADA  ATHINA(63306),23.772,37.884,macroseismic,846.76,6.0,0.3,0.8059,0.133839,0.875,12.0507,1.0131,0.285931,1.0822,0.156908,1.4737,0.032341,inferred,Stations_USGS
OBS_168,Flokas,21.62,37.65,macroseismic,433.42,5.0,0.3,0.8059,0.058832,0.875,5.8151,1.0131,0.126031,1.0822,0.08016,1.4737,0.017262,inferred,Stations_USGS
OBS_46,NEA-PENTELI  ATHINA(4332),23.861,38.064,macroseismic,591.09,5.0,0.3,0.8059,0.07042,0.875,5.8151,1.0131,0.158868,1.0822,0.071796,1.4737,0.015256,inferred,Stations_USGS
OBS_262,Krinofyta,22.17,37.87,macroseismic,862.67,6.0,0.3,0.8059,0.128392,0.875,12.0507,1.0131,0.279753,1.0822,0.160956,1.4737,0.033278,inferred,Stations_USGS
OBS_84,STRATOS  AITOLOAKARNANIA(1101),21.307,38.72,macroseismic,540.03,4.0,0.3,0.8059,0.021074,0.875,2.2794,1.0131,0.029834,1.0822,0.031235,1.4737,0.006397,inferred,Stations_USGS
OBS_243,Kokkonion,22.77,37.97,macroseismic,336.15,7.5,0.3,0.8059,0.488878,0.875,35.9498,1.0131,0.796579,1.0822,0.413552,1.4737,0.079452,inferred,Stations_USGS
OBS_233,Keratea,23.97,37.78,macroseismic,900.0,5.5,0.3,0.8059,0.090407,0.875,8.3711,1.0131,0.207472,1.0822,0.110875,1.4737,0.023327,inferred,Stations_USGS
OBS_508,Trachilion,24.0,38.5,macroseismic,507.6,5.0,0.3,0.8059,0.064706,0.875,5.8151,1.0131,0.142466,1.0822,0.075618,1.4737,0.016169,inferred,Stations_USGS
OBS_188,Gravia,22.433,38.666,macroseismic,900.0,5.5,0.3,0.8059,0.093055,0.875,8.3711,1.0131,0.210645,1.0822,0.108931,1.4737,0.022869,inferred,Stations_USGS
OBS_504,Tinos,25.13,37.52,macroseismic,600.0,5.0,0.3,0.8059,0.052505,0.875,5.8151,1.0131,0.108855,1.0822,0.085949,1.4737,0.018665,inferred,Stations_USGS
OBS_247,Kontovazaina,21.88,37.77,macroseismic,870.55,5.0,0.3,0.8059,0.062819,0.875,5.8151,1.0131,0.137138,1.0822,0.077002,1.4737,0.016502,inferred,Stations_USGS
OBS_240,Klenia,22.85,37.77,macroseismic,516.42,6.0,0.3,0.8059,0.160648,0.875,12.0507,1.0131,0.314736,1.0822,0.140296,1.4737,0.028529,inferred,Stations_USGS
OBS_32,VRILISSIA  ATHINA(16571),23.835,38.038,macroseismic,416.54,6.0,0.3,0.8059,0.132492,0.875,12.0507,1.0131,0.284414,1.0822,0.157885,1.4737,0.032567,inferred,Stations_USGS
OBS_439,Riolos,21.45,38.03,macroseismic,360.76,5.0,0.3,0.8059,0.05818,0.875,5.8151,1.0131,0.124236,1.0822,0.080709,1.4737,0.017394,inferred,Stations_USGS
OBS_21,ARGYROUPOLI  ATHINA(31530),23.774,37.914,macroseismic,900.0,6.0,0.3,0.8059,0.134368,0.875,12.0507,1.0131,0.286524,1.0822,0.15653,1.4737,0.032254,inferred,Stations_USGS
OBS_44,KATO-KERASOVO  AITOLOAKARNANIA(623),21.431,38.516,macroseismic,726.31,5.0,0.3,0.8059,0.057307,0.875,5.8151,1.0131,0.121841,1.0822,0.081461,1.4737,0.017576,inferred,Stations_USGS
OBS_293,Louros,20.75,39.167,macroseismic,481.73,5.0,0.3,0.8059,0.050184,0.875,5.8151,1.0131,0.102696,1.0822,0.088365,1.4737,0.019254,inferred,Stations_USGS
OBS_254,Kouloura,22.07,38.22,macroseismic,854.82,5.0,0.3,0.8059,0.067658,0.875,5.8151,1.0131,0.150891,1.0822,0.073578,1.4737,0.015681,inferred,Stations_USGS
OBS_85,THERMO  AITOLOAKARNANIA(2211),21.672,38.581,macroseismic,498.62,4.0,0.3,0.8059,0.025002,0.875,2.2794,1.0131,0.032716,1.0822,0.02871,1.4737,0.005637,inferred,Stations_USGS
OBS_49,KAINOURGIO  AITOLOAKARNANIA(3249),21.481,38.62,macroseismic,469.33,4.5,0.3,0.8059,0.041992,0.875,4.0395,1.0131,0.061668,1.0822,0.054762,1.4737,0.011988,inferred,Stations_USGS
OBS_244,Kolaka,23.02,38.57,macroseismic,685.93,5.5,0.3,0.8059,0.104412,0.875,8.3711,1.0131,0.223791,1.0822,0.101508,1.4737,0.021129,inferred,Stations_USGS
OBS_68,AMPELAKI  AITOLOAKARNANIA(1096),21.233,38.926,macroseismic,490.76,4.0,0.3,0.8059,0.019729,0.875,2.2794,1.0131,0.028791,1.0822,0.032267,1.4737,0.006717,inferred,Stations_USGS
OBS_10,NEA-ERYTHRAIA  ATHINA(12993),23.82,38.093,macroseismic,475.18,6.5,0.3,0.8059,0.181894,0.875,17.3476,1.0131,0.376734,1.0822,0.234005,1.4737,0.047553,inferred,Stations_USGS
OBS_284,Leontion,21.92,38.08,macroseismic,772.94,6.5,0.3,0.8059,0.164698,0.875,17.3476,1.0131,0.35757,1.0822,0.248691,1.4737,0.05091,inferred,Stations_USGS
OBS_216,Kaparellion,23.2,38.23,macroseismic,566.23,7.0,0.3,0.8059,0.360496,0.875,24.9729,1.0131,0.605267,1.0822,0.276935,1.4737,0.053956,inferred,Stations_USGS
OBS_317,Mantasia,22.43,39.12,macroseismic,403.92,5.0,0.3,0.8059,0.059706,0.875,5.8151,1.0131,0.128448,1.0822,0.079439,1.4737,0.017088,inferred,Stations_USGS
OBS_314,Manesis,22.82,37.08,macroseismic,388.62,6.0,0.3,0.8059,0.113954,0.875,12.0507,1.0131,0.262747,1.0822,0.173165,1.4737,0.036119,inferred,Stations_USGS
OBS_332,Mendenitsa,22.62,38.75,macroseismic,686.55,5.0,0.3,0.8059,0.067977,0.875,5.8151,1.0131,0.151808,1.0822,0.073366,1.4737,0.015631,inferred,Stations_USGS
OBS_34,ZOGRAPHOS  ATHINA(80492),23.786,37.973,macroseismic,503.68,6.0,0.3,0.8059,0.134646,0.875,12.0507,1.0131,0.286836,1.0822,0.156331,1.4737,0.032208,inferred,Stations_USGS
OBS_449,Salamis,23.47,37.97,macroseismic,426.05,7.0,0.3,0.8059,0.297477,0.875,24.9729,1.0131,0.547113,1.0822,0.311548,1.4737,0.061569,inferred,Stations_USGS
OBS_238,Kirra,22.45,38.42,macroseismic,600.0,6.0,0.3,0.8059,0.139377,0.875,12.0507,1.0131,0.292091,1.0822,0.153057,1.4737,0.031453,inferred,Stations_USGS
OBS_368,Neochorion,24.117,38.45,macroseismic,381.69,5.5,0.3,0.8059,0.086406,0.875,8.3711,1.0131,0.202593,1.0822,0.113994,1.4737,0.024063,inferred,Stations_USGS
OBS_270,Lakkopetra,21.45,38.17,macroseismic,325.79,6.0,0.3,0.8059,0.108558,0.875,12.0507,1.0131,0.256131,1.0822,0.178391,1.4737,0.037343,inferred,Stations_USGS
OBS_304,Magoula,22.38,37.07,macroseismic,765.4,5.0,0.3,0.8059,0.059513,0.875,5.8151,1.0131,0.127914,1.0822,0.079597,1.4737,0.017126,inferred,Stations_USGS
OBS_497,Terpsithea,21.97,38.53,macroseismic,900.0,5.5,0.3,0.8059,0.08682,0.875,8.3711,1.0131,0.203102,1.0822,0.113661,1.4737,0.023985,inferred,Stations_USGS
OBS_390,Pappadatai,21.45,38.52,macroseismic,664.72,5.0,0.3,0.8059,0.057476,0.875,5.8151,1.0131,0.122303,1.0822,0.081314,1.4737,0.017541,inferred,Stations_USGS
OBS_446,Roupakia,21.883,38.317,macroseismic,900.0,5.0,0.3,0.8059,0.063778,0.875,5.8151,1.0131,0.139841,1.0822,0.07629,1.4737,0.016331,inferred,Stations_USGS
OBS_283,Leontarion,22.133,37.317,macroseismic,589.88,5.5,0.3,0.8059,0.083547,0.875,8.3711,1.0131,0.199041,1.0822,0.11637,1.4737,0.024626,inferred,Stations_USGS
OBS_472,Soulion,22.633,37.983,macroseismic,602.97,6.5,0.3,0.8059,0.227735,0.875,17.3476,1.0131,0.423986,1.0822,0.203891,1.4737,0.04075,inferred,Stations_USGS
OBS_279,Lefkakia,22.85,37.55,macroseismic,480.93,6.0,0.3,0.8059,0.137006,0.875,12.0507,1.0131,0.289468,1.0822,0.154675,1.4737,0.031826,inferred,Stations_USGS
OBS_334,Messini,22.004,37.052,macroseismic,334.49,5.0,0.3,0.8059,0.05715,0.875,5.8151,1.0131,0.12141,1.0822,0.081598,1.4737,0.017609,inferred,Stations_USGS
OBS_488,Stimagka,22.7,37.9,macroseismic,704.04,7.0,0.3,0.8059,0.315299,0.875,24.9729,1.0131,0.564107,1.0822,0.300633,1.4737,0.059157,inferred,Stations_USGS
OBS_308,Malantrenion,22.63,37.72,macroseismic,480.8,6.0,0.3,0.8059,0.145355,0.875,12.0507,1.0131,0.298611,1.0822,0.149168,1.4737,0.030559,inferred,Stations_USGS
OBS_117,Charokopeion,21.88,36.78,macroseismic,482.22,5.0,0.3,0.8059,0.054013,0.875,5.8151,1.0131,0.112897,1.0822,0.084471,1.4737,0.018306,inferred,Stations_USGS
OBS_527,Vlacherna,22.22,37.72,macroseismic,884.76,6.0,0.3,0.8059,0.127172,0.875,12.0507,1.0131,0.278352,1.0822,0.161901,1.4737,0.033497,inferred,Stations_USGS
OBS_407,Perigialion,22.83,37.92,macroseismic,419.83,6.5,0.3,0.8059,0.262837,0.875,17.3476,1.0131,0.457173,1.0822,0.186741,1.4737,0.036928,inferred,Stations_USGS
OBS_432,Psychikon,23.767,38.0,macroseismic,484.43,6.5,0.3,0.8059,0.185646,0.875,17.3476,1.0131,0.3808,1.0822,0.231094,1.4737,0.04689,inferred,Stations_USGS
OBS_435,Pyrgos,22.42,38.07,macroseismic,900.0,6.0,0.3,0.8059,0.145708,0.875,12.0507,1.0131,0.298993,1.0822,0.148946,1.4737,0.030508,inferred,Stations_USGS
OBS_474,Spatharis,21.88,37.75,macroseismic,581.33,5.5,0.3,0.8059,0.085574,0.875,8.3711,1.0131,0.201565,1.0822,0.114672,1.4737,0.024224,inferred,Stations_USGS
OBS_164,Fichtion,22.717,37.717,macroseismic,412.97,6.5,0.3,0.8059,0.203379,0.875,17.3476,1.0131,0.399509,1.0822,0.218527,1.4737,0.044042,inferred,Stations_USGS
OBS_159,Ermioni,23.22,37.37,macroseismic,521.06,5.0,0.3,0.8059,0.066969,0.875,5.8151,1.0131,0.148915,1.0822,0.074041,1.4737,0.015792,inferred,Stations_USGS
OBS_331,Melissochorion,23.22,38.27,macroseismic,388.75,7.5,0.3,0.8059,0.463303,0.875,35.9498,1.0131,0.774393,1.0822,0.427398,1.4737,0.082439,inferred,Stations_USGS
OBS_224,Kastoreion,22.28,37.17,macroseismic,774.82,5.0,0.3,0.8059,0.060343,0.875,5.8151,1.0131,0.130216,1.0822,0.078924,1.4737,0.016964,inferred,Stations_USGS
OBS_50,KANDILA  AITOLOAKARNANIA(1324),20.929,38.696,macroseismic,752.53,4.5,0.3,0.8059,0.038638,0.875,4.0395,1.0131,0.055398,1.0822,0.057628,1.4737,0.012693,inferred,Stations_USGS
OBS_266,Kyriakion,22.77,38.33,macroseismic,900.0,6.0,0.3,0.8059,0.166936,0.875,12.0507,1.0131,0.321153,1.0822,0.137034,1.4737,0.027787,inferred,Stations_USGS
OBS_319,Markopoulon,23.92,37.87,macroseismic,530.94,6.0,0.3,0.8059,0.126833,0.875,12.0507,1.0131,0.277962,1.0822,0.162166,1.4737,0.033558,inferred,Stations_USGS
OBS_71,ANO-VASILIKI  AITOLOAKARNANIA(183),21.597,38.381,macroseismic,785.55,4.0,0.3,0.8059,0.025117,0.875,2.2794,1.0131,0.032797,1.0822,0.028645,1.4737,0.005617,inferred,Stations_USGS
OBS_402,Pefki,23.8,38.05,macroseismic,422.82,6.5,0.3,0.8059,0.183443,0.875,17.3476,1.0131,0.378418,1.0822,0.232792,1.4737,0.047276,inferred,Stations_USGS
OBS_419,Platanos,22.266,38.166,macroseismic,900.0,5.0,0.3,0.8059,0.072797,0.875,5.8151,1.0131,0.165107,1.0822,0.07035,1.4737,0.014912,inferred,Stations_USGS
OBS_170,Frixa,21.7,37.62,macroseismic,467.1,5.0,0.3,0.8059,0.059545,0.875,5.8151,1.0131,0.128002,1.0822,0.07957,1.4737,0.01712,inferred,Stations_USGS
OBS_147,Efpalion,21.92,38.42,macroseismic,450.99,5.5,0.3,0.8059,0.087054,0.875,8.3711,1.0131,0.20339,1.0822,0.113474,1.4737,0.02394,inferred,Stations_USGS
OBS_267,Ladikou,22.217,38.9,macroseismic,369.64,5.0,0.3,0.8059,0.06166,0.875,5.8151,1.0131,0.133887,1.0822,0.077886,1.4737,0.016714,inferred,Stations_USGS
OBS_457,Schinoi,21.67,37.47,macroseismic,456.96,5.0,0.3,0.8059,0.058236,0.875,5.8151,1.0131,0.124389,1.0822,0.080662,1.4737,0.017383,inferred,Stations_USGS
OBS_464,Skiathos,23.483,39.167,macroseismic,575.39,5.0,0.3,0.8059,0.059696,0.875,5.8151,1.0131,0.128421,1.0822,0.079447,1.4737,0.01709,inferred,Stations_USGS
OBS_77,GOURIA  AITOLOAKARNANIA(1007),21.267,38.47,macroseismic,331.81,4.0,0.3,0.8059,0.021614,0.875,2.2794,1.0131,0.030244,1.0822,0.030847,1.4737,0.006278,inferred,Stations_USGS
OBS_296,Loutrakion,22.97,37.97,macroseismic,600.0,8.5,0.3,0.8059,1.037932,0.875,74.4992,1.0131,1.487929,1.0822,0.844514,1.4737,0.156092,inferred,Stations_USGS
OBS_87,TRYPHOS  AITOLOAKARNANIA(1011),21.047,38.812,macroseismic,683.16,4.0,0.3,0.8059,0.019104,0.875,2.2794,1.0131,0.028295,1.0822,0.032784,1.4737,0.006879,inferred,Stations_USGS
OBS_264,Kryonerion,22.633,37.967,macroseismic,588.08,7.0,0.3,0.8059,0.309357,0.875,24.9729,1.0131,0.558493,1.0822,0.304159,1.4737,0.059935,inferred,Stations_USGS
OBS_153,Elefsis,23.52,38.02,macroseismic,600.0,7.0,0.3,0.8059,0.290015,0.875,24.9729,1.0131,0.539855,1.0822,0.316436,1.4737,0.062653,inferred,Stations_USGS
OBS_127,Dafnai,22.0,38.2,macroseismic,809.54,5.0,0.3,0.8059,0.066267,0.875,5.8151,1.0131,0.146907,1.0822,0.074521,1.4737,0.015907,inferred,Stations_USGS
OBS_221,Kastanea,21.67,38.75,macroseismic,577.37,5.0,0.3,0.8059,0.058286,0.875,5.8151,1.0131,0.124528,1.0822,0.080619,1.4737,0.017373,inferred,Stations_USGS
OBS_167,Filothei,23.783,38.017,macroseismic,372.05,6.5,0.3,0.8059,0.184569,0.875,17.3476,1.0131,0.379637,1.0822,0.23192,1.4737,0.047078,inferred,Stations_USGS
OBS_541,Xirokampos,21.78,37.67,macroseismic,372.98,5.5,0.3,0.8059,0.083009,0.875,8.3711,1.0131,0.198366,1.0822,0.116832,1.4737,0.024736,inferred,Stations_USGS
OBS_190,Gymnon,22.57,37.77,macroseismic,900.0,6.0,0.3,0.8059,0.145954,0.875,12.0507,1.0131,0.299258,1.0822,0.148792,1.4737,0.030472,inferred,Stations_USGS
OBS_38,TERPSITHEA  AITOLOAKARNANIA(247),21.972,38.556,macroseismic,812.97,5.5,0.3,0.8059,0.086509,0.875,8.3711,1.0131,0.20272,1.0822,0.113911,1.4737,0.024044,inferred,Stations_USGS
OBS_52,KATO-MAKRINOU  AITOLOAKARNANIA(852),21.617,38.486,macroseismic,866.65,4.5,0.3,0.8059,0.0435,0.875,4.0395,1.0131,0.064535,1.0822,0.05359,1.4737,0.011701,inferred,Stations_USGS
OBS_303,Magoula,21.17,37.87,macroseismic,454.95,5.0,0.3,0.8059,0.055202,0.875,5.8151,1.0131,0.116106,1.0822,0.083351,1.4737,0.018034,inferred,Stations_USGS
OBS_352,Myrtos,21.5,38.07,macroseismic,704.38,null,null,0.8059,0.149514,0.875,17.3476,1.0131,0.339842,1.0822,0.26388,1.4737,0.054407,inferred,Stations_USGS
OBS_76,EVINOCHORI  AITOLOAKARNANIA(2012),21.529,38.361,macroseismic,246.23,4.0,0.3,0.8059,0.024397,0.875,2.2794,1.0131,0.032286,1.0822,0.029059,1.4737,0.00574,inferred,Stations_USGS
OBS_348,Moulkion,22.718,37.984,macroseismic,486.28,8.0,0.3,0.8059,0.631389,0.875,51.7516,1.0131,1.021797,1.0822,0.636323,1.4737,0.120984,inferred,Stations_USGS
OBS_361,Nea Smyrni,23.7,37.95,macroseismic,377.53,6.0,0.3,0.8059,0.13938,0.875,12.0507,1.0131,0.292094,1.0822,0.153056,1.4737,0.031453,inferred,Stations_USGS
OBS_513,Vagia,23.17,38.32,macroseismic,576.77,8.0,0.3,0.8059,0.612075,0.875,51.7516,1.0131,1.005244,1.0822,0.648556,1.4737,0.123594,inferred,Stations_USGS
OBS_484,Stavros,22.1,39.98,macroseismic,446.21,5.0,0.3,0.8059,0.050403,0.875,5.8151,1.0131,0.103274,1.0822,0.088129,1.4737,0.019196,inferred,Stations_USGS
OBS_328,Megas Valtos,22.633,38.0,macroseismic,513.74,7.5,0.3,0.8059,0.426144,0.875,35.9498,1.0131,0.741094,1.0822,0.44987,1.4737,0.087312,inferred,Stations_USGS
OBS_142,Distomon,22.667,38.417,macroseismic,634.52,7.5,0.3,0.8059,0.383433,0.875,35.9498,1.0131,0.701068,1.0822,0.479954,1.4737,0.093882,inferred,Stations_USGS
OBS_184,Goumeron,21.62,37.75,macroseismic,581.37,6.0,0.3,0.8059,0.110498,0.875,12.0507,1.0131,0.258528,1.0822,0.176465,1.4737,0.036892,inferred,Stations_USGS
OBS_171,Fteri,22.03,38.9,macroseismic,709.87,5.0,0.3,0.8059,0.0601,0.875,5.8151,1.0131,0.129541,1.0822,0.079119,1.4737,0.017011,inferred,Stations_USGS
OBS_66,AGIOS-VLASIOS  AITOLOAKARNANIA(445),21.495,38.837,macroseismic,575.75,4.0,0.3,0.8059,0.021857,0.875,2.2794,1.0131,0.030427,1.0822,0.030678,1.4737,0.006226,inferred,Stations_USGS
OBS_538,Vytina,22.183,37.667,macroseismic,411.57,5.0,0.3,0.8059,0.066799,0.875,5.8151,1.0131,0.148428,1.0822,0.074157,1.4737,0.01582,inferred,Stations_USGS
OBS_4,ALIMOS  ATHINA(32024),23.721,37.914,macroseismic,409.52,7.0,0.3,0.8059,0.25586,0.875,24.9729,1.0131,0.505439,1.0822,0.341696,1.4737,0.068285,inferred,Stations_USGS
OBS_330,Melission,22.67,38.03,macroseismic,656.94,7.0,0.3,0.8059,0.325691,0.875,24.9729,1.0131,0.573806,1.0822,0.294717,1.4737,0.057854,inferred,Stations_USGS
OBS_392,Paralia,21.7,38.2,macroseismic,264.54,5.0,0.3,0.8059,0.061324,0.875,5.8151,1.0131,0.132949,1.0822,0.078147,1.4737,0.016777,inferred,Stations_USGS
OBS_6,CHAIDARI  ATHINA(47437),23.629,38.002,macroseismic,593.79,6.5,0.3,0.8059,0.198374,0.875,17.3476,1.0131,0.394309,1.0822,0.221891,1.4737,0.044802,inferred,Stations_USGS
OBS_269,Lagkadia,22.02,37.67,macroseismic,888.47,5.5,0.3,0.8059,0.087558,0.875,8.3711,1.0131,0.204009,1.0822,0.113073,1.4737,0.023845,inferred,Stations_USGS
OBS_333,Mesochoria,24.22,38.25,macroseismic,611.58,5.5,0.3,0.8059,0.085598,0.875,8.3711,1.0131,0.201594,1.0822,0.114653,1.4737,0.024219,inferred,Stations_USGS
OBS_326,Megaplatanos,23.0,38.67,macroseismic,372.2,5.0,0.3,0.8059,0.07225,0.875,5.8151,1.0131,0.164207,1.0822,0.070676,1.4737,0.01499,inferred,Stations_USGS
OBS_110,Unknown,24.448,38.02,macroseismic,887.78,6.0,0.3,0.8059,0.111499,0.875,12.0507,1.0131,0.259756,1.0822,0.175492,1.4737,0.036664,inferred,Stations_USGS
OBS_379,Paiania,23.85,37.95,macroseismic,495.43,6.0,0.3,0.8059,0.131068,0.875,12.0507,1.0131,0.282804,1.0822,0.158933,1.4737,0.032809,inferred,Stations_USGS
OBS_116,Charavgi,21.57,37.97,macroseismic,900.0,6.0,0.3,0.8059,0.110729,0.875,12.0507,1.0131,0.258812,1.0822,0.176239,1.4737,0.036839,inferred,Stations_USGS
OBS_30,NEA-SMYRNI  ATHINA(69749),23.713,37.942,macroseismic,403.55,6.0,0.3,0.8059,0.138407,0.875,12.0507,1.0131,0.291021,1.0822,0.153714,1.4737,0.031604,inferred,Stations_USGS
OBS_18,RIGANIO  AITOLOAKARNANIA(325),21.761,38.481,macroseismic,719.29,6.0,0.3,0.8059,0.11391,0.875,12.0507,1.0131,0.262694,1.0822,0.173206,1.4737,0.036129,inferred,Stations_USGS
OBS_218,Karpenision,21.8,38.917,macroseismic,900.0,5.0,0.3,0.8059,0.058032,0.875,5.8151,1.0131,0.123828,1.0822,0.080836,1.4737,0.017425,inferred,Stations_USGS
OBS_242,Kokkinomilea,23.27,38.9,macroseismic,608.15,5.0,0.3,0.8059,0.065377,0.875,5.8151,1.0131,0.144371,1.0822,0.075141,1.4737,0.016055,inferred,Stations_USGS
OBS_181,Glossa,23.6,39.167,macroseismic,600.0,5.0,0.3,0.8059,0.05925,0.875,5.8151,1.0131,0.127186,1.0822,0.079813,1.4737,0.017178,inferred,Stations_USGS
OBS_545,Ymittos,23.75,37.95,macroseismic,478.86,6.0,0.3,0.8059,0.13635,0.875,12.0507,1.0131,0.288739,1.0822,0.155131,1.4737,0.031931,inferred,Stations_USGS
OBS_212,Kamena Vourla,22.77,38.77,macroseismic,900.0,5.0,0.3,0.8059,0.068269,0.875,5.8151,1.0131,0.152648,1.0822,0.073174,1.4737,0.015585,inferred,Stations_USGS
OBS_342,Modion,22.67,38.65,macroseismic,500.13,5.5,0.3,0.8059,0.097379,0.875,8.3711,1.0131,0.215734,1.0822,0.10594,1.4737,0.022166,inferred,Stations_USGS
OBS_40,AGRINIO  AITOLOAKARNANIA(40934),21.434,38.656,macroseismic,478.59,5.0,0.3,0.8059,0.056715,0.875,5.8151,1.0131,0.120221,1.0822,0.081981,1.4737,0.017702,inferred,Stations_USGS
OBS_542,Xiropigadon,22.717,37.483,macroseismic,840.49,5.0,0.3,0.8059,0.070282,0.875,5.8151,1.0131,0.158469,1.0822,0.071882,1.4737,0.015277,inferred,Stations_USGS
OBS_315,Manna,22.5,37.97,macroseismic,900.0,6.5,0.3,0.8059,0.206106,0.875,17.3476,1.0131,0.402316,1.0822,0.21675,1.4737,0.043641,inferred,Stations_USGS
OBS_95,GRAMMATIKOU  AITOLOAKARNANIA(1037),21.5,38.534,macroseismic,485.76,3.0,0.3,,,,,,,,,,,inferred,Stations_USGS
OBS_360,Nea Penteli,23.85,38.03,macroseismic,443.42,5.0,0.3,0.8059,0.070684,0.875,5.8151,1.0131,0.159635,1.0822,0.071632,1.4737,0.015217,inferred,Stations_USGS
OBS_516,Vari,23.78,37.82,macroseismic,454.04,6.0,0.3,0.8059,0.131842,0.875,12.0507,1.0131,0.28368,1.0822,0.158361,1.4737,0.032677,inferred,Stations_USGS
OBS_299,Lygourion,23.02,37.62,macroseismic,704.05,6.0,0.3,0.8059,0.142755,0.875,12.0507,1.0131,0.295792,1.0822,0.150827,1.4737,0.03094,inferred,Stations_USGS
OBS_8,LYKOVRYSI  ATHINA(5965),23.782,38.068,macroseismic,413.96,6.5,0.3,0.8059,0.184835,0.875,17.3476,1.0131,0.379924,1.0822,0.231716,1.4737,0.047032,inferred,Stations_USGS
OBS_39,AGIOS-THOMAS  AITOLOAKARNANIA(679),21.472,38.39,macroseismic,450.93,5.0,0.3,0.8059,0.058152,0.875,5.8151,1.0131,0.12416,1.0822,0.080733,1.4737,0.0174,inferred,Stations_USGS
OBS_492,Stropones,23.87,38.62,macroseismic,900.0,5.5,0.3,0.8059,0.089099,0.875,8.3711,1.0131,0.205888,1.0822,0.11187,1.4737,0.023561,inferred,Stations_USGS
OBS_93,DRYMOS  AITOLOAKARNANIA(688),21.03,38.868,macroseismic,805.06,3.0,0.3,,,,,,,,,,,inferred,Stations_USGS
OBS_341,Mitopolis,21.67,38.03,macroseismic,332.34,5.5,0.3,0.8059,0.083022,0.875,8.3711,1.0131,0.198383,1.0822,0.11682,1.4737,0.024733,inferred,Stations_USGS
OBS_206,Kallithea,22.45,38.07,macroseismic,900.0,6.0,0.3,0.8059,0.148175,0.875,12.0507,1.0131,0.301643,1.0822,0.147422,1.4737,0.030158,inferred,Stations_USGS
OBS_294,Lousika,21.6,38.08,macroseismic,453.55,null,null,0.8059,0.152583,0.875,17.3476,1.0131,0.343492,1.0822,0.260614,1.4737,0.053653,inferred,Stations_USGS
OBS_146,Dystos,24.12,38.37,macroseismic,559.52,5.0,0.3,0.8059,0.063742,0.875,5.8151,1.0131,0.139737,1.0822,0.076317,1.4737,0.016337,inferred,Stations_USGS
OBS_19,SARGIADA  AITOLOAKARNANIA(373),21.393,38.769,macroseismic,494.01,6.0,0.3,0.8059,0.10396,0.875,12.0507,1.0131,0.250369,1.0822,0.183187,1.4737,0.03847,inferred,Stations_USGS
OBS_416,Platanistos,24.5,38.02,macroseismic,900.0,5.5,0.3,0.8059,0.080819,0.875,8.3711,1.0131,0.195597,1.0822,0.118762,1.4737,0.025194,inferred,Stations_USGS
OBS_104,Avgeion,21.35,37.87,macroseismic,328.93,5.0,0.3,0.8059,0.056825,0.875,5.8151,1.0131,0.120523,1.0822,0.081883,1.4737,0.017678,inferred,Stations_USGS
OBS_489,Stirfaka,22.3,38.95,macroseismic,485.97,5.0,0.3,0.8059,0.061539,0.875,5.8151,1.0131,0.133548,1.0822,0.07798,1.4737,0.016737,inferred,Stations_USGS
OBS_7,CHOLARGOS  ATHINA(33691),23.802,37.993,macroseismic,467.01,6.5,0.3,0.8059,0.182884,0.875,17.3476,1.0131,0.377811,1.0822,0.233227,1.4737,0.047376,inferred,Stations_USGS
OBS_468,Skyros,24.567,38.9,macroseismic,556.27,5.0,0.3,0.8059,0.05556,0.875,5.8151,1.0131,0.117077,1.0822,0.083022,1.4737,0.017954,inferred,Stations_USGS
OBS_80,LESINI  AITOLOAKARNANIA(943),21.199,38.459,macroseismic,449.05,4.0,0.3,0.8059,0.021103,0.875,2.2794,1.0131,0.029856,1.0822,0.031213,1.4737,0.00639,inferred,Stations_USGS
OBS_114,Chalkis,23.583,38.467,macroseismic,410.04,6.0,0.3,0.8059,0.137024,0.875,12.0507,1.0131,0.289488,1.0822,0.154663,1.4737,0.031823,inferred,Stations_USGS
OBS_530,Vouliagmeni,23.2,37.97,macroseismic,537.37,6.0,0.3,0.8059,0.209602,0.875,12.0507,1.0131,0.361974,1.0822,0.119191,1.4737,0.023765,inferred,Stations_USGS
OBS_480,Stavros,22.93,38.57,macroseismic,416.39,5.0,0.3,0.8059,0.076073,0.875,5.8151,1.0131,0.168972,1.0822,0.068477,1.4737,0.014468,inferred,Stations_USGS
OBS_56,MESARISTA  AITOLOAKARNANIA(455),21.593,38.454,macroseismic,528.26,4.5,0.3,0.8059,0.043408,0.875,4.0395,1.0131,0.064358,1.0822,0.05366,1.4737,0.011718,inferred,Stations_USGS
OBS_202,Kalavryta,22.1,38.02,macroseismic,900.0,6.5,0.3,0.8059,0.173407,0.875,17.3476,1.0131,0.367388,1.0822,0.24096,1.4737,0.049139,inferred,Stations_USGS
OBS_312,Manesion,21.95,38.02,macroseismic,726.12,5.5,0.3,0.8059,0.08892,0.875,8.3711,1.0131,0.205671,1.0822,0.112008,1.4737,0.023594,inferred,Stations_USGS
OBS_306,Makrykapa,23.72,38.62,macroseismic,688.1,6.0,0.3,0.8059,0.125845,0.875,12.0507,1.0131,0.276821,1.0822,0.162945,1.4737,0.033739,inferred,Stations_USGS
OBS_75,ELAIOPHYTO  AITOLOAKARNANIA(1533),21.383,38.667,macroseismic,641.65,4.0,0.3,0.8059,0.021868,0.875,2.2794,1.0131,0.030435,1.0822,0.03067,1.4737,0.006224,inferred,Stations_USGS
OBS_86,TRIKORPHO  AITOLOAKARNANIA(483),21.652,38.418,macroseismic,578.3,4.0,0.3,0.8059,0.025642,0.875,2.2794,1.0131,0.033165,1.0822,0.028355,1.4737,0.005532,inferred,Stations_USGS
OBS_249,Korinthos,22.917,37.933,macroseismic,363.33,7.0,0.3,0.8059,0.388706,0.875,24.9729,1.0131,0.629722,1.0822,0.264438,1.4737,0.051235,inferred,Stations_USGS
OBS_447,Roviai,23.22,38.82,macroseismic,600.0,5.5,0.3,0.8059,0.092179,0.875,8.3711,1.0131,0.2096,1.0822,0.109564,1.4737,0.023018,inferred,Stations_USGS
OBS_477,Stadion,22.42,37.45,macroseismic,296.85,5.0,0.3,0.8059,0.066393,0.875,5.8151,1.0131,0.147267,1.0822,0.074434,1.4737,0.015886,inferred,Stations_USGS
OBS_108,Bozikas,22.6,37.92,macroseismic,900.0,6.5,0.3,0.8059,0.217132,0.875,17.3476,1.0131,0.413491,1.0822,0.209937,1.4737,0.042106,inferred,Stations_USGS
OBS_440,Riza,22.57,38.03,macroseismic,741.65,7.0,0.3,0.8059,0.297902,0.875,24.9729,1.0131,0.547524,1.0822,0.311275,1.4737,0.061509,inferred,Stations_USGS
OBS_524,Velimachion,21.87,37.82,macroseismic,485.09,5.0,0.3,0.8059,0.062953,0.875,5.8151,1.0131,0.137514,1.0822,0.076902,1.4737,0.016477,inferred,Stations_USGS
OBS_406,Perama,23.57,37.97,macroseismic,585.29,5.0,0.3,0.8059,0.080264,0.875,5.8151,1.0131,0.173804,1.0822,0.066263,1.4737,0.013945,inferred,Stations_USGS
OBS_282,Leonidion,22.85,37.17,macroseismic,472.86,5.0,0.3,0.8059,0.062867,0.875,5.8151,1.0131,0.137271,1.0822,0.076967,1.4737,0.016493,inferred,Stations_USGS
OBS_445,Rogitika,21.683,38.183,macroseismic,363.84,5.0,0.3,0.8059,0.061104,0.875,5.8151,1.0131,0.132336,1.0822,0.078319,1.4737,0.016818,inferred,Stations_USGS
OBS_297,Lygaria,22.35,38.92,macroseismic,371.33,5.0,0.3,0.8059,0.062376,0.875,5.8151,1.0131,0.135892,1.0822,0.077337,1.4737,0.016582,inferred,Stations_USGS
OBS_165,Figaleia,21.82,37.4,macroseismic,801.56,5.5,0.3,0.8059,0.080712,0.875,8.3711,1.0131,0.195461,1.0822,0.118859,1.4737,0.025217,inferred,Stations_USGS
OBS_519,Vasilakion,21.767,37.65,macroseismic,464.85,5.0,0.3,0.8059,0.060521,0.875,5.8151,1.0131,0.13071,1.0822,0.078782,1.4737,0.016929,inferred,Stations_USGS
OBS_131,Dafniotissa,21.45,37.82,macroseismic,475.81,5.0,0.3,0.8059,0.057688,0.875,5.8151,1.0131,0.122884,1.0822,0.081131,1.4737,0.017496,inferred,Stations_USGS
OBS_535,Vracha,21.78,39.07,macroseismic,900.0,5.0,0.3,0.8059,0.056522,0.875,5.8151,1.0131,0.119697,1.0822,0.082152,1.4737,0.017743,inferred,Stations_USGS
OBS_265,Kymi,24.1,38.62,macroseismic,697.43,5.5,0.3,0.8059,0.084815,0.875,8.3711,1.0131,0.200624,1.0822,0.1153,1.4737,0.024373,inferred,Stations_USGS
OBS_185,Grammatikon,23.95,38.2,macroseismic,624.05,6.0,0.3,0.8059,0.126391,0.875,12.0507,1.0131,0.277452,1.0822,0.162513,1.4737,0.033639,inferred,Stations_USGS
OBS_109,Bralos,22.47,38.72,macroseismic,540.81,5.5,0.3,0.8059,0.09193,0.875,8.3711,1.0131,0.209301,1.0822,0.109746,1.4737,0.023061,inferred,Stations_USGS
OBS_211,Kamarion,22.57,38.08,macroseismic,900.0,6.0,0.3,0.8059,0.160533,0.875,12.0507,1.0131,0.314617,1.0822,0.140358,1.4737,0.028543,inferred,Stations_USGS
OBS_60,NEA-AVORANI  AITOLOAKARNANIA(943),21.452,38.607,macroseismic,402.86,4.5,0.3,0.8059,0.041841,0.875,4.0395,1.0131,0.061382,1.0822,0.054883,1.4737,0.012018,inferred,Stations_USGS
OBS_344,Molos,22.63,38.82,macroseismic,382.19,5.5,0.3,0.8059,0.090477,0.875,8.3711,1.0131,0.207556,1.0822,0.110823,1.4737,0.023314,inferred,Stations_USGS
OBS_475,Spercheias,22.117,38.9,macroseismic,793.18,5.0,0.3,0.8059,0.060831,0.875,5.8151,1.0131,0.131574,1.0822,0.078535,1.4737,0.01687,inferred,Stations_USGS
OBS_356,Nea Filadelfeia,23.734,38.034,macroseismic,347.66,6.5,0.3,0.8059,0.18869,0.875,17.3476,1.0131,0.38407,1.0822,0.228803,1.4737,0.046369,inferred,Stations_USGS
OBS_335,Metamorfosis,23.75,38.07,macroseismic,353.34,7.5,0.3,0.8059,0.349196,0.875,35.9498,1.0131,0.66743,1.0822,0.508272,1.4737,0.100111,inferred,Stations_USGS
OBS_420,Platanos,21.62,37.67,macroseismic,526.08,5.5,0.3,0.8059,0.080446,0.875,8.3711,1.0131,0.195122,1.0822,0.119099,1.4737,0.025274,inferred,Stations_USGS
OBS_307,Malandrinon,22.22,38.45,macroseismic,426.8,5.0,0.3,0.8059,0.068829,0.875,5.8151,1.0131,0.15426,1.0822,0.072809,1.4737,0.015498,inferred,Stations_USGS
OBS_160,Ermoupolis,24.933,37.45,macroseismic,803.93,5.0,0.3,0.8059,0.053596,0.875,5.8151,1.0131,0.111775,1.0822,0.084873,1.4737,0.018403,inferred,Stations_USGS
OBS_441,Rizai,22.45,37.45,macroseismic,250.08,5.5,0.3,0.8059,0.091094,0.875,8.3711,1.0131,0.208299,1.0822,0.110362,1.4737,0.023206,inferred,Stations_USGS
OBS_340,Mintiloglion,21.7,38.183,macroseismic,450.29,5.0,0.3,0.8059,0.061338,0.875,5.8151,1.0131,0.132989,1.0822,0.078136,1.4737,0.016774,inferred,Stations_USGS
OBS_28,KIPHISSIA  ATHINA(39166),23.833,38.073,macroseismic,503.26,6.0,0.3,0.8059,0.132623,0.875,12.0507,1.0131,0.284562,1.0822,0.157789,1.4737,0.032545,inferred,Stations_USGS
OBS_215,Kapandrition,23.87,38.22,macroseismic,533.54,6.0,0.3,0.8059,0.129632,0.875,12.0507,1.0131,0.28117,1.0822,0.16001,1.4737,0.033059,inferred,Stations_USGS
OBS_393,Paralia Avlidos,23.617,38.383,macroseismic,373.94,6.5,0.3,0.8059,0.189661,0.875,17.3476,1.0131,0.385108,1.0822,0.228083,1.4737,0.046206,inferred,Stations_USGS
OBS_376,Orchomenos,22.967,38.483,macroseismic,337.29,5.0,0.3,0.8059,0.080838,0.875,5.8151,1.0131,0.174456,1.0822,0.065974,1.4737,0.013877,inferred,Stations_USGS
OBS_239,Kleitoria,22.217,37.883,macroseismic,858.67,5.0,0.3,0.8059,0.070155,0.875,5.8151,1.0131,0.158099,1.0822,0.071962,1.4737,0.015296,inferred,Stations_USGS
OBS_101,Atalanti,22.983,38.65,macroseismic,828.94,5.5,0.3,0.8059,0.099559,0.875,8.3711,1.0131,0.21826,1.0822,0.104512,1.4737,0.021832,inferred,Stations_USGS
OBS_219,Karya,23.0,38.47,macroseismic,208.96,8.0,0.3,0.8059,0.529394,0.875,51.7516,1.0131,0.931403,1.0822,0.708887,1.4737,0.13655,inferred,Stations_USGS
OBS_377,Oreoi,23.083,38.95,macroseismic,600.0,6.0,0.3,0.8059,0.120128,0.875,12.0507,1.0131,0.270138,1.0822,0.167655,1.4737,0.034834,inferred,Stations_USGS
OBS_62,PALAIROS  AITOLOAKARNANIA(2302),20.91,38.795,macroseismic,900.0,4.5,0.3,0.8059,0.03833,0.875,4.0395,1.0131,0.05483,1.0822,0.057912,1.4737,0.012763,inferred,Stations_USGS
OBS_313,Manesion,21.668,37.984,macroseismic,612.48,null,null,0.8059,0.154351,0.875,17.3476,1.0131,0.345578,1.0822,0.25878,1.4737,0.05323,inferred,Stations_USGS
OBS_89,KOMPOTI  AITOLOAKARNANIA(516),21.04,38.755,macroseismic,621.58,3.5,0.3,,,,,,,,,,,inferred,Stations_USGS
OBS_36,APHROXYLIA  AITOLOAKARNANIA(307),21.77,38.426,macroseismic,804.11,5.5,0.3,0.8059,0.084041,0.875,8.3711,1.0131,0.199658,1.0822,0.11595,1.4737,0.024527,inferred,Stations_USGS
OBS_58,MYRTIA  AITOLOAKARNANIA(880),21.601,38.581,macroseismic,600.0,4.5,0.3,0.8059,0.043009,0.875,4.0395,1.0131,0.063598,1.0822,0.053964,1.4737,0.011792,inferred,Stations_USGS
OBS_501,Thisvi,22.967,38.25,macroseismic,429.49,8.5,0.3,0.8059,0.904033,0.875,74.4992,1.0131,1.383717,1.0822,0.91912,1.4737,0.171627,inferred,Stations_USGS
OBS_59,NAFPAKTOS  AITOLOAKARNANIA(10854),21.824,38.392,macroseismic,598.04,4.5,0.3,0.8059,0.04579,0.875,4.0395,1.0131,0.068942,1.0822,0.051931,1.4737,0.011296,inferred,Stations_USGS
OBS_405,Penteoria,22.32,38.4,macroseismic,653.11,5.5,0.3,0.8059,0.098115,0.875,8.3711,1.0131,0.216591,1.0822,0.105452,1.4737,0.022052,inferred,Stations_USGS
OBS_470,Solomos,22.87,37.87,macroseismic,710.56,6.0,0.3,0.8059,0.181959,0.875,12.0507,1.0131,0.336037,1.0822,0.129984,1.4737,0.02619,inferred,Stations_USGS
OBS_29,MELISSIA  ATHINA(13469),23.839,38.055,macroseismic,518.77,6.0,0.3,0.8059,0.132316,0.875,12.0507,1.0131,0.284216,1.0822,0.158013,1.4737,0.032596,inferred,Stations_USGS
OBS_401,Pavlos,23.07,38.52,macroseismic,519.94,7.5,0.3,0.8059,0.375719,0.875,35.9498,1.0131,0.693618,1.0822,0.48597,1.4737,0.095201,inferred,Stations_USGS
OBS_421,Platanos,21.43,38.07,macroseismic,292.51,5.0,0.3,0.8059,0.058011,0.875,5.8151,1.0131,0.123771,1.0822,0.080854,1.4737,0.017429,inferred,Stations_USGS
OBS_287,Levadeia,22.867,38.433,macroseismic,624.48,5.5,0.3,0.8059,0.113836,0.875,8.3711,1.0131,0.234192,1.0822,0.096271,1.4737,0.019912,inferred,Stations_USGS
OBS_210,Kamarai,22.0,38.28,macroseismic,600.09,5.5,0.3,0.8059,0.090091,0.875,8.3711,1.0131,0.20709,1.0822,0.111114,1.4737,0.023383,inferred,Stations_USGS
OBS_388,Panaritis,22.82,37.63,macroseismic,351.59,5.5,0.3,0.8059,0.105025,0.875,8.3711,1.0131,0.22448,1.0822,0.101144,1.4737,0.021045,inferred,Stations_USGS
OBS_413,Pilion,23.57,38.75,macroseismic,653.55,6.0,0.3,0.8059,0.124506,0.875,12.0507,1.0131,0.275269,1.0822,0.164017,1.4737,0.033988,inferred,Stations_USGS
OBS_534,Vourvoura,22.48,37.33,macroseismic,482.9,5.0,0.3,0.8059,0.064496,0.875,5.8151,1.0131,0.14187,1.0822,0.075769,1.4737,0.016206,inferred,Stations_USGS
OBS_423,Portai,21.57,37.93,macroseismic,541.13,5.5,0.3,0.8059,0.08098,0.875,8.3711,1.0131,0.195802,1.0822,0.118617,1.4737,0.02516,inferred,Stations_USGS
OBS_365,Nemouta,21.77,37.7,macroseismic,311.56,5.0,0.3,0.8059,0.060874,0.875,5.8151,1.0131,0.131693,1.0822,0.078501,1.4737,0.016862,inferred,Stations_USGS
OBS_179,Giannitsou,22.117,38.983,macroseismic,610.72,5.5,0.3,0.8059,0.081578,0.875,8.3711,1.0131,0.196561,1.0822,0.118083,1.4737,0.025033,inferred,Stations_USGS
OBS_290,Livanatai,23.03,38.72,macroseismic,511.73,5.0,0.3,0.8059,0.07061,0.875,5.8151,1.0131,0.159422,1.0822,0.071677,1.4737,0.015228,inferred,Stations_USGS
OBS_476,Spetsai,23.13,37.27,macroseismic,537.63,5.0,0.3,0.8059,0.064747,0.875,5.8151,1.0131,0.142581,1.0822,0.075589,1.4737,0.016162,inferred,Stations_USGS
OBS_251,Korydallos,23.6,37.97,macroseismic,587.1,6.5,0.3,0.8059,0.200677,0.875,17.3476,1.0131,0.396709,1.0822,0.220326,1.4737,0.044449,inferred,Stations_USGS
OBS_100,Astros,22.717,37.4,macroseismic,586.96,6.0,0.3,0.8059,0.126392,0.875,12.0507,1.0131,0.277454,1.0822,0.162512,1.4737,0.033638,inferred,Stations_USGS
OBS_395,Parorio,22.75,38.55,macroseismic,688.95,6.0,0.3,0.8059,0.141473,0.875,12.0507,1.0131,0.294392,1.0822,0.151663,1.4737,0.031132,inferred,Stations_USGS
OBS_276,Lavrio,24.05,37.717,macroseismic,424.23,5.5,0.3,0.8059,0.08771,0.875,8.3711,1.0131,0.204195,1.0822,0.112952,1.4737,0.023817,inferred,Stations_USGS
OBS_214,Kandila,22.37,37.77,macroseismic,588.56,5.5,0.3,0.8059,0.098997,0.875,8.3711,1.0131,0.217612,1.0822,0.104875,1.4737,0.021917,inferred,Stations_USGS
OBS_103,Athinaion,22.25,37.4,macroseismic,523.98,5.5,0.3,0.8059,0.086783,0.875,8.3711,1.0131,0.203057,1.0822,0.113691,1.4737,0.023992,inferred,Stations_USGS
OBS_550,Ziria,21.97,38.28,macroseismic,590.62,5.0,0.3,0.8059,0.06544,0.875,5.8151,1.0131,0.144549,1.0822,0.075097,1.4737,0.016045,inferred,Stations_USGS
OBS_275,Latzoion,21.53,37.7,macroseismic,415.21,5.0,0.3,0.8059,0.058106,0.875,5.8151,1.0131,0.124032,1.0822,0.080773,1.4737,0.01741,inferred,Stations_USGS
OBS_162,Examilia,22.92,37.9,macroseismic,430.09,7.0,0.3,0.8059,0.361242,0.875,24.9729,1.0131,0.605925,1.0822,0.276585,1.4737,0.05388,inferred,Stations_USGS
OBS_531,Vounargon,21.417,37.733,macroseismic,369.11,5.0,0.3,0.8059,0.057085,0.875,5.8151,1.0131,0.121233,1.0822,0.081655,1.4737,0.017623,inferred,Stations_USGS
OBS_387,Panarition,22.533,37.983,macroseismic,900.0,7.0,0.3,0.8059,0.288005,0.875,24.9729,1.0131,0.537884,1.0822,0.317789,1.4737,0.062953,inferred,Stations_USGS
OBS_232,Keramidia,21.45,37.83,macroseismic,479.43,5.0,0.3,0.8059,0.057717,0.875,5.8151,1.0131,0.122965,1.0822,0.081105,1.4737,0.01749,inferred,Stations_USGS
OBS_417,Platanos,22.65,37.32,macroseismic,900.0,5.5,0.3,0.8059,0.089344,0.875,8.3711,1.0131,0.206186,1.0822,0.111682,1.4737,0.023517,inferred,Stations_USGS
OBS_385,Palamas,22.38,39.02,macroseismic,604.67,5.0,0.3,0.8059,0.060962,0.875,5.8151,1.0131,0.131939,1.0822,0.078432,1.4737,0.016845,inferred,Stations_USGS
OBS_199,Kaisarion,22.57,37.95,macroseismic,717.0,6.5,0.3,0.8059,0.214832,0.875,17.3476,1.0131,0.411183,1.0822,0.211311,1.4737,0.042415,inferred,Stations_USGS
OBS_522,Vathy,23.6,38.4,macroseismic,334.18,7.0,0.3,0.8059,0.259334,0.875,24.9729,1.0131,0.509035,1.0822,0.338883,1.4737,0.067655,inferred,Stations_USGS
OBS_515,Varda,21.37,38.02,macroseismic,357.47,5.0,0.3,0.8059,0.057326,0.875,5.8151,1.0131,0.121893,1.0822,0.081444,1.4737,0.017572,inferred,Stations_USGS
OBS_396,Parthenion,22.52,37.47,macroseismic,447.71,5.5,0.3,0.8059,0.092811,0.875,8.3711,1.0131,0.210354,1.0822,0.109106,1.4737,0.02291,inferred,Stations_USGS
OBS_16,PHILOTHEI  ATHINA(8396),23.776,38.023,macroseismic,429.09,6.5,0.3,0.8059,0.185163,0.875,17.3476,1.0131,0.380279,1.0822,0.231464,1.4737,0.046974,inferred,Stations_USGS
OBS_414,Planiteron,22.17,37.92,macroseismic,900.0,5.0,0.3,0.8059,0.069283,0.875,5.8151,1.0131,0.155574,1.0822,0.072516,1.4737,0.015428,inferred,Stations_USGS
OBS_51,KARAISKAKIS  AITOLOAKARNANIA(742),21.077,38.561,macroseismic,900.0,4.5,0.3,0.8059,0.039673,0.875,4.0395,1.0131,0.057316,1.0822,0.056702,1.4737,0.012465,inferred,Stations_USGS
OBS_351,Myloi,22.78,38.97,macroseismic,900.0,5.0,0.3,0.8059,0.063492,0.875,5.8151,1.0131,0.139032,1.0822,0.076501,1.4737,0.016381,inferred,Stations_USGS
OBS_166,Fiki,21.63,39.52,macroseismic,374.72,5.0,0.3,0.8059,0.052283,0.875,5.8151,1.0131,0.108263,1.0822,0.086173,1.4737,0.018719,inferred,Stations_USGS
OBS_1,METAMORPHOSI  ATHINA(21052),23.762,38.064,macroseismic,381.94,7.5,0.3,0.8059,0.347369,0.875,35.9498,1.0131,0.665591,1.0822,0.509909,1.4737,0.100473,inferred,Stations_USGS
OBS_177,Gastouni,21.25,37.83,macroseismic,229.23,5.5,0.3,0.8059,0.076173,0.875,8.3711,1.0131,0.189602,1.0822,0.123151,1.4737,0.02624,inferred,Stations_USGS
OBS_263,Kropia,23.63,38.03,macroseismic,833.96,6.5,0.3,0.8059,0.198702,0.875,17.3476,1.0131,0.394652,1.0822,0.221666,1.4737,0.044751,inferred,Stations_USGS
OBS_115,Chandrinos,21.77,36.95,macroseismic,479.87,5.0,0.3,0.8059,0.054869,0.875,5.8151,1.0131,0.115205,1.0822,0.083661,1.4737,0.018109,inferred,Stations_USGS
OBS_137,Diakopton,22.2,38.183,macroseismic,900.0,5.0,0.3,0.8059,0.070886,0.875,5.8151,1.0131,0.160224,1.0822,0.071506,1.4737,0.015187,inferred,Stations_USGS
OBS_411,Petroton,21.95,39.583,macroseismic,611.78,6.0,0.3,0.8059,0.098671,0.875,12.0507,1.0131,0.243589,1.0822,0.189144,1.4737,0.039875,inferred,Stations_USGS
OBS_136,Desfina,22.517,38.417,macroseismic,549.87,6.0,0.3,0.8059,0.142963,0.875,12.0507,1.0131,0.296018,1.0822,0.150693,1.4737,0.030909,inferred,Stations_USGS
OBS_427,Prodromos,22.92,38.25,macroseismic,587.19,9.5,0.3,0.8059,1.674036,0.875,154.3859,1.0131,2.405354,1.0822,2.041026,1.4737,0.37039,inferred,Stations_USGS
OBS_383,Palaiomonastiron,21.65,39.467,macroseismic,362.37,5.0,0.3,0.8059,0.05273,0.875,5.8151,1.0131,0.109454,1.0822,0.085725,1.4737,0.01861,inferred,Stations_USGS
OBS_399,Patrai,21.733,38.267,macroseismic,600.0,5.5,0.3,0.8059,0.084186,0.875,8.3711,1.0131,0.199839,1.0822,0.115828,1.4737,0.024498,inferred,Stations_USGS
OBS_309,Malesina,23.22,38.62,macroseismic,589.58,5.5,0.3,0.8059,0.101228,0.875,8.3711,1.0131,0.220176,1.0822,0.103453,1.4737,0.021584,inferred,Stations_USGS
OBS_200,Kakovatos,21.62,37.47,macroseismic,600.0,5.5,0.3,0.8059,0.078845,0.875,8.3711,1.0131,0.19307,1.0822,0.120576,1.4737,0.025626,inferred,Stations_USGS
OBS_450,Samikon,21.583,37.567,macroseismic,559.05,5.0,0.3,0.8059,0.057996,0.875,5.8151,1.0131,0.123729,1.0822,0.080867,1.4737,0.017432,inferred,Stations_USGS
OBS_346,Moschochorion,22.433,38.817,macroseismic,310.66,5.0,0.3,0.8059,0.064903,0.875,5.8151,1.0131,0.143023,1.0822,0.075477,1.4737,0.016136,inferred,Stations_USGS
OBS_288,Lichas,22.87,38.83,macroseismic,454.39,6.0,0.3,0.8059,0.124692,0.875,12.0507,1.0131,0.275486,1.0822,0.163866,1.4737,0.033953,inferred,Stations_USGS
OBS_404,Pentapolis,22.2,38.47,macroseismic,521.77,5.0,0.3,0.8059,0.068141,0.875,5.8151,1.0131,0.152278,1.0822,0.073259,1.4737,0.015605,inferred,Stations_USGS
OBS_231,Kato Tithorea,22.72,38.58,macroseismic,491.71,6.0,0.3,0.8059,0.138555,0.875,12.0507,1.0131,0.291184,1.0822,0.153613,1.4737,0.031581,inferred,Stations_USGS
OBS_408,Peristerion,23.67,38.0,macroseismic,459.95,6.5,0.3,0.8059,0.19415,0.875,17.3476,1.0131,0.389873,1.0822,0.224837,1.4737,0.04547,inferred,Stations_USGS
OBS_458,Selianitika,22.017,38.283,macroseismic,606.97,5.5,0.3,0.8059,0.090517,0.875,8.3711,1.0131,0.207605,1.0822,0.110793,1.4737,0.023307,inferred,Stations_USGS
OBS_485,Stavroupolis,22.92,40.67,macroseismic,760.0,5.0,0.3,0.8059,0.046957,0.875,5.8151,1.0131,0.094272,1.0822,0.092039,1.4737,0.020153,inferred,Stations_USGS
OBS_339,Midea,22.83,37.65,macroseismic,432.52,6.0,0.3,0.8059,0.145425,0.875,12.0507,1.0131,0.298687,1.0822,0.149124,1.4737,0.030548,inferred,Stations_USGS
OBS_107,Avlonarion,24.12,38.5,macroseismic,290.85,5.0,0.3,0.8059,0.062894,0.875,5.8151,1.0131,0.137349,1.0822,0.076946,1.4737,0.016488,inferred,Stations_USGS
OBS_207,Kalyvia,24.4,38.03,macroseismic,495.12,6.0,0.3,0.8059,0.112657,0.875,12.0507,1.0131,0.26117,1.0822,0.174385,1.4737,0.036405,inferred,Stations_USGS
OBS_213,Kamenitsa,22.17,37.72,macroseismic,462.98,5.5,0.3,0.8059,0.091833,0.875,8.3711,1.0131,0.209186,1.0822,0.109817,1.4737,0.023077,inferred,Stations_USGS
OBS_510,Trikala,21.783,39.55,macroseismic,251.64,5.0,0.3,0.8059,0.052641,0.875,5.8151,1.0131,0.109217,1.0822,0.085814,1.4737,0.018632,inferred,Stations_USGS
OBS_192,Gytheion,22.53,36.75,macroseismic,470.84,5.0,0.3,0.8059,0.055979,0.875,5.8151,1.0131,0.118218,1.0822,0.082639,1.4737,0.017861,inferred,Stations_USGS
OBS_397,Pasion,22.72,38.0,macroseismic,565.65,8.0,0.3,0.8059,0.637379,0.875,51.7516,1.0131,1.026882,1.0822,0.632651,1.4737,0.120202,inferred,Stations_USGS
OBS_451,Santomerion,21.568,37.984,macroseismic,900.0,6.0,0.3,0.8059,0.110746,0.875,12.0507,1.0131,0.258833,1.0822,0.176222,1.4737,0.036835,inferred,Stations_USGS
OBS_478,Stamata,23.87,38.12,macroseismic,435.0,5.5,0.3,0.8059,0.095672,0.875,8.3711,1.0131,0.213739,1.0822,0.107095,1.4737,0.022437,inferred,Stations_USGS
OBS_157,Eptalofos,22.5,38.58,macroseismic,900.0,5.5,0.3,0.8059,0.097382,0.875,8.3711,1.0131,0.215738,1.0822,0.105938,1.4737,0.022166,inferred,Stations_USGS
OBS_61,PALAIOMANINA  AITOLOAKARNANIA(983),21.222,38.542,macroseismic,384.38,4.5,0.3,0.8059,0.04055,0.875,4.0395,1.0131,0.058953,1.0822,0.055948,1.4737,0.012279,inferred,Stations_USGS
OBS_500,Thespiai,23.12,38.28,macroseismic,297.77,7.5,0.3,0.8059,0.474743,0.875,35.9498,1.0131,0.784387,1.0822,0.421056,1.4737,0.081069,inferred,Stations_USGS
OBS_193,Ilioupolis,23.75,37.92,macroseismic,546.51,6.0,0.3,0.8059,0.135795,0.875,12.0507,1.0131,0.28812,1.0822,0.15552,1.4737,0.032021,inferred,Stations_USGS
OBS_22,DAPHNI  ATHINA(24152),23.731,37.948,macroseismic,366.52,6.0,0.3,0.8059,0.137431,0.875,12.0507,1.0131,0.28994,1.0822,0.154382,1.4737,0.031758,inferred,Stations_USGS
OBS_302,Lykovrisi,23.77,38.07,macroseismic,434.11,6.5,0.3,0.8059,0.18578,0.875,17.3476,1.0131,0.380945,1.0822,0.230992,1.4737,0.046867,inferred,Stations_USGS
OBS_229,Unknown,22.394,37.285,macroseismic,432.74,5.0,0.3,0.8059,0.062974,0.875,5.8151,1.0131,0.137573,1.0822,0.076886,1.4737,0.016474,inferred,Stations_USGS
OBS_48,GAVALOU  AITOLOAKARNANIA(1376),21.539,38.495,macroseismic,899.2,4.5,0.3,0.8059,0.042846,0.875,4.0395,1.0131,0.063286,1.0822,0.054091,1.4737,0.011823,inferred,Stations_USGS
OBS_325,Megalopolis,22.117,37.417,macroseismic,382.7,5.0,0.3,0.8059,0.06238,0.875,5.8151,1.0131,0.135903,1.0822,0.077334,1.4737,0.016581,inferred,Stations_USGS
OBS_248,Korakovounion,22.733,37.35,macroseismic,831.11,5.0,0.3,0.8059,0.066602,0.875,5.8151,1.0131,0.147863,1.0822,0.074292,1.4737,0.015852,inferred,Stations_USGS
OBS_182,Glyfada,23.75,37.87,macroseismic,389.87,6.0,0.3,0.8059,0.134638,0.875,12.0507,1.0131,0.286827,1.0822,0.156337,1.4737,0.032209,inferred,Stations_USGS
OBS_353,Mytikas,23.65,38.43,macroseismic,270.84,6.0,0.3,0.8059,0.135478,0.875,12.0507,1.0131,0.287766,1.0822,0.155742,1.4737,0.032072,inferred,Stations_USGS
OBS_532,Vounichora,22.28,38.45,macroseismic,900.0,5.5,0.3,0.8059,0.095661,0.875,8.3711,1.0131,0.213726,1.0822,0.107102,1.4737,0.022439,inferred,Stations_USGS
OBS_72,ARACHOVA  AITOLOAKARNANIA(280),21.863,38.684,macroseismic,900.0,4.0,0.3,0.8059,0.026345,0.875,2.2794,1.0131,0.033652,1.0822,0.027979,1.4737,0.005422,inferred,Stations_USGS
OBS_73,CHOUNI  AITOLOAKARNANIA(563),21.538,38.849,macroseismic,879.53,4.0,0.3,0.8059,0.0221,0.875,2.2794,1.0131,0.030609,1.0822,0.030511,1.4737,0.006176,inferred,Stations_USGS
OBS_31,NEO-PSYCHIKO  ATHINA(12023),23.781,38.003,macroseismic,301.66,6.0,0.3,0.8059,0.135227,0.875,12.0507,1.0131,0.287486,1.0822,0.155919,1.4737,0.032113,inferred,Stations_USGS
OBS_172,Fyliadon,22.47,39.03,macroseismic,718.32,5.0,0.3,0.8059,0.061277,0.875,5.8151,1.0131,0.132818,1.0822,0.078184,1.4737,0.016786,inferred,Stations_USGS
OBS_525,Velon,22.75,37.983,macroseismic,310.18,8.0,0.3,0.8059,0.656626,0.875,51.7516,1.0131,1.043069,1.0822,0.62122,1.4737,0.11777,inferred,Stations_USGS
OBS_55,MATARANKA  AITOLOAKARNANIA(2057),21.477,38.514,macroseismic,900.0,4.5,0.3,0.8059,0.04232,0.875,4.0395,1.0131,0.062288,1.0822,0.054501,1.4737,0.011924,inferred,Stations_USGS
OBS_35,ANTIRRIO  AITOLOAKARNANIA(1281),21.716,38.353,macroseismic,537.2,5.5,0.3,0.8059,0.083506,0.875,8.3711,1.0131,0.198989,1.0822,0.116405,1.4737,0.024635,inferred,Stations_USGS
OBS_280,Lefkas,20.7,38.817,macroseismic,468.37,5.0,0.3,0.8059,0.051033,0.875,5.8151,1.0131,0.10494,1.0822,0.087461,1.4737,0.019033,inferred,Stations_USGS
OBS_337,Metochion,22.169,38.202,macroseismic,495.16,5.5,0.3,0.8059,0.095585,0.875,8.3711,1.0131,0.213636,1.0822,0.107154,1.4737,0.022451,inferred,Stations_USGS
OBS_225,Kastri,22.03,38.98,macroseismic,723.7,5.0,0.3,0.8059,0.059163,0.875,5.8151,1.0131,0.126947,1.0822,0.079885,1.4737,0.017195,inferred,Stations_USGS
OBS_338,Mexiatai,22.28,38.87,macroseismic,900.0,5.0,0.3,0.8059,0.062645,0.875,5.8151,1.0131,0.136647,1.0822,0.077134,1.4737,0.016533,inferred,Stations_USGS
OBS_386,Paloumpa,21.92,37.62,macroseismic,601.38,5.5,0.3,0.8059,0.08496,0.875,8.3711,1.0131,0.200803,1.0822,0.11518,1.4737,0.024344,inferred,Stations_USGS
OBS_461,Skala,22.42,36.68,macroseismic,655.08,5.0,0.3,0.8059,0.05497,0.875,5.8151,1.0131,0.115478,1.0822,0.083567,1.4737,0.018086,inferred,Stations_USGS
OBS_544,Ydra,23.47,37.33,macroseismic,466.89,5.5,0.3,0.8059,0.088551,0.875,8.3711,1.0131,0.205221,1.0822,0.112294,1.4737,0.023662,inferred,Stations_USGS
OBS_494,Styra,24.22,38.15,macroseismic,736.08,5.5,0.3,0.8059,0.085985,0.875,8.3711,1.0131,0.202073,1.0822,0.114337,1.4737,0.024144,inferred,Stations_USGS
OBS_119,Chelidonion,21.87,37.57,macroseismic,431.6,5.0,0.3,0.8059,0.061168,0.875,5.8151,1.0131,0.132512,1.0822,0.07827,1.4737,0.016806,inferred,Stations_USGS
OBS_90,PARAVOLA  AITOLOAKARNANIA(2115),21.525,38.622,macroseismic,900.0,3.5,0.3,,,,,,,,,,,inferred,Stations_USGS
OBS_431,Psathopyrgos,21.867,38.317,macroseismic,869.19,5.0,0.3,0.8059,0.063522,0.875,5.8151,1.0131,0.139115,1.0822,0.076479,1.4737,0.016376,inferred,Stations_USGS
OBS_261,Krinai,22.75,37.967,macroseismic,422.63,7.0,0.3,0.8059,0.348311,0.875,24.9729,1.0131,0.594423,1.0822,0.282834,1.4737,0.055246,inferred,Stations_USGS
OBS_79,KONOPINA  AITOLOAKARNANIA(667),21.138,38.746,macroseismic,494.65,4.0,0.3,0.8059,0.019855,0.875,2.2794,1.0131,0.02889,1.0822,0.032166,1.4737,0.006685,inferred,Stations_USGS
OBS_359,Nea Palatia,23.783,38.317,macroseismic,436.05,6.5,0.3,0.8059,0.180426,0.875,17.3476,1.0131,0.375133,1.0822,0.23517,1.4737,0.047818,inferred,Stations_USGS
OBS_322,Mazarakion,21.57,37.87,macroseismic,419.62,5.0,0.3,0.8059,0.059152,0.875,5.8151,1.0131,0.126916,1.0822,0.079894,1.4737,0.017198,inferred,Stations_USGS
OBS_433,Pteleos,22.95,39.03,macroseismic,379.31,5.0,0.3,0.8059,0.06264,0.875,5.8151,1.0131,0.136634,1.0822,0.077137,1.4737,0.016534,inferred,Stations_USGS
OBS_533,Vounon,22.38,37.45,macroseismic,461.61,6.0,0.3,0.8059,0.122842,0.875,12.0507,1.0131,0.273329,1.0822,0.165374,1.4737,0.034303,inferred,Stations_USGS
OBS_363,Nea Tiryns,22.817,37.6,macroseismic,380.15,5.5,0.3,0.8059,0.103051,0.875,8.3711,1.0131,0.222252,1.0822,0.102327,1.4737,0.021321,inferred,Stations_USGS
OBS_12,PAPAGOS  ATHINA(13974),23.796,37.986,macroseismic,571.43,6.5,0.3,0.8059,0.183239,0.875,17.3476,1.0131,0.378196,1.0822,0.23295,1.4737,0.047313,inferred,Stations_USGS
OBS_91,SITARALONA  AITOLOAKARNANIA(333),21.641,38.524,macroseismic,600.0,3.5,0.3,,,,,,,,,,,inferred,Stations_USGS
OBS_141,Dionysos,22.93,38.5,macroseismic,644.02,6.0,0.3,0.8059,0.14838,0.875,12.0507,1.0131,0.301863,1.0822,0.147296,1.4737,0.030129,inferred,Stations_USGS
OBS_256,Kouteli,22.0,38.0,macroseismic,508.66,5.0,0.3,0.8059,0.066016,0.875,5.8151,1.0131,0.14619,1.0822,0.074695,1.4737,0.015948,inferred,Stations_USGS
OBS_548,Zelion,22.85,38.65,macroseismic,476.5,5.0,0.3,0.8059,0.072435,0.875,5.8151,1.0131,0.164674,1.0822,0.070565,1.4737,0.014964,inferred,Stations_USGS
OBS_350,Myloi,22.72,37.55,macroseismic,496.88,6.0,0.3,0.8059,0.135265,0.875,12.0507,1.0131,0.287528,1.0822,0.155893,1.4737,0.032107,inferred,Stations_USGS
OBS_260,Krikellon,21.82,38.77,macroseismic,900.0,5.0,0.3,0.8059,0.059547,0.875,5.8151,1.0131,0.128007,1.0822,0.079569,1.4737,0.017119,inferred,Stations_USGS
OBS_23,EKALI  ATHINA(4081),23.843,38.108,macroseismic,604.27,6.0,0.3,0.8059,0.131994,0.875,12.0507,1.0131,0.283852,1.0822,0.158249,1.4737,0.032651,inferred,Stations_USGS
OBS_493,Stylis,22.6,38.917,macroseismic,790.33,5.5,0.3,0.8059,0.087334,0.875,8.3711,1.0131,0.203734,1.0822,0.113251,1.4737,0.023888,inferred,Stations_USGS
OBS_194,Iria,23.0,37.47,macroseismic,600.0,5.5,0.3,0.8059,0.096367,0.875,8.3711,1.0131,0.214554,1.0822,0.10662,1.4737,0.022326,inferred,Stations_USGS
OBS_64,AGIA-PARASKEVI  AITOLOAKARNANIA(301),21.534,38.69,macroseismic,900.0,4.0,0.3,0.8059,0.023007,0.875,2.2794,1.0131,0.03128,1.0822,0.029912,1.4737,0.005995,inferred,Stations_USGS
OBS_349,Mourikion,23.35,38.42,macroseismic,376.18,7.5,0.3,0.8059,0.38682,0.875,35.9498,1.0131,0.704317,1.0822,0.477373,1.4737,0.093316,inferred,Stations_USGS
OBS_343,Molaoi,22.85,36.78,macroseismic,719.61,5.0,0.3,0.8059,0.056787,0.875,5.8151,1.0131,0.120418,1.0822,0.081917,1.4737,0.017686,inferred,Stations_USGS
OBS_369,Neon Monastirion,22.267,39.233,macroseismic,241.98,5.0,0.3,0.8059,0.057519,0.875,5.8151,1.0131,0.122422,1.0822,0.081277,1.4737,0.017531,inferred,Stations_USGS
OBS_78,KATOUNA  AITOLOAKARNANIA(2763),21.058,38.866,macroseismic,651.75,4.0,0.3,0.8059,0.018987,0.875,2.2794,1.0131,0.028201,1.0822,0.032883,1.4737,0.00691,inferred,Stations_USGS
OBS_227,Kato Diminion,23.717,38.017,macroseismic,328.64,7.0,0.3,0.8059,0.25939,0.875,24.9729,1.0131,0.509093,1.0822,0.338839,1.4737,0.067645,inferred,Stations_USGS
OBS_394,Paralion Astros,22.77,37.42,macroseismic,240.71,5.0,0.3,0.8059,0.06868,0.875,5.8151,1.0131,0.153832,1.0822,0.072905,1.4737,0.015521,inferred,Stations_USGS
OBS_133,Davleia,22.733,38.517,macroseismic,727.34,6.0,0.3,0.8059,0.143915,0.875,12.0507,1.0131,0.297052,1.0822,0.150081,1.4737,0.030768,inferred,Stations_USGS
OBS_183,Glyfada,22.07,38.37,macroseismic,346.07,5.0,0.3,0.8059,0.066759,0.875,5.8151,1.0131,0.148312,1.0822,0.074184,1.4737,0.015826,inferred,Stations_USGS
OBS_543,Xylokastron,22.62,38.07,macroseismic,464.63,8.0,0.3,0.8059,0.580636,0.875,51.7516,1.0131,0.97776,1.0822,0.669859,1.4737,0.128153,inferred,Stations_USGS
OBS_512,Tripolis,22.37,37.5,macroseismic,372.48,5.5,0.3,0.8059,0.091201,0.875,8.3711,1.0131,0.208427,1.0822,0.110283,1.4737,0.023187,inferred,Stations_USGS
OBS_41,ANO-KERASOVO  AITOLOAKARNANIA(511),21.454,38.476,macroseismic,820.75,5.0,0.3,0.8059,0.057684,0.875,5.8151,1.0131,0.122875,1.0822,0.081134,1.4737,0.017497,inferred,Stations_USGS
OBS_121,Chiliomodion,22.87,37.78,macroseismic,900.0,6.0,0.3,0.8059,0.162794,0.875,12.0507,1.0131,0.316939,1.0822,0.13916,1.4737,0.02827,inferred,Stations_USGS
OBS_126,Chryson,22.467,38.467,macroseismic,560.12,5.5,0.3,0.8059,0.10092,0.875,8.3711,1.0131,0.219823,1.0822,0.103646,1.4737,0.021629,inferred,Stations_USGS
OBS_129,Dafni,22.02,37.78,macroseismic,851.7,5.0,0.3,0.8059,0.065149,0.875,5.8151,1.0131,0.143723,1.0822,0.075302,1.4737,0.016094,inferred,Stations_USGS
OBS_187,Granitsa,21.52,39.1,macroseismic,589.11,5.0,0.3,0.8059,0.054651,0.875,5.8151,1.0131,0.114616,1.0822,0.083865,1.4737,0.018159,inferred,Stations_USGS
OBS_180,Gkoura,22.33,37.93,macroseismic,700.49,5.5,0.3,0.8059,0.100746,0.875,8.3711,1.0131,0.219624,1.0822,0.103756,1.4737,0.021655,inferred,Stations_USGS
OBS_286,Lepreon,21.72,37.42,macroseismic,279.57,5.0,0.3,0.8059,0.058344,0.875,5.8151,1.0131,0.124686,1.0822,0.080571,1.4737,0.017361,inferred,Stations_USGS
OBS_196,Itea,22.417,38.433,macroseismic,291.6,6.0,0.3,0.8059,0.137167,0.875,12.0507,1.0131,0.289646,1.0822,0.154564,1.4737,0.0318,inferred,Stations_USGS
OBS_17,PSYCHIKO  ATHINA(10592),23.771,38.008,macroseismic,436.4,6.5,0.3,0.8059,0.185421,0.875,17.3476,1.0131,0.380558,1.0822,0.231266,1.4737,0.046929,inferred,Stations_USGS
OBS_228,Kato Kavallarion,23.03,40.72,macroseismic,760.0,5.0,0.3,0.8059,0.046721,0.875,5.8151,1.0131,0.093663,1.0822,0.092323,1.4737,0.020223,inferred,Stations_USGS
OBS_372,Neos Pyrgos,23.07,38.92,macroseismic,577.55,5.0,0.3,0.8059,0.065143,0.875,5.8151,1.0131,0.143706,1.0822,0.075307,1.4737,0.016095,inferred,Stations_USGS
OBS_551,Zografos,23.767,37.967,macroseismic,500.02,6.0,0.3,0.8059,0.135632,0.875,12.0507,1.0131,0.287938,1.0822,0.155634,1.4737,0.032047,inferred,Stations_USGS
OBS_289,Lilaia,22.5,38.62,macroseismic,900.0,5.0,0.3,0.8059,0.07023,0.875,5.8151,1.0131,0.158317,1.0822,0.071915,1.4737,0.015285,inferred,Stations_USGS
OBS_255,Koumaris,22.03,38.22,macroseismic,602.57,6.5,0.3,0.8059,0.169946,0.875,17.3476,1.0131,0.363515,1.0822,0.243955,1.4737,0.049825,inferred,Stations_USGS
OBS_252,Koryni,22.983,38.25,macroseismic,480.04,8.5,0.3,0.8059,0.905972,0.875,74.4992,1.0131,1.385276,1.0822,0.917914,1.4737,0.171375,inferred,Stations_USGS
OBS_438,Riganion,21.77,38.47,macroseismic,900.0,6.0,0.3,0.8059,0.11425,0.875,12.0507,1.0131,0.263105,1.0822,0.17289,1.4737,0.036055,inferred,Stations_USGS
OBS_37,STAMNA  AITOLOAKARNANIA(1291),21.287,38.526,macroseismic,350.74,5.5,0.3,0.8059,0.076376,0.875,8.3711,1.0131,0.189868,1.0822,0.12295,1.4737,0.026192,inferred,Stations_USGS
OBS_430,Prosymna,22.83,37.7,macroseismic,797.73,6.0,0.3,0.8059,0.150772,0.875,12.0507,1.0131,0.304411,1.0822,0.14586,1.4737,0.0298,inferred,Stations_USGS
OBS_366,Nenita,26.1,38.22,macroseismic,593.57,5.0,0.3,0.8059,0.047832,0.875,5.8151,1.0131,0.09654,1.0822,0.091003,1.4737,0.019899,inferred,Stations_USGS
OBS_381,Palaia Epidavros,23.13,37.62,macroseismic,900.0,6.5,0.3,0.8059,0.193504,0.875,17.3476,1.0131,0.389191,1.0822,0.225296,1.4737,0.045574,inferred,Stations_USGS
OBS_549,Zemenon,22.6,38.02,macroseismic,730.36,7.0,0.3,0.8059,0.304635,0.875,24.9729,1.0131,0.553995,1.0822,0.30704,1.4737,0.060572,inferred,Stations_USGS
OBS_495,Sykea,22.03,39.82,macroseismic,560.25,5.0,0.3,0.8059,0.051377,0.875,5.8151,1.0131,0.105853,1.0822,0.087101,1.4737,0.018946,inferred,Stations_USGS
OBS_443,Roditsa,22.47,38.87,macroseismic,235.31,5.0,0.3,0.8059,0.064142,0.875,5.8151,1.0131,0.140869,1.0822,0.076025,1.4737,0.016267,inferred,Stations_USGS
OBS_455,Schimatarion,23.57,38.33,macroseismic,280.83,7.0,0.3,0.8059,0.267973,0.875,24.9729,1.0131,0.51788,1.0822,0.332145,1.4737,0.066149,inferred,Stations_USGS
OBS_123,Chora,22.27,36.9,macroseismic,900.0,5.0,0.3,0.8059,0.056863,0.875,5.8151,1.0131,0.120625,1.0822,0.08185,1.4737,0.01767,inferred,Stations_USGS
OBS_375,Oinofyta,23.62,38.28,macroseismic,409.39,7.5,0.3,0.8059,0.361762,0.875,35.9498,1.0131,0.67995,1.0822,0.497377,1.4737,0.097709,inferred,Stations_USGS
OBS_300,Lykoporia,22.483,38.133,macroseismic,453.35,6.5,0.3,0.8059,0.206449,0.875,17.3476,1.0131,0.402668,1.0822,0.21653,1.4737,0.043591,inferred,Stations_USGS
OBS_295,Loutra Aidipsou,23.02,38.83,macroseismic,600.0,5.5,0.3,0.8059,0.091882,0.875,8.3711,1.0131,0.209244,1.0822,0.109781,1.4737,0.023069,inferred,Stations_USGS
OBS_318,Marathon,23.95,38.12,macroseismic,900.0,7.0,0.3,0.8059,0.236601,0.875,24.9729,1.0131,0.485067,1.0822,0.358485,1.4737,0.072056,inferred,Stations_USGS
OBS_186,Grammeni,22.183,38.967,macroseismic,550.81,5.0,0.3,0.8059,0.060452,0.875,5.8151,1.0131,0.130518,1.0822,0.078837,1.4737,0.016943,inferred,Stations_USGS
OBS_502,Thivai,23.317,38.317,macroseismic,454.99,7.5,0.3,0.8059,0.420321,0.875,35.9498,1.0131,0.735752,1.0822,0.45368,1.4737,0.088141,inferred,Stations_USGS
OBS_112,Chalandritsa,21.77,38.08,macroseismic,386.62,5.0,0.3,0.8059,0.062316,0.875,5.8151,1.0131,0.135726,1.0822,0.077382,1.4737,0.016593,inferred,Stations_USGS
OBS_345,Moschaton,23.667,37.95,macroseismic,257.07,7.5,0.3,0.8059,0.360015,0.875,35.9498,1.0131,0.678222,1.0822,0.498855,1.4737,0.098035,inferred,Stations_USGS
OBS_528,Vochaikon,22.783,37.95,macroseismic,312.2,6.0,0.3,0.8059,0.191343,0.875,12.0507,1.0131,0.345038,1.0822,0.126039,1.4737,0.0253,inferred,Stations_USGS
OBS_99,THYRIO  AITOLOAKARNANIA(1330),20.987,38.865,macroseismic,661.63,3.0,0.3,,,,,,,,,,,inferred,Stations_USGS
OBS_149,Ekali,23.833,38.1,macroseismic,679.86,6.0,0.3,0.8059,0.132545,0.875,12.0507,1.0131,0.284474,1.0822,0.157846,1.4737,0.032558,inferred,Stations_USGS
OBS_465,Skillountia,21.67,37.58,macroseismic,426.99,5.0,0.3,0.8059,0.058967,0.875,5.8151,1.0131,0.126404,1.0822,0.080048,1.4737,0.017235,inferred,Stations_USGS
OBS_209,Kalyvia Thorikou,23.917,37.833,macroseismic,465.35,5.5,0.3,0.8059,0.092544,0.875,8.3711,1.0131,0.210036,1.0822,0.109299,1.4737,0.022955,inferred,Stations_USGS
OBS_151,Elaiones,23.65,38.32,macroseismic,347.36,7.5,0.3,0.8059,0.353955,0.875,35.9498,1.0131,0.672196,1.0822,0.504072,1.4737,0.099185,inferred,Stations_USGS
OBS_223,Kastellion,22.417,38.683,macroseismic,900.0,6.0,0.3,0.8059,0.125922,0.875,12.0507,1.0131,0.276911,1.0822,0.162883,1.4737,0.033725,inferred,Stations_USGS
OBS_83,PENTALOPHO  AITOLOAKARNANIA(1233),21.215,38.5,macroseismic,391.77,4.0,0.3,0.8059,0.021128,0.875,2.2794,1.0131,0.029875,1.0822,0.031195,1.4737,0.006385,inferred,Stations_USGS
OBS_234,Kerpini,22.1,38.08,macroseismic,562.27,5.0,0.3,0.8059,0.06837,0.875,5.8151,1.0131,0.152937,1.0822,0.073108,1.4737,0.015569,inferred,Stations_USGS
OBS_481,Stavros,22.23,39.32,macroseismic,220.86,5.0,0.3,0.8059,0.056379,0.875,5.8151,1.0131,0.119306,1.0822,0.08228,1.4737,0.017774,inferred,Stations_USGS
OBS_178,Gerakion,21.38,37.78,macroseismic,422.69,5.0,0.3,0.8059,0.056872,0.875,5.8151,1.0131,0.12065,1.0822,0.081842,1.4737,0.017668,inferred,Stations_USGS
OBS_33,Agios Stefanos,23.58,38.133,macroseismic,823.43,7.0,0.3,0.8059,0.277961,0.875,24.9729,1.0131,0.52794,1.0822,0.324778,1.4737,0.064507,inferred,Stations_USGS
OBS_145,Dyrrachion,22.2,37.17,macroseismic,900.0,5.5,0.3,0.8059,0.081623,0.875,8.3711,1.0131,0.196618,1.0822,0.118043,1.4737,0.025023,inferred,Stations_USGS
OBS_462,Skarfeia,22.63,38.78,macroseismic,426.07,5.0,0.3,0.8059,0.06727,0.875,5.8151,1.0131,0.149777,1.0822,0.073838,1.4737,0.015744,inferred,Stations_USGS
OBS_483,Stavros,22.7,38.93,macroseismic,900.0,5.0,0.3,0.8059,0.064119,0.875,5.8151,1.0131,0.140804,1.0822,0.076041,1.4737,0.016271,inferred,Stations_USGS
OBS_176,Gardikion,21.97,38.82,macroseismic,900.0,5.5,0.3,0.8059,0.082564,0.875,8.3711,1.0131,0.197806,1.0822,0.117217,1.4737,0.024827,inferred,Stations_USGS
OBS_92,AMORGIANOI  AITOLOAKARNANIA(648),21.386,38.828,macroseismic,609.32,3.0,0.3,,,,,,,,,,,inferred,Stations_USGS
OBS_45,PAPPADATES  AITOLOAKARNANIA(1733),21.448,38.526,macroseismic,677.58,5.0,0.3,0.8059,0.057432,0.875,5.8151,1.0131,0.122183,1.0822,0.081352,1.4737,0.01755,inferred,Stations_USGS
OBS_47,PENTELI  ATHINA(3197),23.901,38.045,macroseismic,637.63,5.0,0.3,0.8059,0.069385,0.875,5.8151,1.0131,0.155869,1.0822,0.07245,1.4737,0.015412,inferred,Stations_USGS
OBS_374,Ochthonia,24.15,38.533,macroseismic,719.06,6.0,0.3,0.8059,0.11594,0.875,12.0507,1.0131,0.265145,1.0822,0.171341,1.4737,0.035693,inferred,Stations_USGS
OBS_174,Galatas,23.45,37.483,macroseismic,775.58,5.5,0.3,0.8059,0.093849,0.875,8.3711,1.0131,0.211588,1.0822,0.108365,1.4737,0.022736,inferred,Stations_USGS
OBS_403,Pelopion,21.57,37.67,macroseismic,255.65,5.0,0.3,0.8059,0.058395,0.875,5.8151,1.0131,0.124826,1.0822,0.080528,1.4737,0.017351,inferred,Stations_USGS
OBS_54,LYSIMACHEIA  AITOLOAKARNANIA(659),21.334,38.55,macroseismic,583.41,4.5,0.3,0.8059,0.041232,0.875,4.0395,1.0131,0.060234,1.0822,0.055378,1.4737,0.012139,inferred,Stations_USGS
OBS_120,Chelidonion,21.62,37.72,macroseismic,566.97,5.0,0.3,0.8059,0.059174,0.875,5.8151,1.0131,0.126975,1.0822,0.079876,1.4737,0.017193,inferred,Stations_USGS
OBS_189,Gryllos,21.67,37.57,macroseismic,813.19,5.0,0.3,0.8059,0.058904,0.875,5.8151,1.0131,0.12623,1.0822,0.0801,1.4737,0.017247,inferred,Stations_USGS
OBS_487,Stenon,22.467,37.5,macroseismic,591.92,5.0,0.3,0.8059,0.068085,0.875,5.8151,1.0131,0.152116,1.0822,0.073296,1.4737,0.015614,inferred,Stations_USGS
OBS_246,Komanos,21.77,40.47,macroseismic,760.0,5.0,0.3,0.8059,0.047079,0.875,5.8151,1.0131,0.094587,1.0822,0.091893,1.4737,0.020117,inferred,Stations_USGS
OBS_81,PANAITOLIO  AITOLOAKARNANIA(3330),21.441,38.563,macroseismic,281.63,4.0,0.3,0.8059,0.022798,0.875,2.2794,1.0131,0.031126,1.0822,0.030047,1.4737,0.006035,inferred,Stations_USGS
OBS_67,AITOLIKO  AITOLOAKARNANIA(5381),21.318,38.428,macroseismic,391.78,4.0,0.3,0.8059,0.022148,0.875,2.2794,1.0131,0.030644,1.0822,0.030479,1.4737,0.006166,inferred,Stations_USGS
OBS_208,Kalyvia,22.283,37.917,macroseismic,870.92,5.5,0.3,0.8059,0.098617,0.875,8.3711,1.0131,0.217173,1.0822,0.105123,1.4737,0.021975,inferred,Stations_USGS
OBS_132,Dalamanara,22.767,37.617,macroseismic,237.62,6.0,0.3,0.8059,0.141252,0.875,12.0507,1.0131,0.29415,1.0822,0.151809,1.4737,0.031166,inferred,Stations_USGS
OBS_259,Krieza,24.133,38.4,macroseismic,508.68,5.5,0.3,0.8059,0.086502,0.875,8.3711,1.0131,0.202711,1.0822,0.113917,1.4737,0.024045,inferred,Stations_USGS
OBS_391,Pappadianika,22.45,36.75,macroseismic,479.93,5.0,0.3,0.8059,0.055786,0.875,5.8151,1.0131,0.117693,1.0822,0.082815,1.4737,0.017904,inferred,Stations_USGS
OBS_197,Kainourgion,22.72,38.77,macroseismic,734.68,5.5,0.3,0.8059,0.092898,0.875,8.3711,1.0131,0.210458,1.0822,0.109043,1.4737,0.022895,inferred,Stations_USGS
OBS_292,Longos,22.02,38.28,macroseismic,606.97,5.0,0.3,0.8059,0.066386,0.875,5.8151,1.0131,0.147246,1.0822,0.07444,1.4737,0.015887,inferred,Stations_USGS
OBS_15,PETROUPOLI  ATHINA(38278),23.673,38.037,macroseismic,573.79,6.5,0.3,0.8059,0.194313,0.875,17.3476,1.0131,0.390045,1.0822,0.224721,1.4737,0.045443,inferred,Stations_USGS
OBS_329,Melissa,21.37,37.95,macroseismic,308.23,6.0,0.3,0.8059,0.106586,0.875,12.0507,1.0131,0.253675,1.0822,0.180407,1.4737,0.037816,inferred,Stations_USGS
OBS_486,Steirion,22.7,38.4,macroseismic,809.05,6.5,0.3,0.8059,0.210359,0.875,17.3476,1.0131,0.40666,1.0822,0.214054,1.4737,0.043033,inferred,Stations_USGS
OBS_271,Laloukas,22.783,37.633,macroseismic,227.2,5.5,0.3,0.8059,0.104737,0.875,8.3711,1.0131,0.224156,1.0822,0.101314,1.4737,0.021084,inferred,Stations_USGS
OBS_529,Voula,23.767,37.85,macroseismic,482.56,6.0,0.3,0.8059,0.133261,0.875,12.0507,1.0131,0.285281,1.0822,0.157326,1.4737,0.032438,inferred,Stations_USGS
OBS_537,Vrilissia,23.82,38.02,macroseismic,330.04,6.0,0.3,0.8059,0.133205,0.875,12.0507,1.0131,0.285218,1.0822,0.157366,1.4737,0.032447,inferred,Stations_USGS
OBS_463,Skiadas,21.67,37.87,macroseismic,715.84,5.0,0.3,0.8059,0.060368,0.875,5.8151,1.0131,0.130286,1.0822,0.078904,1.4737,0.016959,inferred,Stations_USGS
OBS_14,PERISTERI  ATHINA(137288),23.688,38.014,macroseismic,359.36,6.5,0.3,0.8059,0.19264,0.875,17.3476,1.0131,0.388276,1.0822,0.225916,1.4737,0.045714,inferred,Stations_USGS
OBS_2,MOSCHATO  ATHINA(22039),23.681,37.952,macroseismic,266.39,7.5,0.3,0.8059,0.357733,0.875,35.9498,1.0131,0.675959,1.0822,0.500803,1.4737,0.098464,inferred,Stations_USGS
OBS_424,Portochelion,23.12,37.32,macroseismic,600.0,5.0,0.3,0.8059,0.065949,0.875,5.8151,1.0131,0.146,1.0822,0.074741,1.4737,0.015959,inferred,Stations_USGS
OBS_499,Thermisia,23.32,37.42,macroseismic,474.84,5.5,0.3,0.8059,0.092766,0.875,8.3711,1.0131,0.210301,1.0822,0.109138,1.4737,0.022918,inferred,Stations_USGS
OBS_482,Stavros,22.77,39.63,macroseismic,900.0,5.0,0.3,0.8059,0.054204,0.875,5.8151,1.0131,0.113412,1.0822,0.084288,1.4737,0.018261,inferred,Stations_USGS
OBS_273,Lanthion,21.52,37.7,macroseismic,624.61,5.0,0.3,0.8059,0.058002,0.875,5.8151,1.0131,0.123745,1.0822,0.080862,1.4737,0.017431,inferred,Stations_USGS
OBS_460,Sikyon,22.717,37.983,macroseismic,486.28,8.0,0.3,0.8059,0.63034,0.875,51.7516,1.0131,1.020904,1.0822,0.636972,1.4737,0.121122,inferred,Stations_USGS
OBS_257,Koutsochera,21.52,37.78,macroseismic,645.52,5.5,0.3,0.8059,0.079578,0.875,8.3711,1.0131,0.194012,1.0822,0.119894,1.4737,0.025463,inferred,Stations_USGS
OBS_253,Koskinas,22.02,39.5,macroseismic,208.34,5.0,0.3,0.8059,0.053875,0.875,5.8151,1.0131,0.112526,1.0822,0.084603,1.4737,0.018338,inferred,Stations_USGS
OBS_507,Tracheia,23.13,37.53,macroseismic,828.25,6.5,0.3,0.8059,0.183828,0.875,17.3476,1.0131,0.378835,1.0822,0.232493,1.4737,0.047208,inferred,Stations_USGS
OBS_456,Schinochorion,22.62,37.67,macroseismic,900.0,5.5,0.3,0.8059,0.103359,0.875,8.3711,1.0131,0.222601,1.0822,0.10214,1.4737,0.021277,inferred,Stations_USGS
OBS_20,AGIA-VARVARA  ATHINA(28706),23.655,37.989,macroseismic,525.46,6.0,0.3,0.8059,0.143157,0.875,12.0507,1.0131,0.296229,1.0822,0.150568,1.4737,0.03088,inferred,Stations_USGS
OBS_278,Lechourion,21.917,37.95,macroseismic,900.0,5.0,0.3,0.8059,0.064311,0.875,5.8151,1.0131,0.141345,1.0822,0.075903,1.4737,0.016238,inferred,Stations_USGS
OBS_161,Erythrai,23.317,38.217,macroseismic,512.7,8.0,0.3,0.8059,0.61426,0.875,51.7516,1.0131,1.007128,1.0822,0.647141,1.4737,0.123292,inferred,Stations_USGS
OBS_459,Selinous,22.1,38.22,macroseismic,900.0,5.5,0.3,0.8059,0.093257,0.875,8.3711,1.0131,0.210884,1.0822,0.108786,1.4737,0.022835,inferred,Stations_USGS
OBS_466,Skotani,22.07,37.83,macroseismic,609.13,5.0,0.3,0.8059,0.066466,0.875,5.8151,1.0131,0.147474,1.0822,0.074385,1.4737,0.015874,inferred,Stations_USGS
OBS_173,Fylla,22.683,38.433,macroseismic,326.67,5.5,0.3,0.8059,0.10988,0.875,8.3711,1.0131,0.229877,1.0822,0.098381,1.4737,0.020401,inferred,Stations_USGS
OBS_195,Isthmia,23.0,37.917,macroseismic,460.08,7.0,0.3,0.8059,0.369641,0.875,24.9729,1.0131,0.61329,1.0822,0.272716,1.4737,0.053036,inferred,Stations_USGS
OBS_473,Sparti,22.417,37.067,macroseismic,345.23,5.0,0.3,0.8059,0.059653,0.875,5.8151,1.0131,0.128301,1.0822,0.079482,1.4737,0.017098,inferred,Stations_USGS
OBS_154,Eliki,22.117,38.217,macroseismic,833.74,5.0,0.3,0.8059,0.068718,0.875,5.8151,1.0131,0.153941,1.0822,0.072881,1.4737,0.015515,inferred,Stations_USGS
OBS_236,Kiaton,22.75,38.0,macroseismic,354.81,8.0,0.3,0.8059,0.663255,0.875,51.7516,1.0131,1.048591,1.0822,0.617407,1.4737,0.116961,inferred,Stations_USGS
OBS_169,Frantzis,22.383,38.85,macroseismic,664.22,5.0,0.3,0.8059,0.063851,0.875,5.8151,1.0131,0.140046,1.0822,0.076237,1.4737,0.016318,inferred,Stations_USGS
OBS_498,Theologos,23.78,38.47,macroseismic,558.06,6.0,0.3,0.8059,0.128654,0.875,12.0507,1.0131,0.280053,1.0822,0.160755,1.4737,0.033231,inferred,Stations_USGS
OBS_422,Poros,23.45,37.5,macroseismic,600.0,5.0,0.3,0.8059,0.069228,0.875,5.8151,1.0131,0.155415,1.0822,0.072551,1.4737,0.015436,inferred,Stations_USGS
OBS_305,Makrisia,21.6,37.58,macroseismic,410.68,5.0,0.3,0.8059,0.058239,0.875,5.8151,1.0131,0.1244,1.0822,0.080659,1.4737,0.017382,inferred,Stations_USGS
OBS_514,Valtesinikon,22.07,37.7,macroseismic,470.65,5.0,0.3,0.8059,0.065258,0.875,5.8151,1.0131,0.144031,1.0822,0.075226,1.4737,0.016075,inferred,Stations_USGS
OBS_245,Kollinai,22.35,37.27,macroseismic,602.3,5.0,0.3,0.8059,0.062375,0.875,5.8151,1.0131,0.13589,1.0822,0.077338,1.4737,0.016582,inferred,Stations_USGS
OBS_13,PEFKI  ATHINA(17987),23.79,38.058,macroseismic,366.62,6.5,0.3,0.8059,0.184217,0.875,17.3476,1.0131,0.379256,1.0822,0.232192,1.4737,0.04714,inferred,Stations_USGS
OBS_398,Passa,22.82,37.8,macroseismic,575.13,5.0,0.3,0.8059,0.088208,0.875,5.8151,1.0131,0.182644,1.0822,0.062539,1.4737,0.01307,inferred,Stations_USGS
OBS_336,Methana,23.383,37.583,macroseismic,740.6,5.0,0.3,0.8059,0.072599,0.875,5.8151,1.0131,0.16487,1.0822,0.070468,1.4737,0.01494,inferred,Stations_USGS
OBS_3,AGIOS-DIMITRIOS  ATHINA(57574),23.729,37.933,macroseismic,393.28,7.0,0.3,0.8059,0.255755,0.875,24.9729,1.0131,0.505329,1.0822,0.341783,1.4737,0.068304,inferred,Stations_USGS
OBS_354,Nea Apollonia,23.433,40.617,macroseismic,760.0,5.0,0.3,0.8059,0.047189,0.875,5.8151,1.0131,0.094872,1.0822,0.091761,1.4737,0.020085,inferred,Stations_USGS
OBS_191,Gymnon,23.88,38.43,macroseismic,488.8,5.0,0.3,0.8059,0.067552,0.875,5.8151,1.0131,0.150586,1.0822,0.073649,1.4737,0.015698,inferred,Stations_USGS
OBS_536,Vrachation,22.78,37.95,macroseismic,312.2,7.5,0.3,0.8059,0.484945,0.875,35.9498,1.0131,0.793204,1.0822,0.415605,1.4737,0.079894,inferred,Stations_USGS
OBS_357,Nea Makri,23.967,38.07,macroseismic,625.44,5.5,0.3,0.8059,0.0926,0.875,8.3711,1.0131,0.210102,1.0822,0.109259,1.4737,0.022946,inferred,Stations_USGS
OBS_364,Nea-Erythraia,20.4,38.117,macroseismic,600.0,null,null,0.8059,0.127622,0.875,17.3476,1.0131,0.312703,1.0822,0.290768,1.4737,0.060658,inferred,Stations_USGS
OBS_448,Sagaiika,21.467,38.1,macroseismic,268.82,null,null,0.8059,0.20288,0.875,24.9729,1.0131,0.4474,1.0822,0.393912,1.4737,0.080083,inferred,Stations_USGS
OBS_425,Poullitsa,22.767,37.95,macroseismic,393.79,6.5,0.3,0.8059,0.256398,0.875,17.3476,1.0131,0.451251,1.0822,0.189601,1.4737,0.037563,inferred,Stations_USGS
OBS_520,Vasiliki,21.7,39.62,macroseismic,261.0,5.0,0.3,0.8059,0.051854,0.875,5.8151,1.0131,0.107119,1.0822,0.086609,1.4737,0.018826,inferred,Stations_USGS
OBS_175,Galatsion,23.75,38.02,macroseismic,512.71,6.0,0.3,0.8059,0.137168,0.875,12.0507,1.0131,0.289648,1.0822,0.154564,1.4737,0.0318,inferred,Stations_USGS
OBS_235,Kertezi,21.983,37.983,macroseismic,900.0,6.0,0.3,0.8059,0.122278,0.875,12.0507,1.0131,0.272669,1.0822,0.165841,1.4737,0.034412,inferred,Stations_USGS
OBS_389,Papagos,23.783,37.983,macroseismic,445.27,6.5,0.3,0.8059,0.184175,0.875,17.3476,1.0131,0.37921,1.0822,0.232224,1.4737,0.047147,inferred,Stations_USGS
OBS_94,GOURIOTISSA  AITOLOAKARNANIA(756),21.229,38.613,macroseismic,458.26,3.0,0.3,,,,,,,,,,,inferred,Stations_USGS
OBS_135,Dervenion,22.42,38.13,macroseismic,600.0,6.0,0.3,0.8059,0.145894,0.875,12.0507,1.0131,0.299193,1.0822,0.14883,1.4737,0.030481,inferred,Stations_USGS
OBS_285,Leontion,22.57,37.78,macroseismic,826.72,6.0,0.3,0.8059,0.146661,0.875,12.0507,1.0131,0.300019,1.0822,0.148352,1.4737,0.030371,inferred,Stations_USGS
OBS_134,Delfoi,22.483,38.483,macroseismic,900.0,5.0,0.3,0.8059,0.073836,0.875,5.8151,1.0131,0.166342,1.0822,0.069741,1.4737,0.014768,inferred,Stations_USGS
OBS_523,Velesiotai,22.233,39.15,macroseismic,678.66,5.0,0.3,0.8059,0.058372,0.875,5.8151,1.0131,0.124764,1.0822,0.080547,1.4737,0.017355,inferred,Stations_USGS
OBS_310,Managouli,21.88,38.4,macroseismic,260.83,5.0,0.3,0.8059,0.063291,0.875,5.8151,1.0131,0.138465,1.0822,0.07665,1.4737,0.016417,inferred,Stations_USGS
OBS_311,Mandra,23.5,38.07,macroseismic,453.51,7.0,0.3,0.8059,0.294912,0.875,24.9729,1.0131,0.544628,1.0822,0.313206,1.4737,0.061937,inferred,Stations_USGS
OBS_382,Palaiokatouna,21.55,39.05,macroseismic,900.0,5.5,0.3,0.8059,0.075326,0.875,8.3711,1.0131,0.188491,1.0822,0.123998,1.4737,0.026442,inferred,Stations_USGS
OBS_205,Kallithea,23.42,38.32,macroseismic,385.87,7.0,0.3,0.8059,0.290049,0.875,24.9729,1.0131,0.539888,1.0822,0.316414,1.4737,0.062648,inferred,Stations_USGS
OBS_277,Lechaion,22.87,37.92,macroseismic,370.74,6.5,0.3,0.8059,0.270769,0.875,17.3476,1.0131,0.464375,1.0822,0.183369,1.4737,0.036182,inferred,Stations_USGS
OBS_241,Klindia,21.68,37.78,macroseismic,689.86,6.0,0.3,0.8059,0.112073,0.875,12.0507,1.0131,0.260458,1.0822,0.174941,1.4737,0.036535,inferred,Stations_USGS
OBS_74,CHRYSOVERGI  AITOLOAKARNANIA(641),21.353,38.508,macroseismic,679.96,4.0,0.3,0.8059,0.022224,0.875,2.2794,1.0131,0.030701,1.0822,0.030427,1.4737,0.00615,inferred,Stations_USGS
OBS_106,Avlona,23.92,38.12,macroseismic,624.89,7.5,0.3,0.8059,0.326268,0.875,35.9498,1.0131,0.64402,1.0822,0.529875,1.4737,0.104892,inferred,Stations_USGS
OBS_547,Ypsilantis,23.02,38.37,macroseismic,900.0,7.0,0.3,0.8059,0.310932,0.875,24.9729,1.0131,0.559986,1.0822,0.303214,1.4737,0.059726,inferred,Stations_USGS
OBS_105,Avlakion,22.55,38.917,macroseismic,591.92,5.0,0.3,0.8059,0.063721,0.875,5.8151,1.0131,0.139679,1.0822,0.076332,1.4737,0.016341,inferred,Stations_USGS
OBS_204,Kallifonion,22.02,37.95,macroseismic,852.42,5.5,0.3,0.8059,0.090361,0.875,8.3711,1.0131,0.207416,1.0822,0.11091,1.4737,0.023335,inferred,Stations_USGS
OBS_203,Kalidona,21.7,37.467,macroseismic,670.03,5.0,0.3,0.8059,0.058505,0.875,5.8151,1.0131,0.12513,1.0822,0.080435,1.4737,0.017328,inferred,Stations_USGS
OBS_316,Manolas,21.35,38.03,macroseismic,243.33,5.0,0.3,0.8059,0.057138,0.875,5.8151,1.0131,0.121377,1.0822,0.081609,1.4737,0.017612,inferred,Stations_USGS
OBS_471,Soulinarion,22.72,37.87,macroseismic,775.9,6.5,0.3,0.8059,0.228785,0.875,17.3476,1.0131,0.425012,1.0822,0.203317,1.4737,0.040621,inferred,Stations_USGS
OBS_111,Chaironeia,22.833,38.483,macroseismic,560.54,5.0,0.3,0.8059,0.080042,0.875,5.8151,1.0131,0.17355,1.0822,0.066376,1.4737,0.013971,inferred,Stations_USGS
OBS_143,Dokimion,21.37,38.62,macroseismic,266.26,5.0,0.3,0.8059,0.05632,0.875,5.8151,1.0131,0.119145,1.0822,0.082333,1.4737,0.017787,inferred,Stations_USGS
OBS_258,Koutsopodion,22.72,37.68,macroseismic,256.87,6.0,0.3,0.8059,0.14556,0.875,12.0507,1.0131,0.298833,1.0822,0.149039,1.4737,0.030529,inferred,Stations_USGS
OBS_496,Temeni,22.117,38.233,macroseismic,311.83,5.5,0.3,0.8059,0.093716,0.875,8.3711,1.0131,0.211429,1.0822,0.10846,1.4737,0.022758,inferred,Stations_USGS
OBS_409,Peristerion,21.47,37.78,macroseismic,487.07,5.5,0.3,0.8059,0.078857,0.875,8.3711,1.0131,0.193086,1.0822,0.120564,1.4737,0.025623,inferred,Stations_USGS
OBS_222,Kastanitsa,22.65,37.27,macroseismic,661.5,5.0,0.3,0.8059,0.06435,0.875,5.8151,1.0131,0.141458,1.0822,0.075874,1.4737,0.016231,inferred,Stations_USGS
OBS_220,Karystos,24.42,38.02,macroseismic,388.86,6.0,0.3,0.8059,0.11216,0.875,12.0507,1.0131,0.260565,1.0822,0.174857,1.4737,0.036515,inferred,Stations_USGS
OBS_400,Pavliani,22.32,38.72,macroseismic,800.52,5.0,0.3,0.8059,0.065656,0.875,5.8151,1.0131,0.145164,1.0822,0.074946,1.4737,0.016008,inferred,Stations_USGS
OBS_274,Larymna,23.27,38.55,macroseismic,570.21,5.0,0.3,0.8059,0.076766,0.875,5.8151,1.0131,0.16978,1.0822,0.068098,1.4737,0.014378,inferred,Stations_USGS
OBS_156,Ellopia,23.12,38.27,macroseismic,380.98,6.5,0.3,0.8059,0.258088,0.875,17.3476,1.0131,0.452812,1.0822,0.188839,1.4737,0.037394,inferred,Stations_USGS
OBS_97,PALAIOKARYA  AITOLOAKARNANIA(312),21.564,38.624,macroseismic,870.89,3.0,0.3,,,,,,,,,,,inferred,Stations_USGS
OBS_327,Megara,23.32,38.0,macroseismic,505.03,8.0,0.3,0.8059,0.647018,0.875,51.7516,1.0131,1.035017,1.0822,0.626857,1.4737,0.118969,inferred,Stations_USGS
OBS_150,Elaion,22.417,38.55,macroseismic,900.0,5.5,0.3,0.8059,0.096532,0.875,8.3711,1.0131,0.214746,1.0822,0.106509,1.4737,0.0223,inferred,Stations_USGS
OBS_226,Kastron,23.18,38.48,macroseismic,344.08,7.0,0.3,0.8059,0.282738,0.875,24.9729,1.0131,0.532691,1.0822,0.321404,1.4737,0.063756,inferred,Stations_USGS
OBS_26,ILIOUPOLI  ATHINA(75037),23.772,37.925,macroseismic,900.0,6.0,0.3,0.8059,0.134683,0.875,12.0507,1.0131,0.286877,1.0822,0.156305,1.4737,0.032202,inferred,Stations_USGS
OBS_118,Chavarion,21.37,37.83,macroseismic,337.64,5.5,0.3,0.8059,0.077691,0.875,8.3711,1.0131,0.19158,1.0822,0.12167,1.4737,0.025887,inferred,Stations_USGS
OBS_418,Platanos,21.85,38.05,macroseismic,572.67,5.0,0.3,0.8059,0.063505,0.875,5.8151,1.0131,0.13907,1.0822,0.076491,1.4737,0.016379,inferred,Stations_USGS
OBS_125,Chrysanthion,22.32,38.105,macroseismic,800.1,5.0,0.3,0.8059,0.074511,0.875,5.8151,1.0131,0.167139,1.0822,0.069353,1.4737,0.014676,inferred,Stations_USGS
OBS_301,Lykouria,22.2,37.87,macroseismic,900.0,5.0,0.3,0.8059,0.069618,0.875,5.8151,1.0131,0.156542,1.0822,0.072302,1.4737,0.015377,inferred,Stations_USGS
OBS_53,KONISKA  AITOLOAKARNANIA(317),21.754,38.649,macroseismic,900.0,4.5,0.3,0.8059,0.043872,0.875,4.0395,1.0131,0.065246,1.0822,0.053311,1.4737,0.011633,inferred,Stations_USGS
OBS_503,Thouria,22.05,37.083,macroseismic,485.75,5.5,0.3,0.8059,0.078846,0.875,8.3711,1.0131,0.193072,1.0822,0.120574,1.4737,0.025626,inferred,Stations_USGS
OBS_113,Chalki,22.533,39.567,macroseismic,245.07,5.0,0.3,0.8059,0.054561,0.875,5.8151,1.0131,0.114374,1.0822,0.08395,1.4737,0.018179,inferred,Stations_USGS
OBS_128,Dafni,23.734,37.951,macroseismic,366.52,6.0,0.3,0.8059,0.137305,0.875,12.0507,1.0131,0.2898,1.0822,0.154469,1.4737,0.031778,inferred,Stations_USGS
OBS_453,Sargiada,21.417,38.767,macroseismic,480.96,6.0,0.3,0.8059,0.104336,0.875,12.0507,1.0131,0.250845,1.0822,0.182782,1.4737,0.038375,inferred,Stations_USGS
OBS_130,Dafnion,22.533,36.933,macroseismic,480.35,5.0,0.3,0.8059,0.058237,0.875,5.8151,1.0131,0.124393,1.0822,0.080661,1.4737,0.017383,inferred,Stations_USGS
OBS_506,Tolon,22.85,37.52,macroseismic,599.09,6.5,0.3,0.8059,0.184023,0.875,17.3476,1.0131,0.379046,1.0822,0.232342,1.4737,0.047174,inferred,Stations_USGS
OBS_509,Tragana,23.12,38.62,macroseismic,793.39,5.0,0.3,0.8059,0.074497,0.875,5.8151,1.0131,0.167122,1.0822,0.069362,1.4737,0.014678,inferred,Stations_USGS
OBS_452,Saravalion,21.75,38.17,macroseismic,900.0,5.5,0.3,0.8059,0.084711,0.875,8.3711,1.0131,0.200494,1.0822,0.115387,1.4737,0.024393,inferred,Stations_USGS
OBS_539,Vyzikion,21.95,37.717,macroseismic,438.71,5.0,0.3,0.8059,0.063497,0.875,5.8151,1.0131,0.139048,1.0822,0.076497,1.4737,0.01638,inferred,Stations_USGS
OBS_526,Vilia,23.333,38.167,macroseismic,679.88,7.5,0.3,0.8059,0.457126,0.875,35.9498,1.0131,0.768948,1.0822,0.430929,1.4737,0.083202,inferred,Stations_USGS
OBS_230,Kato Potamia,22.22,38.08,macroseismic,847.38,5.5,0.3,0.8059,0.097446,0.875,8.3711,1.0131,0.215813,1.0822,0.105896,1.4737,0.022156,inferred,Stations_USGS
OBS_469,Sofikon,23.03,37.78,macroseismic,734.23,6.0,0.3,0.8059,0.162188,0.875,12.0507,1.0131,0.316318,1.0822,0.139479,1.4737,0.028343,inferred,Stations_USGS
OBS_371,Neos Erineos,22.0,38.27,macroseismic,665.25,5.0,0.3,0.8059,0.066045,0.875,5.8151,1.0131,0.146273,1.0822,0.074675,1.4737,0.015944,inferred,Stations_USGS
OBS_415,Plataiai,23.27,38.22,macroseismic,607.44,7.5,0.3,0.8059,0.468662,0.875,35.9498,1.0131,0.779089,1.0822,0.424396,1.4737,0.08179,inferred,Stations_USGS
OBS_291,Livartzion,21.88,37.92,macroseismic,900.0,6.0,0.3,0.8059,0.118452,0.875,12.0507,1.0131,0.268149,1.0822,0.169105,1.4737,0.035172,inferred,Stations_USGS
OBS_540,Xirochorion,21.65,37.5,macroseismic,557.14,5.0,0.3,0.8059,0.058246,0.875,5.8151,1.0131,0.124417,1.0822,0.080654,1.4737,0.017381,inferred,Stations_USGS
