STATION_ID,STATION_NAME,LATITUDE,LONGITUDE,STATION_TYPE,REFERENCES,SOIL_TYPE,PGA_VALUE,SA(0.3)_VALUE,SA(0.6)_VALUE,SA(1.0)_VALUE,PGA_LN_SIGMA,SA(0.3)_LN_SIGMA,SA(0.6)_LN_SIGMA,SA(1.0)_LN_SIGMA,PGA_VALUE_1,SA(0.3)_VALUE_1,SA(0.6)_VALUE_1,SA(1.0)_VALUE_1,PGA_VALUE_2,SA(0.3)_VALUE_2,SA(0.6)_VALUE_2,SA(1.0)_VALUE_2,PGA_VALUE_V,SA(0.3)_VALUE_V,SA(0.6)_VALUE_V,SA(1.0)_VALUE_V,VS30,MMI_VALUE,MMI_STDDEV,PGV_LN_SIGMA,PGV_VALUE,SA(3.0)_LN_SIGMA,SA(3.0)_VALUE,VS30_TYPE
NILT,NILTEPEC,16.565153,-94.616947,seismic,Stations_UNAM,ROCA,0.4980918451,0.9882422518,0.4496056852,0.3768705874,0.0,0.0,0.0,0.0,0.498066157,0.9882422518,0.4496056852,0.3768705874,0.4980918451,0.8563573581,0.3471133299,0.2658244664,0.449249949,0.1542171204,0.1356520284,0.1596273941,,,,,,,,
OXJM,JALAPA DEL MARQUES,16.445191,-95.444705,seismic,Stations_UNAM,ROCA,0.2811262997,0.8899319052,0.4345087276,0.3241425286,0.0,0.0,0.0,0.0,0.2619542304,0.8899319052,0.4345087276,0.3241425286,0.2811262997,0.8440434151,0.4031935219,0.2515000846,0.1695244648,0.3341738852,0.3157250646,0.2102241739,,,,,,,,
OAXM,OAXACA FACULTAD DE MEDICINA,17.082872,-96.718744,seismic,Stations_UNAM,ALUVIAL,0.2740240571,0.8308565905,0.2074476797,0.1187108256,0.0,0.0,0.0,0.0,0.2740240571,0.8308565905,0.2074476797,0.0906696531,0.1498646279,0.5092651825,0.1269147047,0.1187108256,0.0841704383,0.1905220504,0.1399642201,0.0621658309,,,,,,,,
HUAM,HUAMELULA,16.031121,-95.670297,seismic,Stations_UNAM,ROCA,0.2566034659,0.818356093,0.2957434764,0.1947149559,0.0,0.0,0.0,0.0,0.2566034659,0.818356093,0.2957434764,0.1947149559,0.1541753313,0.4358281448,0.2263196682,0.0655807316,0.1432953109,0.3279922046,0.1589633379,0.0740667629,,,,,,,,
SCRU,SALINA CRUZ,16.187519,-95.209239,seismic,Stations_UNAM,ROCA,0.2530413863,0.5884789154,0.3025598266,0.2600387101,0.0,0.0,0.0,0.0,0.2530413863,0.5884789154,0.3025108898,0.2600387101,0.2509686035,0.4087397561,0.3025598266,0.2002941037,0.298966055,0.2363899585,0.1236926212,0.0554658429,,,,,,,,
PANG,PUERTO ANGEL,15.666837,-96.490506,seismic,Stations_UNAM,ROCA SEDIMENTARIA,0.23319684,0.2934493862,0.1220460634,0.0618592029,0.0,0.0,0.0,0.0,0.1173815494,0.1779386935,0.062961912,0.0481326366,0.23319684,0.2934493862,0.1220460634,0.0618592029,0.1247818552,0.1791512606,0.0559062905,0.026256136,,,,,,,,
OXXO,XOXOCOTLAN,17.026234,-96.726179,seismic,Stations_UNAM,?,0.221914475,0.5792864792,0.3725055568,0.1520453664,0.0,0.0,0.0,0.0,0.2147719674,0.5792864792,0.3725055568,0.1520453664,0.221914475,0.5517782629,0.3448905069,0.1044403952,0.0773942915,0.1817837122,0.0777821248,0.040600536,,,,,,,,
OXTO,INSTITUTO TECNOLOGICO DE OAXACA,17.078389,-96.744158,seismic,Stations_UNAM,SUELO ALUVIAL,0.2173752294,0.5209645903,0.6024847118,0.142462856,0.0,0.0,0.0,0.0,0.1545918451,0.2504837753,0.4359629126,0.142462856,0.2173752294,0.5209645903,0.6024847118,0.1156472574,0.0688569827,0.1425729559,0.1002368498,0.0329837687,,,,,,,,
OXPM,ESCUELA PRIMARIA MUGICA,17.061391,-96.716899,seismic,Stations_UNAM,SUELO,0.2148237513,0.4936037591,0.1976976755,0.1606639426,0.0,0.0,0.0,0.0,0.143587156,0.4506876199,0.1976976755,0.1161746482,0.2148237513,0.4936037591,0.1763540575,0.1606639426,0.0772911315,0.1186483081,0.1034221167,0.078031036,,,,,,,,
OXCU,OAXACA CIUDAD UNIVERSITARIA,17.048881,-96.713269,seismic,Stations_UNAM,ARCILLA,0.1995794088,0.5935413372,0.3601239295,0.1781919608,0.0,0.0,0.0,0.0,0.1498183486,0.3639903535,0.2351486695,0.1471216434,0.1995794088,0.5935413372,0.3601239295,0.1781919608,0.0604561672,0.1565915368,0.0569343188,0.0322590064,,,,,,,,
OXPC,OAXACA PROTECCION CIVIL,17.051219,-96.722974,seismic,Stations_UNAM,SUELO BLANDO,0.1782765545,0.4110283924,0.6631250431,0.1672894216,0.0,0.0,0.0,0.0,0.1456460754,0.3522528324,0.3188837962,0.1672894216,0.1782765545,0.4110283924,0.6631250431,0.1456395197,0.0746618756,0.1203854867,0.0826685927,0.0424303745,,,,,,,,
OXAE,OAXACA AEROPUERTO,17.001551,-96.721608,seismic,Stations_UNAM,SUELO BLANDO,0.1555021407,0.501646078,0.2218661124,0.1843865896,0.0,0.0,0.0,0.0,0.133967788,0.501646078,0.1595897101,0.1843865896,0.1555021407,0.4357286978,0.2218661124,0.1291153708,0.0841878695,0.1402228486,0.059899395,0.0413956554,,,,,,,,
SMLC,SAN MARTIN LOS CANSECO,16.654971,-96.729233,seismic,Stations_UNAM,ROCA,0.1275558614,0.2660719923,0.1177736635,0.0921850542,0.0,0.0,0.0,0.0,0.1275558614,0.2277039591,0.1177736635,0.0582729016,0.1134657492,0.2660719923,0.0783911376,0.0921850542,0.0676849134,0.1334847665,0.0894792585,0.0566536718,,,,,,,,
OXAL,ALAMEDA DE LEON,17.06148,-96.726042,seismic,Stations_UNAM,SUELO,0.114756473,0.2143580248,0.1662491207,0.0816454449,0.0,0.0,0.0,0.0,0.114756473,0.1844499431,0.0740619775,0.0816454449,0.0999222222,0.2143580248,0.1662491207,0.0637839065,0.0517326198,0.0581600254,0.0458421926,0.0596723666,,,,,,,,
TAJN,TAPACHULA JARDIN DE NINOS JM VILLALPANDO,14.922677,-92.270957,seismic,Stations_UNAM,BLANDO,0.1128223242,0.4468486992,0.1443453701,0.0545046314,0.0,0.0,0.0,0.0,0.1128223242,0.4468486992,0.1443453701,0.0413457664,0.1109630989,0.3286973352,0.1224526566,0.0545046314,0.0639616718,0.1283882186,0.0636435398,0.0336766625,,,,,,,,
SJLL,SAN JUAN DE LOS LLANOS,16.657822,-98.498463,seismic,Stations_UNAM,ROCA,0.111361264,0.0601235531,0.0218174804,0.0111018773,0.0,0.0,0.0,0.0,0.111361264,0.0601235531,0.0164874583,0.0111018773,0.0781993884,0.044569943,0.0218174804,0.0089627388,0.0654107034,0.0387270265,0.0126550183,0.0083732805,,,,,,,,
OXLC,LAS CANTERAS,17.065039,-96.703157,seismic,Stations_UNAM,ROCA CANTERA,0.1042311927,0.2571740603,0.1879972409,0.1056639005,0.0,0.0,0.0,0.0,0.0596825688,0.1959044375,0.1423372969,0.1056639005,0.1042311927,0.2571740603,0.1879972409,0.0893059796,0.0688481142,0.1716401259,0.0728592946,0.0833916455,,,,,,,,
TAMA,TAMAZULAPAN,16.26116,-96.57529,seismic,Stations_UNAM,ROCA,0.0771566769,0.3083572051,0.104948002,0.1090593734,0.0,0.0,0.0,0.0,0.0771566769,0.3083572051,0.104948002,0.0673997719,0.0750447503,0.2968352152,0.0803983203,0.1090593734,0.0625087666,0.1356913217,0.0575085629,0.0443546097,,,,,,,,
SCCB,SAN CRISTOBAL DE LAS CASAS CB 11,16.70858,-92.625515,seismic,Stations_UNAM,ROCA,0.0735217125,0.1349142402,0.1572035522,0.0798249517,0.0,0.0,0.0,0.0,0.0735217125,0.1349142402,0.1572035522,0.0798249517,0.0502817533,0.1132472797,0.1166099364,0.0546175855,0.0286327217,0.0600247456,0.0858121136,0.0390238555,,,,,,,,
PISU,PUENTE IMPULSORA SUPERFICIE,19.4857,-99.049,seismic,Stations_UNAM,?,0.0596608563,0.0608915782,0.0611533241,0.0738324036,0.0,0.0,0.0,0.0,0.036159735,0.0366583054,0.0446923049,0.0671725306,0.0596608563,0.0608915782,0.0611533241,0.0738324036,0.0077698267,0.0081588283,0.0086914651,0.0132815722,,,,,,,,
OXBJ,ESCUELA PRIMARIA BENITO JUAREZ,17.067337,-96.723804,seismic,Stations_UNAM,ROCA,0.0592118247,0.1507909832,0.145939503,0.0773322526,0.0,0.0,0.0,0.0,0.0581068298,0.1507909832,0.0685876802,0.0665211548,0.0592118247,0.1116669799,0.145939503,0.0773322526,0.0406528033,0.0815099517,0.0705313739,0.0514527031,,,,,,,,
JAMI,JAMILTEPEC,16.284353,-97.820692,seismic,Stations_UNAM,ROCA,0.0576863405,0.0854519248,0.0503750117,0.0217038301,0.0,0.0,0.0,0.0,0.0576863405,0.0854519248,0.0503750117,0.0217038301,0.0408858308,0.0441168391,0.0308773917,0.0214260129,0.0318397554,0.0348651558,0.0270205075,0.0308267038,,,,,,,,
MIHL,MINATITLAN ESCUELA HIJAS DE LERDO,17.988778,-94.54387,seismic,Stations_UNAM,BLANDO,0.0573381244,0.0853432425,0.1321432003,0.1431024237,0.0,0.0,0.0,0.0,0.0573381244,0.0853432425,0.1321432003,0.1431024237,0.0521735984,0.0774210274,0.1188883603,0.120907481,0.0310828746,0.0547777204,0.040874941,0.0620797322,,,,,,,,
LANE,LAS NEGRAS,15.947684,-97.187204,seismic,Stations_UNAM,ROCA SEDIMENTARIA,0.0543705403,0.2096865038,0.0593590287,0.0330186693,0.0,0.0,0.0,0.0,0.0408641182,0.0787349694,0.0406308279,0.0330186693,0.0543705403,0.2096865038,0.0593590287,0.0245834653,0.0235844037,0.0517488877,0.0365159815,0.0224233357,,,,,,,,
SAPP,SAN ALEJANDRO PUEBLA,19.057785,-98.215377,seismic,Stations_UNAM,DEPOSITOS LACUSTRES,0.0466607543,0.1032827284,0.1167273219,0.0751482486,0.0,0.0,0.0,0.0,0.0281332314,0.0780598224,0.0964630961,0.0640516806,0.0466607543,0.1032827284,0.1167273219,0.0751482486,0.0101058104,0.0227494141,0.0351203193,0.0239456174,,,,,,,,
OZST,ORIZABA ESCUELA SECUNDARIA TECNICA NUM. 84,18.860758,-97.094119,seismic,Stations_UNAM,SUELO BLANDO,0.0384360856,0.0685573784,0.0788342026,0.0875033279,0.0,0.0,0.0,0.0,0.0320497452,0.0685573784,0.0788342026,0.0875033279,0.0384360856,0.0652194727,0.0774498647,0.0613107183,0.0240325178,0.0297934411,0.0697469757,0.0386186029,,,,,,,,
PCJR,EDIFICIO PC JARDIN,19.422809,-99.159111,seismic,Stations_UNAM,EDIFICIO,0.0313277268,0.0340030015,0.0487187001,0.0635833155,0.0,0.0,0.0,0.0,0.0313277268,0.0340030015,0.0487187001,0.0572737752,0.0313054027,0.03279009,0.0418795162,0.0635833155,0.0064017329,0.0107918549,0.0139894005,0.0136720597,,,,,,,,
THEZ,TEHUACAN ESCUELA PRIMARIA EMILIANO ZAPATA,18.477554,-97.383184,seismic,Stations_UNAM,ROCA,0.0267777778,0.0819905201,0.0650494225,0.041465914,0.0,0.0,0.0,0.0,0.0267777778,0.0625709386,0.0650494225,0.0371038074,0.0244382263,0.0819905201,0.0473630698,0.041465914,0.0140189602,0.0366419452,0.0272012813,0.0360886419,,,,,,,,
SCT2,SCT B-2.,19.394694,-99.148678,seismic,Stations_UNAM,ARCILLA,0.0258551478,0.0262815371,0.0347700466,0.0496903607,0.0,0.0,0.0,0.0,0.0199234455,0.022319027,0.0309497234,0.0496903607,0.0258551478,0.0262815371,0.0347700466,0.0454471934,0.0077717635,0.0106770756,0.0317135204,0.015508777,,,,,,,,
PHPU,PARQUE HABANA PUEBLA,19.044223,-98.168466,seismic,Stations_UNAM,SUELO,0.0256019368,0.0512862294,0.060815126,0.050873574,0.0,0.0,0.0,0.0,0.0256019368,0.0512862294,0.060815126,0.050873574,0.0142444444,0.0298753016,0.0384031529,0.0360938004,0.0106271152,0.0348203647,0.0161117918,0.0178794221,,,,,,,,
SXPU,SISMEX PUEBLA,19.039943,-98.215087,seismic,Stations_UNAM,TRAVERTINO,0.0243536188,0.0348331732,0.0432869293,0.0815770914,0.0,0.0,0.0,0.0,0.016617737,0.0334381286,0.0431970033,0.0597781718,0.0243536188,0.0348331732,0.0432869293,0.0815770914,0.0083494393,0.0167086604,0.0225463144,0.0253327429,,,,,,,,
RFPP,RIO SAN FRANCISCO PUEBLA,19.043493,-98.191493,seismic,Stations_UNAM,ESTRUCTURA,0.0234151886,0.0662562568,0.0512830208,0.0506354727,0.0,0.0,0.0,0.0,0.0215592253,0.0662562568,0.0482048544,0.0487795268,0.0234151886,0.0628572632,0.0512830208,0.0506354727,0.0081883792,0.0229896187,0.0220347686,0.0204184156,,,,,,,,
CCCL,CENTRO CULTURAL UNIVERSITARIO TLATELOLCO CAMPO LIBRE,19.449858,-99.137919,seismic,Stations_UNAM,SUELO,0.0223942915,0.0252606669,0.0379668308,0.0554300431,0.0,0.0,0.0,0.0,0.0200706422,0.0239641664,0.0288328538,0.0375775181,0.0223942915,0.0252606669,0.0379668308,0.0554300431,0.0113301733,0.0208319658,0.0327101323,0.0161955557,,,,,,,,
ACAC,ACAPULCO CENTRO CULTURAL,16.84851,-99.85157,seismic,Stations_UNAM,ARENA - LIMO - ARCILLA,0.0213873598,0.0475721547,0.0577282648,0.0111619918,0.0,0.0,0.0,0.0,0.018775739,0.0475721547,0.0577282648,0.0111619918,0.0213873598,0.04388029,0.0290479564,0.0077895848,0.0085301733,0.0169346744,0.0076132815,0.0038685162,,,,,,,,
VIGA,LAS VIGAS,16.758703,-99.233268,seismic,Stations_UNAM,ROCA,0.0212053007,0.0218152451,0.0109848177,0.0084755352,0.0,0.0,0.0,0.0,0.0212053007,0.0218152451,0.0109848177,0.0084755352,0.0152521916,0.0189250701,0.007027965,0.0041547255,0.0088150866,0.022762335,0.0055474997,0.0060283893,,,,,,,,
LEAC,LOMAS ESTRELLA - ACELEROMETROS ESTACION,19.322748,-99.097641,seismic,Stations_UNAM,ESTRUCTURA,0.0211754332,0.0246301769,0.041129071,0.0907537777,0.0,0.0,0.0,0.0,0.0180764526,0.0198004634,0.0291613972,0.0694318647,0.0211754332,0.0246301769,0.041129071,0.0907537777,0.0061363914,0.0172167388,0.0090829541,0.010658788,,,,,,,,
ACAZ,ACAPULCO LA ZANJA,16.788528,-99.790152,seismic,Stations_UNAM,DEPOSITO BARRA,0.0211213048,0.0260919906,0.0164744633,0.0372182641,0.0,0.0,0.0,0.0,0.0211213048,0.0210559571,0.0162768459,0.0372182641,0.0151878695,0.0260919906,0.0164744633,0.0303422968,0.0098375127,0.0102351231,0.0067399728,0.0100239698,,,,,,,,
PBP2,PASEO NICOLAS BRAVO PUEBLA. S-2,19.045439,-98.208468,seismic,Stations_UNAM,TERRENO LIBRE,0.0198022426,0.0281624829,0.0435865774,0.0538791468,0.0,0.0,0.0,0.0,0.0198022426,0.0266545712,0.0435865774,0.043071925,0.0193349643,0.0281624829,0.0297807493,0.0538791468,0.0083713558,0.0162893674,0.0355636861,0.0261382613,,,,,,,,
PZPU,CERRO LA PAZ PUEBLA,19.055379,-98.227092,seismic,Stations_UNAM,ROCA (CONO VOLCANICO),0.0187682977,0.0379217972,0.0892740306,0.0432735568,0.0,0.0,0.0,0.0,0.0187682977,0.0379217972,0.0892740306,0.0432735568,0.0186168196,0.022847789,0.0452402011,0.0379320018,0.0068829766,0.0204856676,0.0107406277,0.0207708435,,,,,,,,
ACAD,ACAPULCO ESCUELA DIANA,16.86225,-99.87147,seismic,Stations_UNAM,LIMO ARENOSO,0.0181932722,0.0362842328,0.008684165,0.006821114,0.0,0.0,0.0,0.0,0.0181932722,0.0362842328,0.0083058367,0.006821114,0.013872579,0.0269312851,0.008684165,0.0039158988,0.0048130479,0.0073078317,0.0050930567,0.0053272917,,,,,,,,
HMTT,HUAMUXTITLAN,17.798341,-98.559717,seismic,Stations_UNAM,ROCA,0.0158889908,0.0416812375,0.038831493,0.0373102354,0.0,0.0,0.0,0.0,0.0157511723,0.0416812375,0.038831493,0.0246741555,0.0158889908,0.0357794037,0.0331775942,0.0373102354,0.0145638124,0.0572220207,0.0253313915,0.0276384426,,,,,,,,
XALA,XALAPA,19.529875,-96.901973,seismic,Stations_UNAM,Basalto,0.0153017329,0.0436825441,0.0368084003,0.0425801644,0.0,0.0,0.0,0.0,0.0153017329,0.0436825441,0.0368084003,0.0425801644,0.0152278287,0.0365799843,0.0361215244,0.0269570898,0.0085908257,0.0266102623,0.0138727272,0.0253218366,,,,,,,,
SODO,SOLEDAD DE DOBLADO,19.044324,-96.414773,seismic,Stations_UNAM,ALUVIAL,0.0144603466,0.0419091064,0.0333711486,0.0298790241,0.0,0.0,0.0,0.0,0.0144603466,0.0259987118,0.0282184836,0.0298790241,0.0129759429,0.0419091064,0.0333711486,0.0273698847,0.0094569827,0.0172874868,0.0156156804,0.0194407571,,,,,,,,
ACAR,ACAPULCO RENACIMIENTO,16.888789,-99.835027,seismic,Stations_UNAM,ALUVIAL,0.0143517839,0.0589932288,0.0094175202,0.0047999241,0.0,0.0,0.0,0.0,0.0143517839,0.0589932288,0.0069288,0.0047999241,0.0121512742,0.0297657581,0.0094175202,0.0042250223,0.0064579001,0.0128000977,0.0038274768,0.0045031041,,,,,,,,
RABO,RABOSO,18.569078,-98.445409,seismic,Stations_UNAM,ROCA,0.0119542304,0.0345821075,0.0248568649,0.0296646944,0.0,0.0,0.0,0.0,0.0107853211,0.0210122384,0.0248568649,0.0296646944,0.0119542304,0.0345821075,0.0221422665,0.0255865317,0.0077174312,0.0155252842,0.0170941194,0.0261483194,,,,,,,,
COPL,COPALA,16.61081,-98.98399,seismic,Stations_UNAM,ROCA,0.0111148828,0.0236440675,0.0167880391,0.0190186454,0.0,0.0,0.0,0.0,0.0083312946,0.0236440675,0.0126059781,0.0121797007,0.0111148828,0.0196830958,0.0167880391,0.0190186454,0.0054536188,0.0122422012,0.0093375133,0.0094650373,,,,,,,,
CHFL,CHILA DE LAS FLORES,17.969493,-97.865638,seismic,Stations_UNAM,ROCA,0.0102993884,0.0203812983,0.0199289801,0.0284908805,0.0,0.0,0.0,0.0,0.0102845056,0.0203466655,0.0199289801,0.0284908805,0.0102993884,0.0203812983,0.0167910121,0.0194791067,0.0081577982,0.0159124021,0.0179157172,0.0180770356,,,,,,,,
CUP5,IDEI PATIO 5,19.33024,-99.181076,seismic,Stations_UNAM,ROCA BASALTICA,0.0090713558,0.0116857984,0.0171668123,0.0297970656,0.0,0.0,0.0,0.0,0.0090002039,0.0116857984,0.0171668123,0.0297970656,0.0090713558,0.0100195632,0.0145096616,0.0191301642,0.0035547401,0.0054836296,0.0079177898,0.0113915026,,,,,,,,
TNLP,TONALAPA DEL SUR,18.095563,-99.560805,seismic,Stations_UNAM,ROCA,0.0086672783,0.0368634944,0.0110162933,0.0150656102,0.0,0.0,0.0,0.0,0.0086672783,0.0368634944,0.0110162933,0.0150656102,0.0081562691,0.0190182637,0.0096468052,0.0098729033,0.0053153925,0.0096406445,0.0141814641,0.0086884282,,,,,,,,
TACY,TACUBAYA,19.404505,-99.195246,seismic,Stations_UNAM,SUELO DURO,0.0082438328,0.0127588929,0.0185799578,0.0265930974,0.0,0.0,0.0,0.0,0.0082438328,0.0126313613,0.0169773371,0.0155540601,0.0081486239,0.0127588929,0.0185799578,0.0265930974,0.0047106014,0.0080142512,0.0090508766,0.0117766625,,,,,,,,
COYC,COYUCA,16.997788,-100.089963,seismic,Stations_UNAM,ROCA,0.0080572885,0.0159797607,0.0056432798,0.0048584213,0.0,0.0,0.0,0.0,0.006258002,0.0116320485,0.0056432798,0.0048584213,0.0080572885,0.0159797607,0.0038604246,0.0033262502,0.0045342508,0.011382048,0.004169419,0.0047677804,,,,,,,,
ACP2,ACAPULCO PREPARATORIA No. 2,16.874294,-99.886505,seismic,Stations_UNAM,ROCA,0.0072847095,0.0199347128,0.0065838297,0.0045651069,0.0,0.0,0.0,0.0,0.0072847095,0.0185566491,0.0065838297,0.0045651069,0.0070470948,0.0199347128,0.0061508065,0.0033957559,0.004316106,0.007895283,0.0048187664,0.0038912361,,,,,,,,
POZU,POZUELOS,17.09008,-99.59754,seismic,Stations_UNAM,GRANITE,0.0068243629,0.0122005375,0.0066600775,0.0055835929,0.0,0.0,0.0,0.0,0.0068243629,0.0076079473,0.0066600775,0.0055835929,0.0065394495,0.0122005375,0.0052606134,0.0042003215,0.0038332314,0.0060086541,0.0051597445,0.0037616023,,,,,,,,
LMPP,LOMAS DEL MARMOL PUEBLA,19.00147,-98.18227,seismic,Stations_UNAM,ROCA,0.0062002039,0.0134062001,0.0119663254,0.0143979308,0.0,0.0,0.0,0.0,0.0062002039,0.008761611,0.0101503326,0.0143979308,0.0052897044,0.0134062001,0.0119663254,0.0109100097,0.0044674822,0.0076807391,0.0122247236,0.0083852363,,,,,,,,
TEJU,TEJUPILCO,18.904051,-100.159615,seismic,Stations_UNAM,ROCA,0.0059712538,0.0090769937,0.0059957175,0.0061864536,0.0,0.0,0.0,0.0,0.0059712538,0.0090769937,0.0059957175,0.0061864536,0.0047623853,0.0075002895,0.0043224515,0.0050702821,0.003832314,0.0043357373,0.0044389453,0.0057028842,,,,,,,,
AGCA,AGUACALIENTE,16.83733,-99.64526,seismic,Stations_UNAM,ROCA,0.0059227319,0.0106233148,0.004814211,0.0046980117,0.0,0.0,0.0,0.0,0.0059227319,0.0089283786,0.004814211,0.0046980117,0.0057786952,0.0106233148,0.0045467537,0.0038104837,0.0046312946,0.0048103036,0.0040247661,0.0047385652,,,,,,,,
ATYC,ATOYAC,17.213361,-100.432269,seismic,Stations_UNAM,ROCA,0.0047186544,0.0082970772,0.0043811016,0.0053623352,0.0,0.0,0.0,0.0,0.0047186544,0.0082970772,0.0043811016,0.0053623352,0.0038705403,0.0062579481,0.0035237407,0.0035540676,0.0031727829,0.0038964045,0.0033604217,0.0047209599,,,,,,,,
NITA,NUEVA ITALIA,19.020738,-102.085089,seismic,Stations_UNAM,ROCA,0.0042200815,0.0077628226,0.0041220129,0.0016716558,0.0,0.0,0.0,0.0,0.0042200815,0.0077628226,0.0041220129,0.0015325236,0.0030546381,0.0072645756,0.0036323319,0.0016716558,0.0042090724,0.0174607105,0.0057182025,0.0012874588,,,,,,,,
COMD,LA COMUNIDAD,18.122359,-100.523804,seismic,Stations_UNAM,ROCA,0.0038173293,0.0070320136,0.0067089853,0.0057808627,0.0,0.0,0.0,0.0,0.0038173293,0.0063833549,0.0067089853,0.0055485359,0.0029176351,0.0070320136,0.0038756797,0.0057808627,0.002609684,0.0050880352,0.0045426108,0.0061994896,,,,,,,,
OCLL,OCOTILLO,17.036585,-99.878515,seismic,Stations_UNAM,ROCA,0.003787054,0.0087140956,0.005230317,0.003859522,0.0,0.0,0.0,0.0,0.0036901121,0.0087140956,0.005230317,0.003859522,0.003787054,0.0055699341,0.0034084018,0.003243077,0.0030653415,0.0062705954,0.0053559133,0.0050477584,,,,,,,,
VNTA,LA VENTA,16.91426,-99.81885,seismic,Stations_UNAM,ROCA,0.0033396534,0.0068280401,0.0052234189,0.0038008215,0.0,0.0,0.0,0.0,0.0033396534,0.0061581055,0.0037611659,0.0038008215,0.0025067278,0.0068280401,0.0052234189,0.0030537889,0.0025699286,0.0060926852,0.0044730292,0.0030295495,,,,,,,,
SLPA,SAN LUCAS PATHE,19.928698,-99.833027,seismic,Stations_UNAM,ROCA,0.0030897044,0.003263808,0.003357074,0.0044461911,0.0,0.0,0.0,0.0,0.0025948012,0.002693984,0.0030965253,0.0043210055,0.0030897044,0.003263808,0.003357074,0.0044461911,0.0014150866,0.0015794172,0.0016671884,0.0033180189,,,,,,,,
COMA,COMALA,19.325266,-103.760813,seismic,Stations_UNAM,ROCA,0.0030809378,0.0031782045,0.0038655667,0.0046642164,0.0,0.0,0.0,0.0,0.0024797146,0.0025338406,0.0031091441,0.0042792198,0.0030809378,0.0031782045,0.0038655667,0.0046642164,0.0014906218,0.001542206,0.0018376936,0.003099866,,,,,,,,
SLU2,SAN LUIS DE LA LOMA 2,17.280802,-100.935496,seismic,Stations_UNAM,ROCA,0.0027497452,0.0052837944,0.0021199155,0.002267129,0.0,0.0,0.0,0.0,0.0027497452,0.0052837944,0.0021199155,0.0021903806,0.0025953109,0.0046268279,0.0016544506,0.002267129,0.002485423,0.0040035301,0.0018218669,0.0023022915,,,,,,,,
NUX2,NUXCO 2,17.216711,-100.79117,seismic,Stations_UNAM,ROCA,0.0026311927,0.0040676821,0.002480013,0.003924717,0.0,0.0,0.0,0.0,0.0026311927,0.0040676821,0.002480013,0.003924717,0.0017111111,0.0030440158,0.0017968796,0.0021357639,0.0010805301,0.0027393349,0.0017699004,0.0027343435,,,,,,,,
ACAM,ACAMBARO,20.043186,-100.716777,seismic,Stations_UNAM,ROCA,0.0025077472,0.0025679361,0.0035202269,0.0050026903,0.0,0.0,0.0,0.0,0.0025077472,0.0025679361,0.0035202269,0.0050026903,0.0020553517,0.0021189177,0.0024694579,0.0046917373,0.0016417941,0.0017553124,0.0020859967,0.0022537424,,,,,,,,
PET2,PETATLAN II,17.535396,-101.262608,seismic,Stations_UNAM,ROCA,0.0023252803,0.0020565516,0.0015198722,0.0014872355,0.0,0.0,0.0,0.0,0.0017992864,0.0017395921,0.0015120293,0.0005605766,0.0023252803,0.0020565516,0.0015198722,0.0014872355,0.0027750255,0.0019276626,0.0017076923,0.0014732406,,,,,,,,
URUA,URUAPAN,19.421758,-102.074059,seismic,Stations_UNAM,ROCA,0.0022590214,0.0083400417,0.0051568389,0.0068597491,0.0,0.0,0.0,0.0,0.0022590214,0.0037857588,0.0051568389,0.0068597491,0.0019084608,0.0083400417,0.002941975,0.0055433987,0.001675841,0.0069474901,0.0024939293,0.0022572938,,,,,,,,
SNJE,SAN JERONIMO,18.535047,-101.323693,seismic,Stations_UNAM,ROCA,0.0018712538,0.0033241241,0.0027584088,0.003911681,0.0,0.0,0.0,0.0,0.0018712538,0.0033241241,0.0027584088,0.003911681,0.0016681957,0.0027967822,0.0023707074,0.0026216309,0.0022321101,0.0033609753,0.0031619011,0.0029155856,,,,,,,,
CDGU,CIUDAD GUZMAN,19.699521,-103.447815,seismic,Stations_UNAM,ROCA,0.0017629969,0.0020987574,0.0007485978,0.0003691832,0.0,0.0,0.0,0.0,0.0010147808,0.0018648904,0.0007485978,0.0003691832,0.0017629969,0.0020987574,0.0006734623,0.0003419915,0.0008050968,0.0009033516,0.0007960343,0.0004589793,,,,,,,,
GDLP,UNIVERSIDAD PANAMERICANA,20.682533,-103.4422,seismic,Stations_UNAM,BLANDO,0.0015374108,0.0015296432,0.001783885,0.003253511,0.0,0.0,0.0,0.0,0.0014050968,0.0014085483,0.001783885,0.003253511,0.0015374108,0.0015296432,0.0015620353,0.0029677001,0.0011237513,0.001018718,0.0010418186,0.0010379807,,,,,,,,
SUCH,EL SUCHIL,17.226169,-100.638345,seismic,Stations_UNAM,ROCA,0.0015264016,0.0030010616,0.0024974628,0.0049678059,0.0,0.0,0.0,0.0,0.0015264016,0.0028268676,0.0023121793,0.0049678059,0.001416106,0.0030010616,0.0024974628,0.0023772087,0.0014550459,0.0031506472,0.0031405862,0.0039824206,,,,,,,,
VHSA,VILLAHERMOSA SECUNDARIA IM ALTAMIRANO,17.982551,-92.938748,seismic,Stations_UNAM,BLANDO,0.001351682,0.0037235288,0.0036932013,0.0025050539,0.0,0.0,0.0,0.0,0.0013115189,0.0037235288,0.0027982168,0.0025050539,0.001351682,0.0034748459,0.0036932013,0.0021755067,0.0022302752,0.0021304907,0.0023613403,0.0017945041,,,,,,,,
PUVA,PUERTO VALLARTA,20.626163,-105.219166,seismic,Stations_UNAM,ROCA,0.0009517839,0.0009587733,0.0010333119,0.0011784121,0.0,0.0,0.0,0.0,0.0009517839,0.0009587733,0.0010333119,0.0011784121,0.0007125382,0.0007018869,0.000724741,0.0009433436,0.0005907238,0.0005947548,0.0005903563,0.0009212626,,,,,,,,
UTM:(15P 0477 1733 1000),,15.6795,-93.21,macroseismic,Stations_USGS,,0.470572,0.886431,,1.150593,0.8059,1.0131,,1.0822,,,,,,,,,,,,,282.27,8.2,0.3,0.875,64.7728,1.4737,0.216173,inferred
UTM:(15Q 0505 1988 1000),,17.9848,-92.948,macroseismic,Stations_USGS,,0.359293,0.769206,,1.357504,0.8059,1.0131,,1.0822,,,,,,,,,,,,,274.16,,,0.875,64.7728,1.4737,0.260192,inferred
UTM:(14P 0807 1745 1000),,15.7692,-96.1302,macroseismic,Stations_USGS,,0.274083,0.568347,,0.703823,0.8059,1.0131,,1.0822,,,,,,,,,,,,,395.71,7.5,0.3,0.875,38.8932,1.4737,0.135999,inferred
UTM:(14Q 0489 2133 1000),,19.2952,-99.0999,macroseismic,Stations_USGS,,0.247336,0.550954,,0.843033,0.8059,1.0131,,1.0822,,,,,,,,,,,,,180.0,,,0.875,41.833,1.4737,0.164421,inferred
UTM:(14Q 0715 2091 1000),,18.9044,-96.954,macroseismic,Stations_USGS,,0.232413,0.521148,,0.778685,0.8059,1.0131,,1.0822,,,,,,,,,,,,,420.93,,,0.875,38.8932,1.4737,0.152313,inferred
UTM:(15Q 0196 2003 1000),,18.099,-95.8675,macroseismic,Stations_USGS,,0.181197,0.417198,,0.566801,0.8059,1.0131,,1.0822,,,,,,,,,,,,,210.2,,,0.875,29.0597,1.4737,0.112162,inferred
UTM:(15Q 0195 2003 1000),,18.0989,-95.877,macroseismic,Stations_USGS,,0.170265,0.394628,,0.523538,0.8059,1.0131,,1.0822,,,,,,,,,,,,,219.03,,,0.875,27.0175,1.4737,0.103902,inferred
UTM:(14Q 0494 2152 1000),,19.467,-99.0524,macroseismic,Stations_USGS,,0.150339,0.353084,,0.446666,0.8059,1.0131,,1.0822,,,,,,,,,,,,,193.92,,,0.875,23.3536,1.4737,0.089162,inferred
UTM:(15P 0769 1621 1000),,14.6536,-90.4979,macroseismic,Stations_USGS,,0.141268,0.333983,,0.412572,0.8059,1.0131,,1.0822,,,,,,,,,,,,,350.35,,,0.875,21.7125,1.4737,0.082595,inferred
UTM:(15Q 0538 1850 1000),,16.737,-92.6388,macroseismic,Stations_USGS,,0.111111,0.262524,,0.26557,0.8059,1.0131,,1.0822,,,,,,,,,,,,,371.93,6.2,0.3,0.875,15.0828,1.4737,0.05366,inferred
UTM:(15Q 0195 2004 1000),,18.1079,-95.8771,macroseismic,Stations_USGS,,0.103492,0.252901,,0.277387,0.8059,1.0131,,1.0822,,,,,,,,,,,,,219.03,6.2,0.3,0.875,15.0828,1.4737,0.056343,inferred
UTM:(14Q 0743 1890 1000),,17.086,-96.7118,macroseismic,Stations_USGS,,0.099314,0.241878,,0.252935,0.8059,1.0131,,1.0822,,,,,,,,,,,,,424.53,6.1,0.3,0.875,14.0228,1.4737,0.051446,inferred
UTM:(14Q 0669 2042 1000),,18.466,-97.3948,macroseismic,Stations_USGS,,0.097248,0.239219,,0.256214,0.8059,1.0131,,1.0822,,,,,,,,,,,,,323.51,6.1,0.3,0.875,14.0228,1.4737,0.052194,inferred
UTM:(14P 0708 1753 1000),,15.8517,-97.053,macroseismic,Stations_USGS,,0.094702,0.230565,,0.231535,0.8059,1.0131,,1.0822,,,,,,,,,,,,,476.32,6.0,0.3,0.875,13.0374,1.4737,0.047179,inferred
UTM:(14P 0705 1755 1000),,15.87,-97.0808,macroseismic,Stations_USGS,,0.094393,0.230169,,0.232,0.8059,1.0131,,1.0822,,,,,,,,,,,,,504.59,6.0,0.3,0.875,13.0374,1.4737,0.047285,inferred
CMIG,CMIG,17.09,-94.88,seismic,Stations_USGS,,0.081142,0.126646,,0.075199,0.0,0.0,,0.0,,,,,,,,,,,,,349.36,5.2,0.63,0.0,7.5,0.0,0.013527,inferred
UTM:(14Q 0486 2155 1000),,19.494,-99.1286,macroseismic,Stations_USGS,,0.080686,0.202457,,0.201909,0.8059,1.0131,,1.0822,,,,,,,,,,,,,225.56,,,0.875,11.2693,1.4737,0.041491,inferred
UTM:(14Q 0491 2147 1000),,19.4218,-99.081,macroseismic,Stations_USGS,,0.080686,0.202457,,0.201909,0.8059,1.0131,,1.0822,,,,,,,,,,,,,209.08,,,0.875,11.2693,1.4737,0.041491,inferred
UTM:(14P 0704 1755 1000),,15.8701,-97.0902,macroseismic,Stations_USGS,,0.078237,0.194692,,0.182942,0.8059,1.0131,,1.0822,,,,,,,,,,,,,504.59,5.7,0.3,0.875,10.4774,1.4737,0.037615,inferred
UTM:(14Q 0743 1887 1000),,17.0589,-96.7122,macroseismic,Stations_USGS,,0.07756,0.193804,,0.183919,0.8059,1.0131,,1.0822,,,,,,,,,,,,,366.03,5.7,0.3,0.875,10.4774,1.4737,0.03784,inferred
UTM:(14Q 0739 1891 1000),,17.0955,-96.7493,macroseismic,Stations_USGS,,0.072482,0.182793,,0.170452,0.8059,1.0131,,1.0822,,,,,,,,,,,,,517.23,5.6,0.3,0.875,9.7411,1.4737,0.035186,inferred
TGIG,TGIG,16.78,-93.12,seismic,Stations_USGS,,0.071662,0.135933,,0.055678,0.0,0.0,,0.0,,,,,,,,,,,,,554.13,4.7,0.63,0.0,5.06,0.0,0.024016,inferred
UTM:(15P 0744 1609 1000),,14.5475,-90.731,macroseismic,Stations_USGS,,0.071244,0.181144,,0.172262,0.8059,1.0131,,1.0822,,,,,,,,,,,,,392.83,5.6,0.3,0.875,9.7411,1.4737,0.035605,inferred
UTM:(14Q 0485 2132 1000),,19.2862,-99.138,macroseismic,Stations_USGS,,0.071244,0.181144,,0.172262,0.8059,1.0131,,1.0822,,,,,,,,,,,,,323.31,,,0.875,9.7411,1.4737,0.035605,inferred
UTM:(14Q 0484 2144 1000),,19.3946,-99.1476,macroseismic,Stations_USGS,,0.071244,0.181144,,0.172262,0.8059,1.0131,,1.0822,,,,,,,,,,,,,221.17,,,0.875,9.7411,1.4737,0.035605,inferred
UTM:(14Q 0502 2146 1000),,19.4128,-98.9762,macroseismic,Stations_USGS,,0.066945,0.171344,,0.159113,0.8059,1.0131,,1.0822,,,,,,,,,,,,,252.29,,,0.875,9.0565,1.4737,0.032983,inferred
UTM:(14Q 0484 2141 1000),,19.3675,-99.1476,macroseismic,Stations_USGS,,0.066945,0.171344,,0.159113,0.8059,1.0131,,1.0822,,,,,,,,,,,,,252.87,,,0.875,9.0565,1.4737,0.032983,inferred
UTM:(14P 0705 1754 1000),,15.861,-97.0809,macroseismic,Stations_USGS,,0.064986,0.164869,,0.144068,0.8059,1.0131,,1.0822,,,,,,,,,,,,,504.59,5.4,0.3,0.875,8.4201,1.4737,0.029879,inferred
UTM:(14Q 0748 1892 1000),,17.1035,-96.6647,macroseismic,Stations_USGS,,0.064427,0.1634,,0.144831,0.8059,1.0131,,1.0822,,,,,,,,,,,,,532.03,5.4,0.3,0.875,8.4201,1.4737,0.030056,inferred
UTM:(14Q 0482 2148 1000),,19.4308,-99.1667,macroseismic,Stations_USGS,,0.062906,0.158448,,0.146968,0.8059,1.0131,,1.0822,,,,,,,,,,,,,245.23,,,0.875,8.4201,1.4737,0.030554,inferred
UTM:(14Q 0482 2141 1000),,19.3675,-99.1666,macroseismic,Stations_USGS,,0.062906,0.158448,,0.146968,0.8059,1.0131,,1.0822,,,,,,,,,,,,,284.93,,,0.875,8.4201,1.4737,0.030554,inferred
UTM:(14Q 0482 2146 1000),,19.4127,-99.1667,macroseismic,Stations_USGS,,0.062906,0.158448,,0.146968,0.8059,1.0131,,1.0822,,,,,,,,,,,,,240.32,,,0.875,8.4201,1.4737,0.030554,inferred
UTM:(14Q 0482 2157 1000),,19.5121,-99.1668,macroseismic,Stations_USGS,,0.062906,0.158448,,0.146968,0.8059,1.0131,,1.0822,,,,,,,,,,,,,219.05,,,0.875,8.4201,1.4737,0.030554,inferred
UTM:(14Q 0483 2148 1000),,19.4308,-99.1572,macroseismic,Stations_USGS,,0.062906,0.158448,,0.146968,0.8059,1.0131,,1.0822,,,,,,,,,,,,,195.83,5.4,0.3,0.875,8.4201,1.4737,0.030554,inferred
UTM:(16Q 0227 2322 1000),,20.983,-89.621,macroseismic,Stations_USGS,,0.062906,0.158448,,0.146968,0.8059,1.0131,,1.0822,,,,,,,,,,,,,760.0,,,0.875,8.4201,1.4737,0.030554,inferred
UTM:(14Q 0477 2149 1000),,19.4397,-99.2143,macroseismic,Stations_USGS,,0.062906,0.158448,,0.146968,0.8059,1.0131,,1.0822,,,,,,,,,,,,,393.25,,,0.875,8.4201,1.4737,0.030554,inferred
UTM:(14Q 0480 2149 1000),,19.4398,-99.1858,macroseismic,Stations_USGS,,0.062906,0.158448,,0.146968,0.8059,1.0131,,1.0822,,,,,,,,,,,,,280.77,,,0.875,8.4201,1.4737,0.030554,inferred
UTM:(14Q 0483 2140 1000),,19.3585,-99.1571,macroseismic,Stations_USGS,,0.062906,0.158448,,0.146968,0.8059,1.0131,,1.0822,,,,,,,,,,,,,252.87,,,0.875,8.4201,1.4737,0.030554,inferred
UTM:(14Q 0484 2142 1000),,19.3766,-99.1476,macroseismic,Stations_USGS,,0.059111,0.138266,,0.13575,0.8059,1.0131,,1.0822,,,,,,,,,,,,,249.14,5.3,0.3,0.875,7.8284,1.4737,0.028303,inferred
UTM:(14Q 0484 2145 1000),,19.4037,-99.1476,macroseismic,Stations_USGS,,0.059111,0.138266,,0.13575,0.8059,1.0131,,1.0822,,,,,,,,,,,,,221.17,5.3,0.3,0.875,7.8284,1.4737,0.028303,inferred
UTM:(15P 0765 1613 1000),,14.5817,-90.5358,macroseismic,Stations_USGS,,0.059111,0.138266,,0.13575,0.8059,1.0131,,1.0822,,,,,,,,,,,,,355.05,5.3,0.3,0.875,7.8284,1.4737,0.028303,inferred
UTM:(14Q 0470 2142 1000),,19.3764,-99.2809,macroseismic,Stations_USGS,,0.059111,0.138266,,0.13575,0.8059,1.0131,,1.0822,,,,,,,,,,,,,468.25,,,0.875,7.8284,1.4737,0.028303,inferred
UTM:(14Q 0488 2146 1000),,19.4127,-99.1095,macroseismic,Stations_USGS,,0.059111,0.138266,,0.13575,0.8059,1.0131,,1.0822,,,,,,,,,,,,,180.0,5.3,0.3,0.875,7.8284,1.4737,0.028303,inferred
UTM:(15P 0659 1640 1000),,14.834,-91.5177,macroseismic,Stations_USGS,,0.058423,0.128767,,0.121565,0.8059,1.0131,,1.0822,,,,,,,,,,,,,471.46,5.2,0.3,0.875,7.2782,1.4737,0.025325,inferred
UTM:(15Q 0538 1849 1000),,16.728,-92.6388,macroseismic,Stations_USGS,,0.056079,0.115488,,0.110831,0.8059,1.0131,,1.0822,,,,,,,,,,,,,371.93,5.1,0.3,0.875,6.7667,1.4737,0.023119,inferred
UTM:(14Q 0483 2147 1000),,19.4217,-99.1572,macroseismic,Stations_USGS,,0.055544,0.120654,,0.125389,0.8059,1.0131,,1.0822,,,,,,,,,,,,,218.5,5.2,0.3,0.875,7.2782,1.4737,0.026219,inferred
UTM:(15P 0766 1616 1000),,14.6087,-90.5262,macroseismic,Stations_USGS,,0.055544,0.120654,,0.125389,0.8059,1.0131,,1.0822,,,,,,,,,,,,,254.03,5.2,0.3,0.875,7.2782,1.4737,0.026219,inferred
UTM:(14Q 0483 2144 1000),,19.3946,-99.1571,macroseismic,Stations_USGS,,0.055544,0.120654,,0.125389,0.8059,1.0131,,1.0822,,,,,,,,,,,,,221.17,5.2,0.3,0.875,7.2782,1.4737,0.026219,inferred
UTM:(14Q 0583 2105 1000),,19.0405,-98.2065,macroseismic,Stations_USGS,,0.055544,0.120654,,0.125389,0.8059,1.0131,,1.0822,,,,,,,,,,,,,297.42,5.2,0.3,0.875,7.2782,1.4737,0.026219,inferred
UTM:(15P 0775 1609 1000),,14.5446,-90.4435,macroseismic,Stations_USGS,,0.055544,0.120654,,0.125389,0.8059,1.0131,,1.0822,,,,,,,,,,,,,345.68,5.2,0.3,0.875,7.2782,1.4737,0.026219,inferred
UTM:(14Q 0481 2138 1000),,19.3404,-99.1761,macroseismic,Stations_USGS,,0.055544,0.120654,,0.125389,0.8059,1.0131,,1.0822,,,,,,,,,,,,,367.31,5.2,0.3,0.875,7.2782,1.4737,0.026219,inferred
UTM:(14Q 0482 2144 1000),,19.3946,-99.1667,macroseismic,Stations_USGS,,0.055544,0.120654,,0.125389,0.8059,1.0131,,1.0822,,,,,,,,,,,,,269.13,5.2,0.3,0.875,7.2782,1.4737,0.026219,inferred
UTM:(14P 0762 1733 1000),,15.6659,-96.5512,macroseismic,Stations_USGS,,0.054189,0.104471,,0.100632,0.8059,1.0131,,1.0822,,,,,,,,,,,,,481.57,5.0,0.3,0.875,6.2912,1.4737,0.021009,inferred
UTM:(14Q 0742 1887 1000),,17.059,-96.7216,macroseismic,Stations_USGS,,0.053348,0.108297,,0.114274,0.8059,1.0131,,1.0822,,,,,,,,,,,,,366.03,5.1,0.3,0.875,6.7667,1.4737,0.023926,inferred
UTM:(14Q 0484 2148 1000),,19.4308,-99.1476,macroseismic,Stations_USGS,,0.052193,0.105286,,0.115818,0.8059,1.0131,,1.0822,,,,,,,,,,,,,195.83,5.1,0.3,0.875,6.7667,1.4737,0.024288,inferred
UTM:(15P 0767 1612 1000),,14.5725,-90.5173,macroseismic,Stations_USGS,,0.052193,0.105286,,0.115818,0.8059,1.0131,,1.0822,,,,,,,,,,,,,506.91,5.1,0.3,0.875,6.7667,1.4737,0.024288,inferred
UTM:(15P 0757 1618 1000),,14.6276,-90.6095,macroseismic,Stations_USGS,,0.052193,0.105286,,0.115818,0.8059,1.0131,,1.0822,,,,,,,,,,,,,787.51,5.1,0.3,0.875,6.7667,1.4737,0.024288,inferred
UTM:(14Q 0493 2139 1000),,19.3495,-99.0619,macroseismic,Stations_USGS,,0.052193,0.105286,,0.115818,0.8059,1.0131,,1.0822,,,,,,,,,,,,,251.05,5.1,0.3,0.875,6.7667,1.4737,0.024288,inferred
UTM:(14Q 0481 2132 1000),,19.2862,-99.1761,macroseismic,Stations_USGS,,0.052193,0.105286,,0.115818,0.8059,1.0131,,1.0822,,,,,,,,,,,,,528.13,5.1,0.3,0.875,6.7667,1.4737,0.024288,inferred
UTM:(14Q 0470 2140 1000),,19.3583,-99.2809,macroseismic,Stations_USGS,,0.052193,0.105286,,0.115818,0.8059,1.0131,,1.0822,,,,,,,,,,,,,506.71,5.1,0.3,0.875,6.7667,1.4737,0.024288,inferred
UTM:(14Q 0481 2147 1000),,19.4217,-99.1762,macroseismic,Stations_USGS,,0.052193,0.105286,,0.115818,0.8059,1.0131,,1.0822,,,,,,,,,,,,,322.2,5.1,0.3,0.875,6.7667,1.4737,0.024288,inferred
UTM:(14Q 0481 2146 1000),,19.4127,-99.1762,macroseismic,Stations_USGS,,0.049044,0.091875,,0.106978,0.8059,1.0131,,1.0822,,,,,,,,,,,,,322.2,5.0,0.3,0.875,6.2912,1.4737,0.022499,inferred
UTM:(14Q 0485 2147 1000),,19.4217,-99.1381,macroseismic,Stations_USGS,,0.049044,0.091875,,0.106978,0.8059,1.0131,,1.0822,,,,,,,,,,,,,208.15,5.0,0.3,0.875,6.2912,1.4737,0.022499,inferred
UTM:(15P 0770 1614 1000),,14.5902,-90.4893,macroseismic,Stations_USGS,,0.049044,0.091875,,0.106978,0.8059,1.0131,,1.0822,,,,,,,,,,,,,604.38,5.0,0.3,0.875,6.2912,1.4737,0.022499,inferred
UTM:(14Q 0580 2111 1000),,19.0949,-98.2347,macroseismic,Stations_USGS,,0.049044,0.091875,,0.106978,0.8059,1.0131,,1.0822,,,,,,,,,,,,,342.86,5.0,0.3,0.875,6.2912,1.4737,0.022499,inferred
UTM:(14Q 0481 2148 1000),,19.4307,-99.1762,macroseismic,Stations_USGS,,0.046085,0.080173,,0.098812,0.8059,1.0131,,1.0822,,,,,,,,,,,,,280.77,4.9,0.3,0.875,5.8491,1.4737,0.020842,inferred
UTM:(14Q 0481 2141 1000),,19.3675,-99.1762,macroseismic,Stations_USGS,,0.046085,0.080173,,0.098812,0.8059,1.0131,,1.0822,,,,,,,,,,,,,349.63,4.9,0.3,0.875,5.8491,1.4737,0.020842,inferred
UTM:(14Q 0481 2150 1000),,19.4488,-99.1762,macroseismic,Stations_USGS,,0.046085,0.080173,,0.098812,0.8059,1.0131,,1.0822,,,,,,,,,,,,,257.01,4.9,0.3,0.875,5.8491,1.4737,0.020842,inferred
UTM:(14Q 0742 1889 1000),,17.0771,-96.7214,macroseismic,Stations_USGS,,0.044213,0.071857,,0.090116,0.8059,1.0131,,1.0822,,,,,,,,,,,,,424.53,4.8,0.3,0.875,5.438,1.4737,0.019034,inferred
TUIG,TUIG,18.03,-94.42,seismic,Stations_USGS,,0.043843,0.05791,,0.076432,0.0,0.0,,0.0,,,,,,,,,,,,,330.54,5.3,0.63,0.0,7.88,0.0,0.048033,inferred
UTM:(14Q 0485 2138 1000),,19.3404,-99.138,macroseismic,Stations_USGS,,0.043304,0.069961,,0.09127,0.8059,1.0131,,1.0822,,,,,,,,,,,,,236.41,4.8,0.3,0.875,5.438,1.4737,0.019308,inferred
UTM:(14Q 0486 2139 1000),,19.3495,-99.1285,macroseismic,Stations_USGS,,0.043304,0.069961,,0.09127,0.8059,1.0131,,1.0822,,,,,,,,,,,,,220.75,4.8,0.3,0.875,5.438,1.4737,0.019308,inferred
UTM:(15P 0743 1609 1000),,14.5476,-90.7402,macroseismic,Stations_USGS,,0.043304,0.069961,,0.09127,0.8059,1.0131,,1.0822,,,,,,,,,,,,,392.83,4.8,0.3,0.875,5.438,1.4737,0.019308,inferred
UTM:(15P 0761 1619 1000),,14.6363,-90.5723,macroseismic,Stations_USGS,,0.043304,0.069961,,0.09127,0.8059,1.0131,,1.0822,,,,,,,,,,,,,383.33,4.8,0.3,0.875,5.438,1.4737,0.019308,inferred
UTM:(15P 0765 1616 1000),,14.6088,-90.5355,macroseismic,Stations_USGS,,0.043304,0.069961,,0.09127,0.8059,1.0131,,1.0822,,,,,,,,,,,,,254.03,4.8,0.3,0.875,5.438,1.4737,0.019308,inferred
UTM:(15P 0761 1610 1000),,14.555,-90.5732,macroseismic,Stations_USGS,,0.043304,0.069961,,0.09127,0.8059,1.0131,,1.0822,,,,,,,,,,,,,500.12,4.8,0.3,0.875,5.438,1.4737,0.019308,inferred
UTM:(14Q 0482 2150 1000),,19.4488,-99.1667,macroseismic,Stations_USGS,,0.043304,0.069961,,0.09127,0.8059,1.0131,,1.0822,,,,,,,,,,,,,243.58,4.8,0.3,0.875,5.438,1.4737,0.019308,inferred
UTM:(14Q 0469 2140 1000),,19.3583,-99.2904,macroseismic,Stations_USGS,,0.040691,0.06105,,0.084303,0.8059,1.0131,,1.0822,,,,,,,,,,,,,506.71,4.7,0.3,0.875,5.0559,1.4737,0.017886,inferred
UTM:(15P 0770 1613 1000),,14.5812,-90.4894,macroseismic,Stations_USGS,,0.040691,0.06105,,0.084303,0.8059,1.0131,,1.0822,,,,,,,,,,,,,604.38,4.7,0.3,0.875,5.0559,1.4737,0.017886,inferred
UTM:(14Q 0484 2133 1000),,19.2952,-99.1475,macroseismic,Stations_USGS,,0.040691,0.06105,,0.084303,0.8059,1.0131,,1.0822,,,,,,,,,,,,,288.14,4.7,0.3,0.875,5.0559,1.4737,0.017886,inferred
UTM:(14Q 0481 2143 1000),,19.3856,-99.1762,macroseismic,Stations_USGS,,0.040691,0.06105,,0.084303,0.8059,1.0131,,1.0822,,,,,,,,,,,,,325.69,4.7,0.3,0.875,5.0559,1.4737,0.017886,inferred
UTM:(14Q 0482 2145 1000),,19.4036,-99.1667,macroseismic,Stations_USGS,,0.040691,0.06105,,0.084303,0.8059,1.0131,,1.0822,,,,,,,,,,,,,269.13,4.7,0.3,0.875,5.0559,1.4737,0.017886,inferred
UTM:(15P 0767 1613 1000),,14.5815,-90.5172,macroseismic,Stations_USGS,,0.040691,0.06105,,0.084303,0.8059,1.0131,,1.0822,,,,,,,,,,,,,341.7,4.7,0.3,0.875,5.0559,1.4737,0.017886,inferred
UTM:(15P 0767 1614 1000),,14.5905,-90.5171,macroseismic,Stations_USGS,,0.040691,0.06105,,0.084303,0.8059,1.0131,,1.0822,,,,,,,,,,,,,341.7,4.7,0.3,0.875,5.0559,1.4737,0.017886,inferred
UTM:(14Q 0483 2146 1000),,19.4127,-99.1572,macroseismic,Stations_USGS,,0.040691,0.06105,,0.084303,0.8059,1.0131,,1.0822,,,,,,,,,,,,,218.5,4.7,0.3,0.875,5.0559,1.4737,0.017886,inferred
UTM:(14Q 0479 2134 1000),,19.3042,-99.1951,macroseismic,Stations_USGS,,0.040691,0.06105,,0.084303,0.8059,1.0131,,1.0822,,,,,,,,,,,,,509.24,4.7,0.3,0.875,5.0559,1.4737,0.017886,inferred
UTM:(14Q 0481 2134 1000),,19.3042,-99.1761,macroseismic,Stations_USGS,,0.040691,0.06105,,0.084303,0.8059,1.0131,,1.0822,,,,,,,,,,,,,384.29,4.7,0.3,0.875,5.0559,1.4737,0.017886,inferred
UTM:(14P 0706 1754 1000),,15.8609,-97.0716,macroseismic,Stations_USGS,,0.039541,0.055626,,0.076284,0.8059,1.0131,,1.0822,,,,,,,,,,,,,449.41,4.6,0.3,0.875,4.7006,1.4737,0.016191,inferred
UTM:(14Q 0482 2147 1000),,19.4217,-99.1667,macroseismic,Stations_USGS,,0.038236,0.053274,,0.077869,0.8059,1.0131,,1.0822,,,,,,,,,,,,,240.32,4.6,0.3,0.875,4.7006,1.4737,0.016568,inferred
UTM:(14Q 0477 2147 1000),,19.4217,-99.2143,macroseismic,Stations_USGS,,0.038236,0.053274,,0.077869,0.8059,1.0131,,1.0822,,,,,,,,,,,,,442.08,4.6,0.3,0.875,4.7006,1.4737,0.016568,inferred
UTM:(15P 0764 1616 1000),,14.6089,-90.5448,macroseismic,Stations_USGS,,0.038236,0.053274,,0.077869,0.8059,1.0131,,1.0822,,,,,,,,,,,,,317.8,4.6,0.3,0.875,4.7006,1.4737,0.016568,inferred
UTM:(15Q 0505 1987 1000),,17.9757,-92.948,macroseismic,Stations_USGS,,0.038236,0.053274,,0.077869,0.8059,1.0131,,1.0822,,,,,,,,,,,,,274.16,4.6,0.3,0.875,4.7006,1.4737,0.016568,inferred
UTM:(14Q 0472 2141 1000),,19.3674,-99.2619,macroseismic,Stations_USGS,,0.038236,0.053274,,0.077869,0.8059,1.0131,,1.0822,,,,,,,,,,,,,493.58,4.6,0.3,0.875,4.7006,1.4737,0.016568,inferred
UTM:(14Q 0483 2142 1000),,19.3765,-99.1571,macroseismic,Stations_USGS,,0.038236,0.053274,,0.077869,0.8059,1.0131,,1.0822,,,,,,,,,,,,,249.14,4.6,0.3,0.875,4.7006,1.4737,0.016568,inferred
UTM:(15P 0759 1614 1000),,14.5913,-90.5913,macroseismic,Stations_USGS,,0.038236,0.053274,,0.077869,0.8059,1.0131,,1.0822,,,,,,,,,,,,,495.05,4.6,0.3,0.875,4.7006,1.4737,0.016568,inferred
UTM:(15P 0767 1615 1000),,14.5996,-90.517,macroseismic,Stations_USGS,,0.038236,0.053274,,0.077869,0.8059,1.0131,,1.0822,,,,,,,,,,,,,237.95,4.6,0.3,0.875,4.7006,1.4737,0.016568,inferred
UTM:(14Q 0479 2149 1000),,19.4398,-99.1953,macroseismic,Stations_USGS,,0.038236,0.053274,,0.077869,0.8059,1.0131,,1.0822,,,,,,,,,,,,,337.37,4.6,0.3,0.875,4.7006,1.4737,0.016568,inferred
UTM:(15P 0768 1619 1000),,14.6356,-90.5074,macroseismic,Stations_USGS,,0.038236,0.053274,,0.077869,0.8059,1.0131,,1.0822,,,,,,,,,,,,,350.69,4.6,0.3,0.875,4.7006,1.4737,0.016568,inferred
UTM:(15Q 0489 1855 1000),,16.7825,-93.0985,macroseismic,Stations_USGS,,0.037078,0.046671,,0.062148,0.8059,1.0131,,1.0822,,,,,,,,,,,,,532.78,4.4,0.3,0.875,4.0631,1.4737,0.013194,inferred
UTM:(14Q 0801 2123 1000),,19.1825,-96.1332,macroseismic,Stations_USGS,,0.033175,0.046488,,0.071925,0.8059,1.0131,,1.0822,,,,,,,,,,,,,270.96,4.5,0.3,0.875,4.3703,1.4737,0.015348,inferred
UTM:(14Q 0487 2139 1000),,19.3495,-99.119,macroseismic,Stations_USGS,,0.033175,0.046488,,0.071925,0.8059,1.0131,,1.0822,,,,,,,,,,,,,196.44,4.5,0.3,0.875,4.3703,1.4737,0.015348,inferred
UTM:(14Q 0480 2145 1000),,19.4036,-99.1857,macroseismic,Stations_USGS,,0.033175,0.046488,,0.071925,0.8059,1.0131,,1.0822,,,,,,,,,,,,,362.65,4.5,0.3,0.875,4.3703,1.4737,0.015348,inferred
UTM:(15P 0768 1615 1000),,14.5995,-90.5078,macroseismic,Stations_USGS,,0.033175,0.046488,,0.071925,0.8059,1.0131,,1.0822,,,,,,,,,,,,,336.6,4.5,0.3,0.875,4.3703,1.4737,0.015348,inferred
UTM:(14Q 0485 2148 1000),,19.4308,-99.1381,macroseismic,Stations_USGS,,0.033175,0.046488,,0.071925,0.8059,1.0131,,1.0822,,,,,,,,,,,,,226.81,4.5,0.3,0.875,4.3703,1.4737,0.015348,inferred
UTM:(15P 0758 1619 1000),,14.6366,-90.6001,macroseismic,Stations_USGS,,0.033175,0.046488,,0.071925,0.8059,1.0131,,1.0822,,,,,,,,,,,,,474.82,4.5,0.3,0.875,4.3703,1.4737,0.015348,inferred
UTM:(14Q 0480 2148 1000),,19.4307,-99.1857,macroseismic,Stations_USGS,,0.033175,0.046488,,0.071925,0.8059,1.0131,,1.0822,,,,,,,,,,,,,280.77,4.5,0.3,0.875,4.3703,1.4737,0.015348,inferred
UTM:(15P 0769 1615 1000),,14.5994,-90.4985,macroseismic,Stations_USGS,,0.033175,0.046488,,0.071925,0.8059,1.0131,,1.0822,,,,,,,,,,,,,336.6,4.5,0.3,0.875,4.3703,1.4737,0.015348,inferred
UTM:(14Q 0485 2145 1000),,19.4037,-99.1381,macroseismic,Stations_USGS,,0.033175,0.046488,,0.071925,0.8059,1.0131,,1.0822,,,,,,,,,,,,,188.73,4.5,0.3,0.875,4.3703,1.4737,0.015348,inferred
UTM:(14Q 0480 2144 1000),,19.3946,-99.1857,macroseismic,Stations_USGS,,0.033175,0.046488,,0.071925,0.8059,1.0131,,1.0822,,,,,,,,,,,,,362.65,4.5,0.3,0.875,4.3703,1.4737,0.015348,inferred
UTM:(14Q 0485 2154 1000),,19.485,-99.1382,macroseismic,Stations_USGS,,0.033175,0.046488,,0.071925,0.8059,1.0131,,1.0822,,,,,,,,,,,,,194.82,4.5,0.3,0.875,4.3703,1.4737,0.015348,inferred
UTM:(14Q 0483 2152 1000),,19.4669,-99.1572,macroseismic,Stations_USGS,,0.033175,0.046488,,0.071925,0.8059,1.0131,,1.0822,,,,,,,,,,,,,215.08,4.5,0.3,0.875,4.3703,1.4737,0.015348,inferred
UTM:(14Q 0485 2150 1000),,19.4489,-99.1381,macroseismic,Stations_USGS,,0.033175,0.046488,,0.071925,0.8059,1.0131,,1.0822,,,,,,,,,,,,,216.18,4.5,0.3,0.875,4.3703,1.4737,0.015348,inferred
UTM:(14Q 0483 2139 1000),,19.3494,-99.1571,macroseismic,Stations_USGS,,0.033175,0.046488,,0.071925,0.8059,1.0131,,1.0822,,,,,,,,,,,,,247.07,4.5,0.3,0.875,4.3703,1.4737,0.015348,inferred
UTM:(15P 0744 1610 1000),,14.5566,-90.7309,macroseismic,Stations_USGS,,0.033175,0.046488,,0.071925,0.8059,1.0131,,1.0822,,,,,,,,,,,,,392.83,4.5,0.3,0.875,4.3703,1.4737,0.015348,inferred
UTM:(15P 0773 1622 1000),,14.6622,-90.4607,macroseismic,Stations_USGS,,0.033175,0.046488,,0.071925,0.8059,1.0131,,1.0822,,,,,,,,,,,,,293.85,4.5,0.3,0.875,4.3703,1.4737,0.015348,inferred
UTM:(14P 0761 1733 1000),,15.666,-96.5605,macroseismic,Stations_USGS,,0.031178,0.040185,,0.05777,0.8059,1.0131,,1.0822,,,,,,,,,,,,,443.1,4.3,0.3,0.875,3.7776,1.4737,0.01231,inferred
MYIG,MYIG,20.95,-89.64,seismic,Stations_USGS,,0.03051,0.067054,,0.062559,0.0,0.0,,0.0,,,,,,,,,,,,,760.0,7.5,0.63,0.0,39.09,0.0,0.058216,inferred
UTM:(14Q 0741 1888 1000),,17.0682,-96.7309,macroseismic,Stations_USGS,,0.03003,0.041653,,0.065605,0.8059,1.0131,,1.0822,,,,,,,,,,,,,479.23,4.4,0.3,0.875,4.0631,1.4737,0.014019,inferred
UTM:(15Q 0539 1850 1000),,16.737,-92.6294,macroseismic,Stations_USGS,,0.029146,0.03875,,0.058779,0.8059,1.0131,,1.0822,,,,,,,,,,,,,371.93,4.3,0.3,0.875,3.7776,1.4737,0.012551,inferred
UTM:(15P 0762 1618 1000),,14.6272,-90.5631,macroseismic,Stations_USGS,,0.028595,0.040567,,0.066435,0.8059,1.0131,,1.0822,,,,,,,,,,,,,383.33,4.4,0.3,0.875,4.0631,1.4737,0.014218,inferred
UTM:(14Q 0584 2103 1000),,19.0224,-98.1971,macroseismic,Stations_USGS,,0.028595,0.040567,,0.066435,0.8059,1.0131,,1.0822,,,,,,,,,,,,,288.03,4.4,0.3,0.875,4.0631,1.4737,0.014218,inferred
UTM:(15P 0771 1621 1000),,14.6534,-90.4793,macroseismic,Stations_USGS,,0.028595,0.040567,,0.066435,0.8059,1.0131,,1.0822,,,,,,,,,,,,,378.67,4.4,0.3,0.875,4.0631,1.4737,0.014218,inferred
UTM:(14Q 0431 2132 1000),,19.2851,-99.6519,macroseismic,Stations_USGS,,0.028595,0.040567,,0.066435,0.8059,1.0131,,1.0822,,,,,,,,,,,,,760.0,4.4,0.3,0.875,4.0631,1.4737,0.014218,inferred
UTM:(14Q 0483 2138 1000),,19.3404,-99.1571,macroseismic,Stations_USGS,,0.028595,0.040567,,0.066435,0.8059,1.0131,,1.0822,,,,,,,,,,,,,289.37,4.4,0.3,0.875,4.0631,1.4737,0.014218,inferred
UTM:(14Q 0481 2144 1000),,19.3946,-99.1762,macroseismic,Stations_USGS,,0.028595,0.040567,,0.066435,0.8059,1.0131,,1.0822,,,,,,,,,,,,,362.65,4.4,0.3,0.875,4.0631,1.4737,0.014218,inferred
UTM:(14Q 0483 2143 1000),,19.3856,-99.1571,macroseismic,Stations_USGS,,0.028595,0.040567,,0.066435,0.8059,1.0131,,1.0822,,,,,,,,,,,,,249.14,4.4,0.3,0.875,4.0631,1.4737,0.014218,inferred
UTM:(14Q 0479 2141 1000),,19.3675,-99.1952,macroseismic,Stations_USGS,,0.028595,0.040567,,0.066435,0.8059,1.0131,,1.0822,,,,,,,,,,,,,447.8,4.4,0.3,0.875,4.0631,1.4737,0.014218,inferred
UTM:(14Q 0581 2106 1000),,19.0496,-98.2254,macroseismic,Stations_USGS,,0.028595,0.040567,,0.066435,0.8059,1.0131,,1.0822,,,,,,,,,,,,,385.57,4.4,0.3,0.875,4.0631,1.4737,0.014218,inferred
UTM:(15P 0770 1615 1000),,14.5993,-90.4892,macroseismic,Stations_USGS,,0.028595,0.040567,,0.066435,0.8059,1.0131,,1.0822,,,,,,,,,,,,,481.4,4.4,0.3,0.875,4.0631,1.4737,0.014218,inferred
UTM:(14Q 0477 2151 1000),,19.4578,-99.2144,macroseismic,Stations_USGS,,0.024648,0.0354,,0.061364,0.8059,1.0131,,1.0822,,,,,,,,,,,,,379.81,4.3,0.3,0.875,3.7776,1.4737,0.013171,inferred
UTM:(14Q 0718 2161 1000),,19.5363,-96.9176,macroseismic,Stations_USGS,,0.024648,0.0354,,0.061364,0.8059,1.0131,,1.0822,,,,,,,,,,,,,509.37,4.3,0.3,0.875,3.7776,1.4737,0.013171,inferred
UTM:(14Q 0717 2160 1000),,19.5274,-96.9272,macroseismic,Stations_USGS,,0.024648,0.0354,,0.061364,0.8059,1.0131,,1.0822,,,,,,,,,,,,,436.82,4.3,0.3,0.875,3.7776,1.4737,0.013171,inferred
UTM:(14Q 0579 2136 1000),,19.3208,-98.2432,macroseismic,Stations_USGS,,0.024648,0.0354,,0.061364,0.8059,1.0131,,1.0822,,,,,,,,,,,,,418.2,4.3,0.3,0.875,3.7776,1.4737,0.013171,inferred
UTM:(14Q 0473 2145 1000),,19.4035,-99.2524,macroseismic,Stations_USGS,,0.024648,0.0354,,0.061364,0.8059,1.0131,,1.0822,,,,,,,,,,,,,435.31,4.3,0.3,0.875,3.7776,1.4737,0.013171,inferred
UTM:(15P 0759 1607 1000),,14.5281,-90.592,macroseismic,Stations_USGS,,0.024648,0.0354,,0.061364,0.8059,1.0131,,1.0822,,,,,,,,,,,,,423.72,4.3,0.3,0.875,3.7776,1.4737,0.013171,inferred
UTM:(14Q 0478 2149 1000),,19.4398,-99.2048,macroseismic,Stations_USGS,,0.024648,0.0354,,0.061364,0.8059,1.0131,,1.0822,,,,,,,,,,,,,337.37,4.3,0.3,0.875,3.7776,1.4737,0.013171,inferred
UTM:(14Q 0483 2137 1000),,19.3314,-99.1571,macroseismic,Stations_USGS,,0.024648,0.0354,,0.061364,0.8059,1.0131,,1.0822,,,,,,,,,,,,,289.37,4.3,0.3,0.875,3.7776,1.4737,0.013171,inferred
UTM:(14Q 0482 2143 1000),,19.3856,-99.1667,macroseismic,Stations_USGS,,0.024648,0.0354,,0.061364,0.8059,1.0131,,1.0822,,,,,,,,,,,,,287.58,4.3,0.3,0.875,3.7776,1.4737,0.013171,inferred
UTM:(15P 0759 1615 1000),,14.6004,-90.5913,macroseismic,Stations_USGS,,0.024648,0.0354,,0.061364,0.8059,1.0131,,1.0822,,,,,,,,,,,,,475.69,4.3,0.3,0.875,3.7776,1.4737,0.013171,inferred
UTM:(14Q 0778 2041 1000),,18.4455,-96.3633,macroseismic,Stations_USGS,,0.024648,0.0354,,0.061364,0.8059,1.0131,,1.0822,,,,,,,,,,,,,227.73,4.3,0.3,0.875,3.7776,1.4737,0.013171,inferred
UTM:(15P 0764 1615 1000),,14.5999,-90.5449,macroseismic,Stations_USGS,,0.024648,0.0354,,0.061364,0.8059,1.0131,,1.0822,,,,,,,,,,,,,321.29,4.3,0.3,0.875,3.7776,1.4737,0.013171,inferred
UTM:(15P 0762 1614 1000),,14.591,-90.5635,macroseismic,Stations_USGS,,0.024648,0.0354,,0.061364,0.8059,1.0131,,1.0822,,,,,,,,,,,,,367.25,4.3,0.3,0.875,3.7776,1.4737,0.013171,inferred
UTM:(14Q 0482 2149 1000),,19.4398,-99.1667,macroseismic,Stations_USGS,,0.024648,0.0354,,0.061364,0.8059,1.0131,,1.0822,,,,,,,,,,,,,245.23,4.3,0.3,0.875,3.7776,1.4737,0.013171,inferred
UTM:(15P 0769 1613 1000),,14.5813,-90.4987,macroseismic,Stations_USGS,,0.024648,0.0354,,0.061364,0.8059,1.0131,,1.0822,,,,,,,,,,,,,380.68,4.3,0.3,0.875,3.7776,1.4737,0.013171,inferred
UTM:(15P 0767 1620 1000),,14.6447,-90.5165,macroseismic,Stations_USGS,,0.024648,0.0354,,0.061364,0.8059,1.0131,,1.0822,,,,,,,,,,,,,402.84,4.3,0.3,0.875,3.7776,1.4737,0.013171,inferred
TPIG,TPIG,18.42,-97.36,seismic,Stations_USGS,,0.023129,0.033751,,0.063925,0.0,0.0,,0.0,,,,,,,,,,,,,443.87,5.1,0.63,0.0,6.58,0.0,0.014047,inferred
UTM:(14Q 0741 1887 1000),,17.0591,-96.731,macroseismic,Stations_USGS,,0.022341,0.03174,,0.055953,0.8059,1.0131,,1.0822,,,,,,,,,,,,,479.23,4.2,0.3,0.875,3.5121,1.4737,0.012026,inferred
PPIG,PPIG,19.07,-98.63,seismic,Stations_USGS,,0.021723,0.023935,,0.051111,0.0,0.0,,0.0,,,,,,,,,,,,,655.42,5.3,0.63,0.0,7.58,0.0,0.029174,inferred
UTM:(14Q 0480 2142 1000),,19.3765,-99.1857,macroseismic,Stations_USGS,,0.021245,0.030891,,0.05668,0.8059,1.0131,,1.0822,,,,,,,,,,,,,325.69,4.2,0.3,0.875,3.5121,1.4737,0.012201,inferred
UTM:(14Q 0479 2148 1000),,19.4307,-99.1953,macroseismic,Stations_USGS,,0.021245,0.030891,,0.05668,0.8059,1.0131,,1.0822,,,,,,,,,,,,,337.37,4.2,0.3,0.875,3.5121,1.4737,0.012201,inferred
UTM:(14Q 0481 2145 1000),,19.4036,-99.1762,macroseismic,Stations_USGS,,0.021245,0.030891,,0.05668,0.8059,1.0131,,1.0822,,,,,,,,,,,,,362.65,4.2,0.3,0.875,3.5121,1.4737,0.012201,inferred
UTM:(15P 0743 1610 1000),,14.5567,-90.7401,macroseismic,Stations_USGS,,0.021245,0.030891,,0.05668,0.8059,1.0131,,1.0822,,,,,,,,,,,,,392.83,4.2,0.3,0.875,3.5121,1.4737,0.012201,inferred
UTM:(15P 0768 1614 1000),,14.5904,-90.5079,macroseismic,Stations_USGS,,0.021245,0.030891,,0.05668,0.8059,1.0131,,1.0822,,,,,,,,,,,,,380.68,4.2,0.3,0.875,3.5121,1.4737,0.012201,inferred
PNIG,PNIG,16.39,-98.13,seismic,Stations_USGS,,0.01999,0.049541,,0.006993,0.0,0.0,,0.0,,,,,,,,,,,,,261.33,3.7,0.63,0.0,1.81,0.0,0.003262,inferred
UTM:(14R 0624 3346 1000),,30.2437,-97.706,macroseismic,Stations_USGS,,0.018312,0.026956,,0.052354,0.8059,1.0131,,1.0822,,,,,,,,,,,,,760.0,,,0.875,3.1573,1.4737,0.011302,inferred
UTM:(15P 0769 1614 1000),,14.5903,-90.4986,macroseismic,Stations_USGS,,0.018312,0.026956,,0.052354,0.8059,1.0131,,1.0822,,,,,,,,,,,,,380.68,4.1,0.3,0.875,3.1573,1.4737,0.011302,inferred
UTM:(14Q 0471 2145 1000),,19.4035,-99.2714,macroseismic,Stations_USGS,,0.018312,0.026956,,0.052354,0.8059,1.0131,,1.0822,,,,,,,,,,,,,453.65,4.1,0.3,0.875,3.1573,1.4737,0.011302,inferred
UTM:(16Q 0373 1935 1000),,17.5021,-88.1916,macroseismic,Stations_USGS,,0.018312,0.026956,,0.052354,0.8059,1.0131,,1.0822,,,,,,,,,,,,,760.0,4.1,0.3,0.875,3.1573,1.4737,0.011302,inferred
UTM:(15Q 0505 1990 1000),,18.0028,-92.948,macroseismic,Stations_USGS,,0.018312,0.026956,,0.052354,0.8059,1.0131,,1.0822,,,,,,,,,,,,,313.37,4.1,0.3,0.875,3.1573,1.4737,0.011302,inferred
UTM:(16P 0258 1515 1000),,13.6985,-89.2329,macroseismic,Stations_USGS,,0.018312,0.026956,,0.052354,0.8059,1.0131,,1.0822,,,,,,,,,,,,,479.38,4.1,0.3,0.875,3.1573,1.4737,0.011302,inferred
UTM:(16Q 0516 2316 1000),,20.9489,-86.8413,macroseismic,Stations_USGS,,0.018312,0.026956,,0.052354,0.8059,1.0131,,1.0822,,,,,,,,,,,,,760.0,4.1,0.3,0.875,3.1573,1.4737,0.011302,inferred
UTM:(15P 0770 1612 1000),,14.5722,-90.4895,macroseismic,Stations_USGS,,0.015784,0.023522,,0.048358,0.8059,1.0131,,1.0822,,,,,,,,,,,,,723.95,4.0,0.3,0.875,2.6996,1.4737,0.01047,inferred
UTM:(14Q 0474 2144 1000),,19.3945,-99.2429,macroseismic,Stations_USGS,,0.015784,0.023522,,0.048358,0.8059,1.0131,,1.0822,,,,,,,,,,,,,435.31,4.0,0.3,0.875,2.6996,1.4737,0.01047,inferred
UTM:(16Q 0391 1961 1000),,17.738,-88.0234,macroseismic,Stations_USGS,,0.015784,0.023522,,0.048358,0.8059,1.0131,,1.0822,,,,,,,,,,,,,760.0,4.0,0.3,0.875,2.6996,1.4737,0.01047,inferred
UTM:(14Q 0581 2104 1000),,19.0316,-98.2255,macroseismic,Stations_USGS,,0.015784,0.023522,,0.048358,0.8059,1.0131,,1.0822,,,,,,,,,,,,,243.22,4.0,0.3,0.875,2.6996,1.4737,0.01047,inferred
HLIG,HLIG,17.83,-97.8,seismic,Stations_USGS,,0.010958,0.021814,,0.020989,0.0,0.0,,0.0,,,,,,,,,,,,,555.72,4.1,0.63,0.0,2.95,0.0,0.006351,inferred
TLIG,TLIG,17.56,-98.57,seismic,Stations_USGS,,0.009786,0.018767,,0.024373,0.0,0.0,,0.0,,,,,,,,,,,,,881.2,4.0,0.63,0.0,2.58,0.0,0.007309,inferred
MEIG,MEIG,17.92,-99.62,seismic,Stations_USGS,,0.006983,0.012691,,0.0063,0.0,0.0,,0.0,,,,,,,,,,,,,760.0,3.8,0.63,0.0,1.85,0.0,0.003914,inferred
LVIG,LVIG,19.73,-96.42,seismic,Stations_USGS,,0.003496,0.008196,,0.004404,0.0,0.0,,0.0,,,,,,,,,,,,,528.78,3.6,0.63,0.0,1.41,0.0,0.002232,inferred
ZIIG,ZIIG,17.61,-101.46,seismic,Stations_USGS,,0.003282,0.004648,,0.001988,0.0,0.0,,0.0,,,,,,,,,,,,,760.0,3.2,0.63,0.0,0.78,0.0,0.001611,inferred
DHIG,DHIG,20.3,-99.04,seismic,Stations_USGS,,0.002151,0.00209,,0.00318,0.0,0.0,,0.0,,,,,,,,,,,,,510.82,3.9,0.63,0.0,2.36,0.0,0.00474,inferred
UTM:(16Q 0517 2340 1000),,21.1657,-86.8314,macroseismic,Stations_USGS,,,,,,,,,,,,,,,,,,,,,,760.0,3.5,0.3,,,,,inferred
UTM:(14Q 0477 2150 1000),,19.4488,-99.2144,macroseismic,Stations_USGS,,,,,,,,,,,,,,,,,,,,,,379.81,3.3,0.3,,,,,inferred
UTM:(15P 0763 1618 1000),,14.6271,-90.5538,macroseismic,Stations_USGS,,,,,,,,,,,,,,,,,,,,,,404.48,3.2,0.3,,,,,inferred
UTM:(14R 0621 3352 1000),,30.2982,-97.7365,macroseismic,Stations_USGS,,,,,,,,,,,,,,,,,,,,,,760.0,2.4,0.3,,,,,inferred
UTM:(14R 0622 3364 1000),,30.4063,-97.7247,macroseismic,Stations_USGS,,,,,,,,,,,,,,,,,,,,,,760.0,2.0,0.3,,,,,inferred
UTM:(16Q 0374 1935 1000),,17.5022,-88.1821,macroseismic,Stations_USGS,,,,,,,,,,,,,,,,,,,,,,760.0,3.9,0.3,,,,,inferred
UTM:(16Q 0525 2335 1000),,21.1205,-86.7544,macroseismic,Stations_USGS,,,,,,,,,,,,,,,,,,,,,,760.0,3.8,0.3,,,,,inferred
UTM:(14R 0619 3350 1000),,30.2803,-97.7575,macroseismic,Stations_USGS,,,,,,,,,,,,,,,,,,,,,,760.0,2.3,0.3,,,,,inferred
UTM:(16Q 0363 1941 1000),,17.5558,-88.2861,macroseismic,Stations_USGS,,,,,,,,,,,,,,,,,,,,,,760.0,3.8,0.3,,,,,inferred
UTM:(14R 0623 3345 1000),,30.2348,-97.7165,macroseismic,Stations_USGS,,,,,,,,,,,,,,,,,,,,,,760.0,2.1,0.3,,,,,inferred
UTM:(14R 0621 3350 1000),,30.2801,-97.7367,macroseismic,Stations_USGS,,,,,,,,,,,,,,,,,,,,,,760.0,2.4,0.3,,,,,inferred
UTM:(15P 0772 1616 1000),,14.6081,-90.4706,macroseismic,Stations_USGS,,,,,,,,,,,,,,,,,,,,,,475.38,3.9,0.3,,,,,inferred
UTM:(16Q 0279 1898 1000),,17.1606,-89.0729,macroseismic,Stations_USGS,,,,,,,,,,,,,,,,,,,,,,413.51,3.1,0.3,,,,,inferred
UTM:(16Q 0373 1936 1000),,17.5112,-88.1916,macroseismic,Stations_USGS,,,,,,,,,,,,,,,,,,,,,,760.0,3.9,0.3,,,,,inferred
UTM:(14P 0709 1751 1000),,15.8335,-97.0438,macroseismic,Stations_USGS,,,,,,,,,,,,,,,,,,,,,,350.21,3.8,0.3,,,,,inferred
UTM:(14R 0621 3354 1000),,30.3162,-97.7363,macroseismic,Stations_USGS,,,,,,,,,,,,,,,,,,,,,,760.0,2.7,0.3,,,,,inferred
UTM:(15P 0443 1756 1000),,15.8869,-93.5278,macroseismic,Stations_USGS,,,,,,,,,,,,,,,,,,,,,,258.52,3.1,0.3,,,,,inferred
UTM:(14Q 0478 2148 1000),,19.4307,-99.2048,macroseismic,Stations_USGS,,,,,,,,,,,,,,,,,,,,,,337.37,3.7,0.3,,,,,inferred
UTM:(14Q 0483 2133 1000),,19.2952,-99.157,macroseismic,Stations_USGS,,,,,,,,,,,,,,,,,,,,,,288.14,3.8,0.3,,,,,inferred
UTM:(16Q 0461 2380 1000),,21.5268,-87.3718,macroseismic,Stations_USGS,,,,,,,,,,,,,,,,,,,,,,760.0,3.1,0.3,,,,,inferred
UTM:(16Q 0523 2331 1000),,21.0843,-86.7738,macroseismic,Stations_USGS,,,,,,,,,,,,,,,,,,,,,,760.0,2.9,0.3,,,,,inferred
UTM:(14R 0618 3347 1000),,30.2533,-97.7683,macroseismic,Stations_USGS,,,,,,,,,,,,,,,,,,,,,,760.0,2.2,0.3,,,,,inferred
UTM:(14R 0618 3346 1000),,30.2443,-97.7684,macroseismic,Stations_USGS,,,,,,,,,,,,,,,,,,,,,,760.0,2.6,0.3,,,,,inferred
UTM:(14R 0620 3350 1000),,30.2802,-97.7471,macroseismic,Stations_USGS,,,,,,,,,,,,,,,,,,,,,,760.0,2.7,0.3,,,,,inferred
UTM:(14R 0620 3347 1000),,30.2531,-97.7475,macroseismic,Stations_USGS,,,,,,,,,,,,,,,,,,,,,,760.0,2.9,0.3,,,,,inferred
UTM:(14Q 0471 2140 1000),,19.3583,-99.2714,macroseismic,Stations_USGS,,,,,,,,,,,,,,,,,,,,,,468.78,3.8,0.3,,,,,inferred
UTM:(16Q 0523 2330 1000),,21.0753,-86.7738,macroseismic,Stations_USGS,,,,,,,,,,,,,,,,,,,,,,760.0,2.4,0.3,,,,,inferred
UTM:(14Q 0487 2144 1000),,19.3946,-99.119,macroseismic,Stations_USGS,,,,,,,,,,,,,,,,,,,,,,202.84,3.3,0.3,,,,,inferred
UTM:(15P 0757 1619 1000),,14.6367,-90.6094,macroseismic,Stations_USGS,,,,,,,,,,,,,,,,,,,,,,787.51,3.4,0.3,,,,,inferred
UTM:(16P 0393 1718 1000),,15.5418,-87.9931,macroseismic,Stations_USGS,,,,,,,,,,,,,,,,,,,,,,760.0,2.0,0.3,,,,,inferred
UTM:(14Q 0479 2138 1000),,19.3404,-99.1952,macroseismic,Stations_USGS,,,,,,,,,,,,,,,,,,,,,,408.72,3.6,0.3,,,,,inferred
UTM:(16P 0255 1511 1000),,13.6621,-89.2603,macroseismic,Stations_USGS,,,,,,,,,,,,,,,,,,,,,,467.62,2.0,0.3,,,,,inferred
UTM:(14R 0619 3349 1000),,30.2713,-97.7576,macroseismic,Stations_USGS,,,,,,,,,,,,,,,,,,,,,,760.0,2.2,0.3,,,,,inferred
UTM:(16Q 0523 2332 1000),,21.0934,-86.7737,macroseismic,Stations_USGS,,,,,,,,,,,,,,,,,,,,,,760.0,3.7,0.3,,,,,inferred
UTM:(16Q 0524 2334 1000),,21.1114,-86.7641,macroseismic,Stations_USGS,,,,,,,,,,,,,,,,,,,,,,760.0,3.1,0.3,,,,,inferred
UTM:(14R 0623 3348 1000),,30.2619,-97.7162,macroseismic,Stations_USGS,,,,,,,,,,,,,,,,,,,,,,760.0,2.7,0.3,,,,,inferred
UTM:(15P 0772 1614 1000),,14.59,-90.4708,macroseismic,Stations_USGS,,,,,,,,,,,,,,,,,,,,,,746.55,3.8,0.3,,,,,inferred
UTM:(16Q 0224 2327 1000),,21.0277,-89.6506,macroseismic,Stations_USGS,,,,,,,,,,,,,,,,,,,,,,760.0,2.1,0.3,,,,,inferred
UTM:(14R 0620 3349 1000),,30.2712,-97.7472,macroseismic,Stations_USGS,,,,,,,,,,,,,,,,,,,,,,760.0,2.7,0.3,,,,,inferred
UTM:(15P 0766 1614 1000),,14.5906,-90.5264,macroseismic,Stations_USGS,,,,,,,,,,,,,,,,,,,,,,355.05,3.8,0.3,,,,,inferred
UTM:(14Q 0474 2147 1000),,19.4216,-99.2429,macroseismic,Stations_USGS,,,,,,,,,,,,,,,,,,,,,,399.19,3.8,0.3,,,,,inferred
UTM:(15P 0773 1605 1000),,14.5086,-90.4624,macroseismic,Stations_USGS,,,,,,,,,,,,,,,,,,,,,,452.37,3.8,0.3,,,,,inferred
UTM:(16P 0253 1513 1000),,13.68,-89.2789,macroseismic,Stations_USGS,,,,,,,,,,,,,,,,,,,,,,477.68,3.7,0.3,,,,,inferred
UTM:(16Q 0353 1826 1000),,16.5159,-88.3727,macroseismic,Stations_USGS,,,,,,,,,,,,,,,,,,,,,,760.0,2.9,0.3,,,,,inferred
UTM:(14R 0621 3351 1000),,30.2891,-97.7366,macroseismic,Stations_USGS,,,,,,,,,,,,,,,,,,,,,,760.0,2.4,0.3,,,,,inferred
UTM:(15P 0775 1607 1000),,14.5265,-90.4437,macroseismic,Stations_USGS,,,,,,,,,,,,,,,,,,,,,,366.54,3.8,0.3,,,,,inferred
UTM:(14R 0622 3363 1000),,30.3973,-97.7248,macroseismic,Stations_USGS,,,,,,,,,,,,,,,,,,,,,,760.0,3.4,0.3,,,,,inferred
UTM:(14R 0622 3344 1000),,30.2259,-97.727,macroseismic,Stations_USGS,,,,,,,,,,,,,,,,,,,,,,760.0,3.0,0.3,,,,,inferred
UTM:(14R 0622 3346 1000),,30.2439,-97.7268,macroseismic,Stations_USGS,,,,,,,,,,,,,,,,,,,,,,760.0,2.0,0.3,,,,,inferred
UTM:(15P 0767 1619 1000),,14.6357,-90.5166,macroseismic,Stations_USGS,,,,,,,,,,,,,,,,,,,,,,309.16,3.3,0.3,,,,,inferred
UTM:(15P 0770 1616 1000),,14.6083,-90.4891,macroseismic,Stations_USGS,,,,,,,,,,,,,,,,,,,,,,481.4,3.7,0.3,,,,,inferred
UTM:(14Q 0471 2157 1000),,19.512,-99.2716,macroseismic,Stations_USGS,,,,,,,,,,,,,,,,,,,,,,489.97,3.3,0.3,,,,,inferred
UTM:(14R 0620 3351 1000),,30.2892,-97.747,macroseismic,Stations_USGS,,,,,,,,,,,,,,,,,,,,,,760.0,2.6,0.3,,,,,inferred
UTM:(15P 0698 1630 1000),,14.7411,-91.1561,macroseismic,Stations_USGS,,,,,,,,,,,,,,,,,,,,,,600.0,3.8,0.3,,,,,inferred
UTM:(14Q 0722 2157 1000),,19.4997,-96.8799,macroseismic,Stations_USGS,,,,,,,,,,,,,,,,,,,,,,489.76,2.0,0.3,,,,,inferred
UTM:(14Q 0480 2138 1000),,19.3404,-99.1856,macroseismic,Stations_USGS,,,,,,,,,,,,,,,,,,,,,,367.31,3.9,0.3,,,,,inferred
UTM:(14R 0625 3371 1000),,30.4692,-97.6926,macroseismic,Stations_USGS,,,,,,,,,,,,,,,,,,,,,,760.0,2.2,0.3,,,,,inferred
UTM:(14R 0611 3341 1000),,30.1999,-97.8416,macroseismic,Stations_USGS,,,,,,,,,,,,,,,,,,,,,,760.0,2.0,0.3,,,,,inferred
UTM:(14Q 0579 2103 1000),,19.0226,-98.2446,macroseismic,Stations_USGS,,,,,,,,,,,,,,,,,,,,,,287.69,3.8,0.3,,,,,inferred
UTM:(14R 0620 3348 1000),,30.2622,-97.7474,macroseismic,Stations_USGS,,,,,,,,,,,,,,,,,,,,,,760.0,2.3,0.3,,,,,inferred
UTM:(14R 0618 3348 1000),,30.2624,-97.7681,macroseismic,Stations_USGS,,,,,,,,,,,,,,,,,,,,,,760.0,2.2,0.3,,,,,inferred
UTM:(14R 0620 3352 1000),,30.2983,-97.7469,macroseismic,Stations_USGS,,,,,,,,,,,,,,,,,,,,,,760.0,2.8,0.3,,,,,inferred
UTM:(14Q 0480 2132 1000),,19.2861,-99.1856,macroseismic,Stations_USGS,,,,,,,,,,,,,,,,,,,,,,528.13,3.7,0.3,,,,,inferred
UTM:(14Q 0475 2146 1000),,19.4126,-99.2334,macroseismic,Stations_USGS,,,,,,,,,,,,,,,,,,,,,,408.85,3.1,0.3,,,,,inferred
UTM:(14Q 0480 2143 1000),,19.3856,-99.1857,macroseismic,Stations_USGS,,,,,,,,,,,,,,,,,,,,,,325.69,3.9,0.3,,,,,inferred
UTM:(16Q 0476 2267 1000),,20.5061,-87.2254,macroseismic,Stations_USGS,,,,,,,,,,,,,,,,,,,,,,760.0,2.8,0.3,,,,,inferred
UTM:(14R 0619 3347 1000),,30.2532,-97.7579,macroseismic,Stations_USGS,,,,,,,,,,,,,,,,,,,,,,760.0,3.2,0.3,,,,,inferred
