STATION_ID,STATION_NAME,LONGITUDE,LATITUDE,STATION_TYPE,PGA_VALUE,PGA_LN_SIGMA
GDLC,GDLC,172.089,-43.586,seismic,0.79142,0.0
DFHS,DFHS,172.102,-43.49,seismic,0.51879,0.0
LINC,LINC,172.468,-43.623,seismic,0.46605,0.0
DSLC,DSLC,172.198,-43.667,seismic,0.26178,0.0
REHS,REHS,172.635,-43.522,seismic,0.25693,0.0
CMHS,CMHS,172.624,-43.566,seismic,0.24653,0.0
SWNC,SWNC,172.495,-43.369,seismic,0.24647,0.0
CCCC,CCCC,172.647,-43.538,seismic,0.2304,0.0
PPHS,PPHS,172.607,-43.493,seismic,0.22693,0.0
CRLZ,CRLZ,172.623,-43.575,seismic,0.21667,0.0
CHHC,CHHC,172.628,-43.536,seismic,0.20592,0.0
CACS,CACS,172.53,-43.483,seismic,0.1915,0.0
CBGS,CBGS,172.62,-43.529,seismic,0.17579,0.0
ASHS,ASHS,172.596,-43.274,seismic,0.16632,0.0
SPFS,SPFS,171.929,-43.338,seismic,0.16262,0.0
WAKC,WAKC,172.705,-42.963,seismic,0.1541,0.0
OXZ,OXZ,172.038,-43.326,seismic,0.14484,0.0
FDCS,FDCS,170.829,-44.099,seismic,0.1248,0.0
CSHS,CSHS,171.724,-43.227,seismic,0.11739,0.0
ADCS,ADCS,171.748,-43.902,seismic,0.11186,0.0
LSRC,LSRC,172.543,-42.87,seismic,0.09864,0.0
DORC,DORC,172.094,-43.897,seismic,0.08507,0.0
APPS,APPS,171.568,-42.949,seismic,0.08011,0.0
TRCS,TRCS,171.244,-44.403,seismic,0.07679,0.0
KOKS,KOKS,171.136,-42.892,seismic,0.05308,0.0
RPZ,RPZ,171.054,-43.715,seismic,0.04969,0.0
DKHS,DKHS,170.493,-45.902,seismic,0.04075,0.0
IFPS,IFPS,171.473,-42.727,seismic,0.04042,0.0
CECS,CECS,173.275,-42.813,seismic,0.04008,0.0
WVAS,WVAS,170.737,-43.072,seismic,0.03275,0.0
LTZ,LTZ,172.271,-42.782,seismic,0.0295,0.0
FGPS,FGPS,170.02,-43.463,seismic,0.02425,0.0
FJDS,FJDS,170.184,-43.389,seismic,0.02116,0.0
ARPS,ARPS,171.408,-42.524,seismic,0.01791,0.0
AVIS,AVIS,170.357,-44.655,seismic,0.017,0.0
DUNS,DUNS,170.471,-45.905,seismic,0.01592,0.0
WVZ,WVZ,170.737,-43.074,seismic,0.01518,0.0
BENS,BENS,170.193,-44.563,seismic,0.01433,0.0
EBPS,EBPS,174.9,-41.289,seismic,0.01191,0.0
DCDS,DCDS,170.502,-45.874,seismic,0.01124,0.0
BDCS,BDCS,169.719,-46.249,seismic,0.01106,0.0
FTPS,FTPS,175.327,-41.119,seismic,0.0107,0.0
DGNS,DGNS,170.514,-45.863,seismic,0.0095,0.0
ARKS,ARKS,174.944,-41.242,seismic,0.00853,0.0
BTWS,BTWS,173.129,-41.389,seismic,0.00677,0.0
KHZ,KHZ,173.539,-42.416,seismic,0.00581,0.0
WNHS,WNHS,174.776,-41.301,seismic,0.00492,0.0
THZ,THZ,172.905,-41.762,seismic,0.00456,0.0
FXBS,FXBS,175.226,-40.461,seismic,0.00452,0.0
FAHS,FAHS,175.573,-40.214,seismic,0.00448,0.0
EKTS,EKTS,175.709,-40.649,seismic,0.00323,0.0
FKPS,FKPS,174.779,-41.288,seismic,0.00293,0.0
DVHS,DVHS,176.101,-40.202,seismic,0.00251,0.0
GDLC,GDLC,172.08944,-43.58806,seismic,0.75202,0.0
HVSC,HVSC,172.70917,-43.58111,seismic,0.61832,0.0
UTM:(59G 061 517 10000),,172.4241,-43.5691,macroseismic,0.61194,0.8059
UTM:(59G 059 518 10000),,172.1747,-43.4819,macroseismic,0.54033,0.8059
OBS_6,"""Darfield::Canterbury::New Zealand"" 18 responses 7 km (Intensity VII)",172.12,-43.48,macroseismic,0.47709,0.8059
OBS_25,"""Rolleston::Canterbury::New Zealand"" 11 responses 22 km (Intensity VII)",172.38,-43.58,macroseismic,0.47709,0.8059
HORC,HORC,171.95972,-43.54139,seismic,0.4613,0.0
DFHS,DFHS,172.10194,-43.49139,seismic,0.45838,0.0
OBS_13,"""Leeston::Canterbury::New Zealand"" 3 responses 29 km (Intensity VII)",172.3,-43.76,macroseismic,0.43072,0.8059
LINC,LINC,172.46778,-43.62472,seismic,0.41026,0.0
UTM:(59G 061 516 10000),,172.4262,-43.6591,macroseismic,0.40686,0.8059
ROLC,ROLC,172.38083,-43.59444,seismic,0.38157,0.0
OBS_16,"""Lyttelton::Canterbury::New Zealand"" 4 responses 49 km (Intensity VII)",172.72,-43.6,macroseismic,0.37749,0.8059
OBS_14,"""Lincoln::Canterbury::New Zealand"" 6 responses 32 km (Intensity VII)",172.48,-43.65,macroseismic,0.37196,0.8059
OBS_5,"""Christchurch::Canterbury::New Zealand"" 253 responses 42 km (Intensity VII)",172.64,-43.53,macroseismic,0.34504,0.8059
KPOC,KPOC,172.66361,-43.37806,seismic,0.34371,0.0
LPCC,LPCC,172.72222,-43.60556,seismic,0.3323,0.0
UTM:(59G 063 520 10000),,172.6642,-43.2957,macroseismic,0.30215,0.8059
OBS_11,"""Kaiapoi::Canterbury::New Zealand"" 5 responses 49 km (Intensity VII)",172.68,-43.36,macroseismic,0.30153,0.8059
UTM:(59G 063 517 10000),,172.6716,-43.5657,macroseismic,0.29987,0.8059
TPLC,TPLC,172.47194,-43.55167,seismic,0.29769,0.0
UTM:(59G 063 519 10000),,172.6667,-43.3857,macroseismic,0.27702,0.8059
OBS_32,"""Woodend::Canterbury::New Zealand"" 4 responses 50 km (Intensity VII)",172.67,-43.32,macroseismic,0.25626,0.8059
DSLC,DSLC,172.19778,-43.66917,seismic,0.25024,0.0
CMHS,CMHS,172.62417,-43.56722,seismic,0.24827,0.0
REHS,REHS,172.635,-43.52361,seismic,0.2463,0.0
PRPC,PRPC,172.68278,-43.5275,seismic,0.23173,0.0
CCCC,CCCC,172.64639,-43.53944,seismic,0.20217,0.0
CACS,CACS,172.53,-43.48472,seismic,0.20049,0.0
OBS_21,"""Oxford::Canterbury::New Zealand"" 4 responses 26 km (Intensity VI)",172.18,-43.3,macroseismic,0.19971,0.8059
CHHC,CHHC,172.62611,-43.53556,seismic,0.19781,0.0
OBS_24,"""Rangiora::Canterbury::New Zealand"" 18 responses 44 km (Intensity VI)",172.57,-43.31,macroseismic,0.19546,0.8059
RKAC,RKAC,172.02306,-43.75306,seismic,0.1933,0.0
NNBS,NNBS,172.71778,-43.49722,seismic,0.18737,0.0
UTM:(59G 062 520 10000),,172.541,-43.2974,macroseismic,0.18381,0.8059
SHLC,SHLC,172.66333,-43.50694,seismic,0.1794,0.0
CBGS,CBGS,172.61972,-43.53111,seismic,0.1743,0.0
PPHS,PPHS,172.60667,-43.49444,seismic,0.17312,0.0
ASHS,ASHS,172.59583,-43.27611,seismic,0.16269,0.0
SPFS,SPFS,171.92889,-43.33972,seismic,0.1605,0.0
OBS_17,"""Methven::Canterbury::New Zealand"" 3 responses 39 km (Intensity VI)",171.65,-43.63,macroseismic,0.15932,0.8059
UTM:(59G 055 516 10000),,171.6821,-43.666,macroseismic,0.15804,0.8059
WAKC,WAKC,172.705,-42.96472,seismic,0.15069,0.0
OXZ,OXZ,172.03806,-43.3275,seismic,0.14681,0.0
SBRC,SBRC,172.25222,-43.81028,seismic,0.1437,0.0
FDCS,FDCS,170.82861,-44.10194,seismic,0.12428,0.0
PEEC,PEEC,171.23667,-43.92361,seismic,0.1192,0.0
CSHS,CSHS,171.72333,-43.22833,seismic,0.11333,0.0
ADCS,ADCS,171.7475,-43.90417,seismic,0.11191,0.0
LRSC,LRSC,171.79361,-43.73111,seismic,0.10839,0.0
OBS_3,"""Ashburton::Canterbury::New Zealand"" 31 responses 51 km (Intensity V)",171.75,-43.91,macroseismic,0.10502,0.8059
LSRC,LSRC,172.54306,-42.87111,seismic,0.09837,0.0
OBS_8,"""Geraldine::Canterbury::New Zealand"" 4 responses 94 km (Intensity V)",171.25,-44.1,macroseismic,0.08217,0.8059
DORC,DORC,172.09361,-43.89833,seismic,0.08113,0.0
APPS,APPS,171.5675,-42.95056,seismic,0.0799,0.0
OBS_2,"""Amberley::Canterbury::New Zealand"" 3 responses 64 km (Intensity V)",172.73,-43.16,macroseismic,0.07664,0.8059
TRCS,TRCS,171.24444,-44.40444,seismic,0.07417,0.0
WSFC,WSFC,171.61083,-43.83889,seismic,0.06996,0.0
OBS_28,"""Timaru::Canterbury::New Zealand"" 31 responses 119 km (Intensity V)",171.22,-44.38,macroseismic,0.06716,0.8059
UTM:(59G 051 508 10000),,171.1882,-44.3881,macroseismic,0.06276,0.8059
OBS_27,"""Temuka::Canterbury::New Zealand"" 3 responses 105 km (Intensity V)",171.27,-44.25,macroseismic,0.06167,0.8059
MAYC,MAYC,171.42167,-43.82472,seismic,0.05783,0.0
OBS_22,"""Pleasant Point::Canterbury::New Zealand"" 4 responses 114 km (Intensity V)",171.13,-44.27,macroseismic,0.05657,0.8059
OBS_9,"""Hokitika::West Coast::New Zealand"" 4 responses 130 km (Intensity V)",170.97,-42.71,macroseismic,0.05636,0.8059
UTM:(59G 049 527 10000),,170.939,-42.6774,macroseismic,0.05572,0.8059
KOKS,KOKS,171.13556,-42.89333,seismic,0.05371,0.0
RPZ,RPZ,171.05389,-43.71639,seismic,0.0487,0.0
OBS_19,"""Oamaru::Canterbury::New Zealand"" 4 responses 193 km (Intensity V)",170.98,-45.07,macroseismic,0.04802,0.8059
UTM:(59G 049 500 10000),,170.9364,-45.1084,macroseismic,0.04477,0.8059
DKHS,DKHS,170.49278,-45.90389,seismic,0.04102,0.0
IFPS,IFPS,171.47278,-42.72833,seismic,0.04091,0.0
HSES,HSES,172.83028,-42.525,seismic,0.0403,0.0
SKFS,SKFS,170.50972,-45.90028,seismic,0.03859,0.0
HAFS,HAFS,170.55583,-43.15056,seismic,0.03681,0.0
GMTS,GMTS,171.21028,-42.45083,seismic,0.03525,0.0
WVAS,WVAS,170.73694,-43.07333,seismic,0.03165,0.0
LTZ,LTZ,172.27083,-42.78333,seismic,0.03132,0.0
HMCS,HMCS,170.96389,-42.71861,seismic,0.02899,0.0
OAMS,OAMS,170.96917,-45.10139,seismic,0.02394,0.0
FGPS,FGPS,170.01972,-43.465,seismic,0.02166,0.0
WBCS,WBCS,171.59972,-41.7575,seismic,0.02155,0.0
SJFS,SJFS,172.18028,-42.33639,seismic,0.02118,0.0
FJDS,FJDS,170.18417,-43.39083,seismic,0.02102,0.0
UTM:(59G 054 537 10000),,171.5414,-41.7756,macroseismic,0.02081,0.8059
OBS_31,"""Westport::West Coast::New Zealand"" 5 responses 203 km (Intensity IV)",171.57,-41.74,macroseismic,0.02054,0.8059
TWAS,TWAS,170.09833,-44.25611,seismic,0.01963,0.0
TMBS,TMBS,170.19556,-46.07333,seismic,0.01962,0.0
MCNS,MCNS,170.09694,-43.73806,seismic,0.01931,0.0
HDWS,HDWS,169.04417,-43.88472,seismic,0.01615,0.0
RDCS,RDCS,171.86417,-42.12167,seismic,0.01606,0.0
MECS,MECS,169.23278,-44.23222,seismic,0.01514,0.0
WNPS,WNPS,169.14278,-44.69611,seismic,0.01498,0.0
WVZ,WVZ,170.73667,-43.07611,seismic,0.01444,0.0
ODZ,ODZ,170.64444,-45.04556,seismic,0.01295,0.0
FOZ,FOZ,169.81528,-43.53389,seismic,0.01164,0.0
NSBS,NSBS,168.66056,-43.99917,seismic,0.01158,0.0
DGNS,DGNS,170.51389,-45.86417,seismic,0.00998,0.0
ARKS,ARKS,174.94389,-41.24389,seismic,0.00825,0.0
BDCS,BDCS,169.71917,-46.25056,seismic,0.00808,0.0
LBZ,LBZ,170.18444,-44.38722,seismic,0.00791,0.0
MOSS,MOSS,168.23778,-45.66944,seismic,0.00771,0.0
WDFS,WDFS,174.13833,-41.82917,seismic,0.0073,0.0
WVFS,WVFS,173.35083,-41.62194,seismic,0.00671,0.0
MOTS,MOTS,173.00944,-41.12639,seismic,0.0064,0.0
LHUS,LHUS,174.89333,-41.2325,seismic,0.00595,0.0
LHES,LHES,174.90306,-41.21333,seismic,0.0059,0.0
SOCS,SOCS,174.91583,-41.20611,seismic,0.00581,0.0
PGMS,PGMS,174.87917,-41.22611,seismic,0.0058,0.0
ICCS,ICCS,168.34694,-46.41306,seismic,0.00571,0.0
KHZ,KHZ,173.54083,-42.41611,seismic,0.00554,0.0
NCBS,NCBS,173.28361,-41.2725,seismic,0.00554,0.0
HWHS,HWHS,174.27417,-39.58694,seismic,0.00546,0.0
TUZ,TUZ,169.63111,-45.95556,seismic,0.00542,0.0
QCCS,QCCS,174.02306,-41.28139,seismic,0.0054,0.0
OPZ,OPZ,170.59778,-45.88583,seismic,0.00534,0.0
WKZ,WKZ,169.0175,-44.82861,seismic,0.00481,0.0
HUKS,HUKS,174.56806,-39.26278,seismic,0.00472,0.0
WNHS,WNHS,174.77528,-41.3025,seismic,0.00471,0.0
EAZ,EAZ,169.30806,-45.23278,seismic,0.00461,0.0
WNAS,WNAS,174.80889,-41.32806,seismic,0.00429,0.0
MSZ,MSZ,167.92639,-44.675,seismic,0.00425,0.0
WEL,WEL,174.76806,-41.28583,seismic,0.00408,0.0
RQGS,RQGS,174.78111,-41.29833,seismic,0.00394,0.0
MISS,MISS,174.81833,-41.31667,seismic,0.00392,0.0
INSS,INSS,174.92083,-41.23528,seismic,0.00362,0.0
SYZ,SYZ,169.13889,-46.53861,seismic,0.00336,0.0
TEPS,TEPS,174.78111,-41.29389,seismic,0.00333,0.0
EBPS,EBPS,174.9,-41.29111,seismic,0.0031,0.0
FKPS,FKPS,174.77861,-41.28972,seismic,0.00284,0.0
EKTS,EKTS,175.70861,-40.65111,seismic,0.0024,0.0
QRZ,QRZ,172.52889,-40.82722,seismic,0.00204,0.0
NNZ,NNZ,173.37944,-41.21889,seismic,0.00202,0.0
WHZ,Wether Hill Road,167.94698,-45.89404,seismic,0.00196,0.0
SNZO,"South Karori, New Zealand",174.7043,-41.3087,seismic,0.00178,0.0
MAVS,MAVS,175.46139,-41.2125,seismic,0.00173,0.0
DCZ,DCZ,167.15361,-45.46639,seismic,0.0013,0.0
PYZ,PYZ,166.68056,-46.16778,seismic,0.00118,0.0
PXZ,PXZ,176.86194,-40.0325,seismic,0.00096,0.0
BFZ,BFZ,176.24611,-40.68139,seismic,0.00071,0.0
BKZ,Stasrv: unknown station,176.49235,-39.16742,seismic,0.00044,0.0
CTZ,CTZ,176.6175,-43.73722,seismic,0.00032,0.0
TOZ,TOZ,175.50167,-37.73278,seismic,0.00022,0.0
URZ,"Urewera, North Island, New Zealand",177.11069,-38.26102,seismic,0.00021,0.0
MWZ,MWZ,177.5275,-38.33583,seismic,0.00019,0.0
HAZ,HAZ,177.7825,-37.75778,seismic,0.00015,0.0
MXZ,MXZ,178.30639,-37.56417,seismic,0.0001,0.0
GRZ,GRZ,175.4575,-36.25194,seismic,6e-05,0.0
KUZ,KUZ,175.72056,-36.74694,seismic,6e-05,0.0
WCZ,WCZ,174.34472,-35.94056,seismic,4e-05,0.0
OUZ,OUZ,173.59583,-35.22139,seismic,2e-05,0.0
