STATION_ID,STATION_NAME,LONGITUDE,LATITUDE,STATION_TYPE,PGA_VALUE,PGA_LN_SIGMA
SAPP,SAN ALEJANDRO PUEBLA,-98.21538,19.05778,seismic,0.20996,0.0
RFPP,RIO SAN FRANCISCO PUEBLA,-98.19149,19.04349,seismic,0.18751,0.0
HMTT,HUAMUXTITLAN,-98.55972,17.79834,seismic,0.17378,0.0
THEZ,TEHUACAN ESCUELA PRIMARIA EMILIANO ZAPATA,-97.38318,18.47755,seismic,0.16973,0.0
RABO,RABOSO,-98.44541,18.56908,seismic,0.15769,0.0
PHPU,PARQUE HABANA PUEBLA,-98.16847,19.04422,seismic,0.14445,0.0
SXPU,SISMEX PUEBLA,-98.21509,19.03994,seismic,0.14187,0.0
PZPU,CERRO LA PAZ PUEBLA,-98.22709,19.05538,seismic,0.1223,0.0
SJLL,SAN JUAN DE LOS LLANOS,-98.49846,16.65782,seismic,0.10786,0.0
PBP2,PASEO NICOLAS BRAVO PUEBLA. S-2,-98.20847,19.04544,seismic,0.10059,0.0
OXCU,OAXACA CIUDAD UNIVERSITARIA,-96.71327,17.04888,seismic,0.09939,0.0
SCT2,SCT B-2.,-99.14868,19.39469,seismic,0.09345,0.0
CCCL,CENTRO CULTURAL UNIVERSITARIO TLATELOLCO CAMPO LIBRE,-99.13792,19.44986,seismic,0.08718,0.0
TEJU,TEJUPILCO,-100.15962,18.90405,seismic,0.0849,0.0
OXXO,XOXOCOTLAN,-96.72618,17.02623,seismic,0.08106,0.0
CHFL,CHILA DE LAS FLORES,-97.86564,17.96949,seismic,0.07837,0.0
OAXM,OAXACA FACULTAD DE MEDICINA,-96.71874,17.08287,seismic,0.07173,0.0
TNLP,TONALAPA DEL SUR,-99.5608,18.09556,seismic,0.06725,0.0
OXTO,INSTITUTO TECNOLOGICO DE OAXACA,-96.74416,17.07839,seismic,0.06635,0.0
OXAE,OAXACA AEROPUERTO,-96.72161,17.00155,seismic,0.06486,0.0
TACY,TACUBAYA,-99.19525,19.4045,seismic,0.06359,0.0
OXPM,ESCUELA PRIMARIA MUGICA,-96.7169,17.06139,seismic,0.06332,0.0
ACAD,ACAPULCO ESCUELA DIANA,-99.87147,16.86225,seismic,0.062,0.0
CUP5,IDEI PATIO 5,-99.18108,19.33024,seismic,0.05998,0.0
ACAC,ACAPULCO CENTRO CULTURAL,-99.85157,16.84851,seismic,0.05988,0.0
OXPC,OAXACA PROTECCION CIVIL,-96.72297,17.05122,seismic,0.058,0.0
COMD,LA COMUNIDAD,-100.5238,18.12236,seismic,0.05557,0.0
OXAL,ALAMEDA DE LEON,-96.72604,17.06148,seismic,0.05232,0.0
ACAZ,ACAPULCO LA ZANJA,-99.79015,16.78853,seismic,0.04571,0.0
LMPP,LOMAS DEL MARMOL  PUEBLA,-98.18227,19.00147,seismic,0.04055,0.0
VIGA,LAS VIGAS,-99.23327,16.7587,seismic,0.03735,0.0
POZU,POZUELOS,-99.59754,17.09008,seismic,0.03699,0.0
ACAR,ACAPULCO RENACIMIENTO,-99.83503,16.88879,seismic,0.03639,0.0
ACP2,ACAPULCO PREPARATORIA No. 2,-99.8865,16.87429,seismic,0.03605,0.0
OXLC,LAS CANTERAS,-96.70316,17.06504,seismic,0.02295,0.0
AGCA,AGUACALIENTE,-99.64526,16.83733,seismic,0.02108,0.0
ATYC,ATOYAC,-100.43227,17.21336,seismic,0.01904,0.0
COYC,COYUCA,-100.08996,16.99779,seismic,0.01871,0.0
OCLL,OCOTILLO,-99.87852,17.03658,seismic,0.0185,0.0
SNJE,SAN JERONIMO,-101.32369,18.53505,seismic,0.0185,0.0
OXBJ,ESCUELA PRIMARIA BENITO JUAREZ,-96.7238,17.06734,seismic,0.01846,0.0
JAMI,JAMILTEPEC,-97.82069,16.28435,seismic,0.01778,0.0
SODO,SOLEDAD DE DOBLADO,-96.41477,19.04432,seismic,0.01716,0.0
NITA,NUEVA ITALIA,-102.08509,19.02074,seismic,0.01402,0.0
SMLC,SAN MARTIN LOS CANSECO,-96.72923,16.65497,seismic,0.01314,0.0
SLU2,SAN LUIS DE LA LOMA 2,-100.9355,17.2808,seismic,0.01222,0.0
OZST,ORIZABA ESCUELA SECUNDARIA TECNICA NUM. 84,-97.09412,18.86076,seismic,0.01164,0.0
COPL,COPALA,-98.98399,16.61081,seismic,0.01093,0.0
VNTA,LA VENTA,-99.81885,16.91426,seismic,0.01084,0.0
PET2,PETATLAN II,-101.26261,17.5354,seismic,0.01025,0.0
OXJM,JALAPA DEL MARQUES,-95.4447,16.44519,seismic,0.0102,0.0
CANA,LAS CANAS,-101.97716,18.56701,seismic,0.00941,0.0
NUX2,NUXCO 2,-100.79117,17.21671,seismic,0.00923,0.0
XALA,XALAPA,-96.90197,19.52988,seismic,0.00848,0.0
HUAM,HUAMELULA,-95.6703,16.03112,seismic,0.00777,0.0
TAMA,TAMAZULAPAN,-96.57529,16.26116,seismic,0.00767,0.0
SUCH,EL SUCHIL,-100.63834,17.22617,seismic,0.00677,0.0
UNIO,LA UNION,-101.81062,17.98762,seismic,0.00622,0.0
URUA,URUAPAN,-102.07406,19.42176,seismic,0.00618,0.0
NILT,NILTEPEC,-94.61695,16.56515,seismic,0.0061,0.0
LANE,LAS NEGRAS,-97.1872,15.94768,seismic,0.00594,0.0
MIHL,MINATITLAN ESCUELA HIJAS DE LERDO,-94.54387,17.98878,seismic,0.00531,0.0
PANG,PUERTO ANGEL,-96.49051,15.66684,seismic,0.00478,0.0
SLPA,SAN LUCAS PATHE,-99.83303,19.9287,seismic,0.00458,0.0
ACAM,ACAMBARO,-100.71678,20.04319,seismic,0.00457,0.0
SCRU,SALINA CRUZ,-95.20924,16.18752,seismic,0.00426,0.0
SJAL,SAN JUAN DE ALIMA,-103.67034,18.58537,seismic,0.00358,0.0
COMA,COMALA,-103.76081,19.32527,seismic,0.00228,0.0
CHPA,PREPARATORIA ARRIAGA,-93.91258,16.24737,seismic,0.00218,0.0
CDGU,CIUDAD GUZMAN,-103.44782,19.69952,seismic,0.00216,0.0
COLL,COLIMILLA,-104.68063,19.19091,seismic,0.00142,0.0
TAJN,TAPACHULA JARDIN DE NINOS JM VILLALPANDO,-92.27096,14.92268,seismic,0.00126,0.0
TGBT,TUXTLA GUTIERREZ CBTIS 144,-93.08949,16.7768,seismic,0.00095,0.0
CH84,Culhuacán,-99.1254,19.33,seismic,0.2256,0.0
JC54,Parque Jardines de Coyoacán,-99.1272,19.313,seismic,0.22027,0.0
MI15,Miramontes,-99.1253,19.2834,seismic,0.20719,0.0
TH35,Tláhuac,-99.0,19.2786,seismic,0.18994,0.0
DX37,DGCOH Xotepingo,-99.1439,19.3322,seismic,0.18773,0.0
SI53,San Simón,-99.1483,19.3753,seismic,0.17756,0.0
XO36,"Jardín de Niños ""Xochimilco""",-99.1024,19.2711,seismic,0.17356,0.0
CU80,"Esc. Prim. ""Aurora López Velarde""",-99.1037,19.29364,seismic,0.1683,0.0
IB22,Esc. Sec. Téc. No. 95,-99.1297,19.345,seismic,0.16088,0.0
LI33,Liconsa,-98.9631,19.3064,seismic,0.13793,0.0
AP68,"Jardín de niños ""juan B. de la Salle”",-99.1068,19.3809,seismic,0.13395,0.0
CP28,Cerro del Peñón,-99.0839,19.4385,seismic,0.13344,0.0
GC38,"Jardín de niños ""Luz García Campillo""",-99.1059,19.3161,seismic,0.12562,0.0
UC44,Unidad Colonia IMSS,-99.1654,19.4337,seismic,0.12532,0.0
PE10,"Esc. Prim. ""Plutarco Elías Calles""",-99.1318,19.3809,seismic,0.12456,0.0
CJ04,Multifamiliar Juárez II,-99.1566,19.4098,seismic,0.12393,0.0
LV17,Lindavista,-99.1275,19.4931,seismic,0.12302,0.0
MY19,Meyehualco,-99.0433,19.3461,seismic,0.11988,0.0
AO24,Alberca olímpica,-99.1539,19.358,seismic,0.11965,0.0
GR27,Granjas,-99.1797,19.4747,seismic,0.11963,0.0
VG09,Valle Gómez,-99.1225,19.4539,seismic,0.11954,0.0
AL01,Alameda,-99.1453,19.4356,seismic,0.11712,0.0
AE02,Esc. Prim. González Garzón,-99.0584,19.429,seismic,0.11486,0.0
BL45,Balderas,-99.1481,19.4253,seismic,0.11447,0.0
CI05,Cibeles,-99.1653,19.4186,seismic,0.11424,0.0
CO56,Esc. Sec. Téc. No. 18,-99.159,19.4215,seismic,0.11399,0.0
BA49,Buenos aires,-99.145,19.4097,seismic,0.11316,0.0
CJ03,Centro Urbano Juárez,-99.1567,19.4097,seismic,0.11199,0.0
XP06,"Jardín de niños ""Xochipilli""",-99.1353,19.4198,seismic,0.10819,0.0
JA43,Jamaica,-99.125,19.4053,seismic,0.10629,0.0
SP51,Sector Popular,-99.1189,19.3656,seismic,0.10038,0.0
GA62,Esc. Sec. Téc. No. 2,-99.1401,19.4385,seismic,0.09707,0.0
HJ72,Hospital Juárez,-99.1301,19.4251,seismic,0.0964,0.0
PD42,Palacio de los Deportes,-99.0997,19.4055,seismic,0.09626,0.0
LI58,Esc. Sec. Dna. No. 23,-99.1569,19.4263,seismic,0.09581,0.0
BO39,Bondojito,-99.1047,19.4653,seismic,0.09514,0.0
AU46,Esc. Sec. Téc. No. 14,-99.1681,19.3832,seismic,0.09489,0.0
VM29,Villa del Mar,-99.1253,19.3811,seismic,0.09483,0.0
CO47,Coyoacán,-99.1703,19.3714,seismic,0.09396,0.0
FJ74,Fundación Javier Barros Sierra,-99.21,19.299,seismic,0.09216,0.0
DM12,Deportivo Moctezuma,-99.0963,19.4312,seismic,0.09052,0.0
AU11,Autódromo,-99.0869,19.3919,seismic,0.09045,0.0
CA59,Candelaria,-99.1183,19.4258,seismic,0.08983,0.0
CS78,Esc. Sec. No. Téc. No. 243,-99.2262,19.3656,seismic,0.087,0.0
PA34,"Esc. Prim. ""Alvaro Obregón""",-99.0491,19.2016,seismic,0.08556,0.0
ES57,Escandón,-99.1775,19.4017,seismic,0.08391,0.0
TL08,"Deportivo ""Antonio Caso T-II""",-99.1336,19.45,seismic,0.08285,0.0
TL55,Tlatelolco,-99.1425,19.4536,seismic,0.08246,0.0
EO30,"Jardín ""Esparza Oteo""",-99.1772,19.3885,seismic,0.08213,0.0
CE32,CETIS no. 57,-99.0537,19.3858,seismic,0.08039,0.0
UI21,U. Iberoamericana,-99.2655,19.3696,seismic,0.07926,0.0
RM48,"Esc. Prim. ""Rodolfo Menendez""",-99.128,19.4359,seismic,0.07801,0.0
DR16,Deportivo Reynosa,-99.1829,19.5005,seismic,0.07717,0.0
CE18,Esc. Prim. “Ramón Espinoza Villanueva”,-99.0847,19.3398,seismic,0.07274,0.0
RI76,República de Italia,-99.0986,19.4501,seismic,0.07266,0.0
ME52,"Esc. Sec. Téc. ""Rafaél Dondé""",-99.182,19.4383,seismic,0.07216,0.0
TP13,Tlalpan,-99.1708,19.2922,seismic,0.06658,0.0
CE23,CETIS Aragón,-99.0642,19.4619,seismic,0.05999,0.0
MT50,Mariscal Tito,-99.19,19.4253,seismic,0.05827,0.0
NZ20,NZ20,-99.0,19.241,seismic,0.14569,0.0
CS66,CS66,-99.554,19.2222,seismic,0.1334,0.0
NZ31,NZ31,-99.129,19.25,seismic,0.11,0.0
SS60,SS60,-99.849,19.2335,seismic,0.10585,0.0
IM40,IM40,-99.1212,19.2034,seismic,0.08886,0.0
UTM:(14Q 0583 2106 1000),,-98.2064,19.0496,macroseismic,0.43934,0.8059
UTM:(14Q 0485 2139 1000),,-99.1381,19.3494,macroseismic,0.43596,0.8059
UTM:(14Q 0474 2098 1000),,-99.2422,18.9788,macroseismic,0.42534,0.8059
UTM:(14Q 0505 2131 1000),,-98.9477,19.2772,macroseismic,0.35552,0.8059
UTM:(14Q 0489 2133 1000),,-99.0999,19.2952,macroseismic,0.34558,0.8059
UTM:(14Q 0483 2132 1000),,-99.157,19.2862,macroseismic,0.34282,0.8059
UTM:(14Q 0474 2136 1000),,-99.2427,19.3222,macroseismic,0.33574,0.8059
UTM:(14Q 0496 2134 1000),,-99.0333,19.3043,macroseismic,0.32766,0.8059
UTM:(14Q 0485 2132 1000),,-99.138,19.2862,macroseismic,0.32319,0.8059
UTM:(14Q 0483 2139 1000),,-99.1571,19.3494,macroseismic,0.29921,0.8059
UTM:(14Q 0482 2146 1000),,-99.1667,19.4127,macroseismic,0.29532,0.8059
UTM:(14Q 0482 2147 1000),,-99.1667,19.4217,macroseismic,0.29483,0.8059
UTM:(14Q 0483 2149 1000),,-99.1572,19.4398,macroseismic,0.29425,0.8059
UTM:(14Q 0482 2149 1000),,-99.1667,19.4398,macroseismic,0.29385,0.8059
UTM:(14Q 0579 2104 1000),,-98.2445,19.0316,macroseismic,0.28691,0.8059
UTM:(14Q 0480 2134 1000),,-99.1856,19.3042,macroseismic,0.28213,0.8059
UTM:(14Q 0480 2139 1000),,-99.1857,19.3494,macroseismic,0.27988,0.8059
UTM:(14Q 0479 2140 1000),,-99.1952,19.3584,macroseismic,0.279,0.8059
UTM:(14Q 0483 2146 1000),,-99.1572,19.4127,macroseismic,0.27788,0.8059
UTM:(14Q 0482 2148 1000),,-99.1667,19.4308,macroseismic,0.27658,0.8059
UTM:(14Q 0482 2140 1000),,-99.1666,19.3585,macroseismic,0.26336,0.8059
UTM:(14Q 0483 2142 1000),,-99.1571,19.3765,macroseismic,0.26288,0.8059
UTM:(14Q 0474 2096 1000),,-99.2422,18.9607,macroseismic,0.25905,0.8059
UTM:(14Q 0470 2140 1000),,-99.2809,19.3583,macroseismic,0.25859,0.8059
UTM:(14Q 0489 2099 1000),,-99.0998,18.988,macroseismic,0.25132,0.8059
UTM:(14Q 0484 2140 1000),,-99.1476,19.3585,macroseismic,0.24821,0.8059
UTM:(14Q 0478 2139 1000),,-99.2047,19.3494,macroseismic,0.24637,0.8059
UTM:(14Q 0485 2147 1000),,-99.1381,19.4217,macroseismic,0.24563,0.8059
UTM:(14Q 0480 2145 1000),,-99.1857,19.4036,macroseismic,0.24474,0.8059
UTM:(14Q 0581 2102 1000),,-98.2256,19.0135,macroseismic,0.23893,0.8059
UTM:(14Q 0484 2139 1000),,-99.1476,19.3494,macroseismic,0.23363,0.8059
HLIG,HLIG,-97.80358,17.82997,seismic,0.2324,0.0
UTM:(14Q 0491 2148 1000),,-99.081,19.4308,macroseismic,0.23224,0.8059
UTM:(14Q 0481 2145 1000),,-99.1762,19.4036,macroseismic,0.2303,0.8059
UTM:(14Q 0484 2148 1000),,-99.1476,19.4308,macroseismic,0.2301,0.8059
UTM:(14Q 0472 2140 1000),,-99.2618,19.3583,macroseismic,0.22903,0.8059
UTM:(14Q 0485 2138 1000),,-99.138,19.3404,macroseismic,0.22024,0.8059
UTM:(14Q 0582 2109 1000),,-98.2158,19.0767,macroseismic,0.21993,0.8059
UTM:(14Q 0483 2140 1000),,-99.1571,19.3585,macroseismic,0.21883,0.8059
UTM:(14Q 0484 2141 1000),,-99.1476,19.3675,macroseismic,0.21879,0.8059
UTM:(14Q 0484 2143 1000),,-99.1476,19.3856,macroseismic,0.21805,0.8059
UTM:(14Q 0480 2140 1000),,-99.1857,19.3584,macroseismic,0.21785,0.8059
UTM:(14Q 0476 2091 1000),,-99.2232,18.9156,macroseismic,0.21696,0.8059
UTM:(14Q 0475 2090 1000),,-99.2326,18.9065,macroseismic,0.21662,0.8059
UTM:(14Q 0480 2149 1000),,-99.1858,19.4398,macroseismic,0.21469,0.8059
UTM:(14Q 0471 2141 1000),,-99.2714,19.3674,macroseismic,0.21456,0.8059
UTM:(14Q 0584 2106 1000),,-98.1969,19.0495,macroseismic,0.208,0.8059
UTM:(14Q 0480 2136 1000),,-99.1856,19.3223,macroseismic,0.20603,0.8059
UTM:(14Q 0479 2138 1000),,-99.1952,19.3404,macroseismic,0.20505,0.8059
UTM:(14Q 0481 2141 1000),,-99.1762,19.3675,macroseismic,0.20468,0.8059
UTM:(14Q 0481 2142 1000),,-99.1762,19.3765,macroseismic,0.20435,0.8059
UTM:(14Q 0482 2145 1000),,-99.1667,19.4036,macroseismic,0.20363,0.8059
UTM:(14Q 0485 2148 1000),,-99.1381,19.4308,macroseismic,0.20345,0.8059
UTM:(14Q 0473 2138 1000),,-99.2523,19.3403,macroseismic,0.20314,0.8059
UTM:(14Q 0483 2151 1000),,-99.1572,19.4579,macroseismic,0.20188,0.8059
UTM:(14Q 0481 2150 1000),,-99.1762,19.4488,macroseismic,0.20169,0.8059
UTM:(14Q 0481 2138 1000),,-99.1761,19.3404,macroseismic,0.19328,0.8059
UTM:(14Q 0483 2148 1000),,-99.1572,19.4308,macroseismic,0.19066,0.8059
UTM:(14Q 0473 2142 1000),,-99.2523,19.3764,macroseismic,0.18975,0.8059
UTM:(14Q 0477 2149 1000),,-99.2143,19.4397,macroseismic,0.1888,0.8059
UTM:(14Q 0583 2101 1000),,-98.2066,19.0044,macroseismic,0.18644,0.8059
UTM:(14Q 0481 2136 1000),,-99.1761,19.3223,macroseismic,0.1822,0.8059
UTM:(14Q 0482 2139 1000),,-99.1666,19.3494,macroseismic,0.1816,0.8059
UTM:(14Q 0482 2142 1000),,-99.1666,19.3765,macroseismic,0.1807,0.8059
UTM:(14Q 0483 2143 1000),,-99.1571,19.3856,macroseismic,0.18066,0.8059
UTM:(14Q 0483 2144 1000),,-99.1571,19.3946,macroseismic,0.18036,0.8059
UTM:(14Q 0482 2144 1000),,-99.1667,19.3946,macroseismic,0.1801,0.8059
UTM:(14Q 0480 2143 1000),,-99.1857,19.3856,macroseismic,0.17987,0.8059
UTM:(14Q 0475 2091 1000),,-99.2327,18.9156,macroseismic,0.17957,0.8059
UTM:(14Q 0483 2150 1000),,-99.1572,19.4488,macroseismic,0.17856,0.8059
UTM:(14Q 0443 2028 1000),,-99.5348,18.3455,macroseismic,0.17731,0.8059
UTM:(14Q 0486 2142 1000),,-99.1286,19.3766,macroseismic,0.17078,0.8059
UTM:(14Q 0478 2138 1000),,-99.2047,19.3403,macroseismic,0.16987,0.8059
UTM:(14Q 0484 2145 1000),,-99.1476,19.4037,macroseismic,0.16943,0.8059
UTM:(14Q 0481 2143 1000),,-99.1762,19.3856,macroseismic,0.16927,0.8059
UTM:(14Q 0481 2144 1000),,-99.1762,19.3946,macroseismic,0.16899,0.8059
UTM:(14Q 0480 2144 1000),,-99.1857,19.3946,macroseismic,0.16875,0.8059
UTM:(14Q 0483 2147 1000),,-99.1572,19.4217,macroseismic,0.16863,0.8059
UTM:(14Q 0471 2140 1000),,-99.2714,19.3583,macroseismic,0.16753,0.8059
UTM:(14Q 0575 2106 1000),,-98.2825,19.0499,macroseismic,0.16359,0.8059
UTM:(14Q 0584 2105 1000),,-98.197,19.0405,macroseismic,0.16262,0.8059
UTM:(14Q 0484 2133 1000),,-99.1475,19.2952,macroseismic,0.16245,0.8059
UTM:(14Q 0483 2137 1000),,-99.1571,19.3314,macroseismic,0.16112,0.8059
UTM:(14Q 0485 2140 1000),,-99.1381,19.3585,macroseismic,0.16079,0.8059
UTM:(14Q 0480 2148 1000),,-99.1857,19.4307,macroseismic,0.15754,0.8059
UTM:(14Q 0481 2149 1000),,-99.1762,19.4398,macroseismic,0.1575,0.8059
UTM:(14Q 0472 2141 1000),,-99.2619,19.3674,macroseismic,0.15743,0.8059
UTM:(14Q 0478 2148 1000),,-99.2048,19.4307,macroseismic,0.15711,0.8059
UTM:(14Q 0470 2148 1000),,-99.281,19.4306,macroseismic,0.15536,0.8059
UTM:(14Q 0489 2135 1000),,-99.0999,19.3133,macroseismic,0.15334,0.8059
UTM:(14Q 0581 2106 1000),,-98.2254,19.0496,macroseismic,0.15282,0.8059
UTM:(14Q 0482 2133 1000),,-99.1666,19.2952,macroseismic,0.15216,0.8059
UTM:(14Q 0436 2128 1000),,-99.6042,19.2491,macroseismic,0.1509,0.8059
UTM:(14Q 0492 2149 1000),,-99.0714,19.4399,macroseismic,0.15015,0.8059
UTM:(14Q 0480 2142 1000),,-99.1857,19.3765,macroseismic,0.14948,0.8059
UTM:(14Q 0484 2146 1000),,-99.1476,19.4127,macroseismic,0.14935,0.8059
UTM:(14Q 0486 2148 1000),,-99.1286,19.4308,macroseismic,0.14924,0.8059
UTM:(14Q 0481 2146 1000),,-99.1762,19.4127,macroseismic,0.14872,0.8059
UTM:(14Q 0481 2147 1000),,-99.1762,19.4217,macroseismic,0.14848,0.8059
UTM:(14Q 0582 2108 1000),,-98.2158,19.0677,macroseismic,0.14266,0.8059
UTM:(14Q 0483 2138 1000),,-99.1571,19.3404,macroseismic,0.14203,0.8059
UTM:(14Q 0481 2137 1000),,-99.1761,19.3313,macroseismic,0.14182,0.8059
UTM:(14Q 0489 2148 1000),,-99.1,19.4308,macroseismic,0.1408,0.8059
UTM:(14Q 0480 2141 1000),,-99.1857,19.3675,macroseismic,0.14069,0.8059
UTM:(14Q 0485 2152 1000),,-99.1382,19.4669,macroseismic,0.1391,0.8059
UTM:(14Q 0472 2142 1000),,-99.2619,19.3764,macroseismic,0.1388,0.8059
UTM:(14Q 0478 2149 1000),,-99.2048,19.4398,macroseismic,0.1385,0.8059
UTM:(14Q 0481 2156 1000),,-99.1763,19.503,macroseismic,0.13748,0.8059
UTM:(14Q 0578 2103 1000),,-98.2541,19.0226,macroseismic,0.13648,0.8059
UTM:(14Q 0475 2156 1000),,-99.2335,19.503,macroseismic,0.13644,0.8059
UTM:(14Q 0483 2134 1000),,-99.1571,19.3042,macroseismic,0.13435,0.8059
UTM:(14Q 0488 2142 1000),,-99.1095,19.3766,macroseismic,0.13353,0.8059
UTM:(14Q 0482 2137 1000),,-99.1666,19.3313,macroseismic,0.13348,0.8059
UTM:(14Q 0475 2132 1000),,-99.2332,19.2861,macroseismic,0.13301,0.8059
UTM:(14Q 0478 2145 1000),,-99.2048,19.4036,macroseismic,0.13097,0.8059
UTM:(14Q 0481 2148 1000),,-99.1762,19.4307,macroseismic,0.13089,0.8059
UTM:(14Q 0478 2160 1000),,-99.2049,19.5392,macroseismic,0.12789,0.8059
UTM:(14Q 0584 2103 1000),,-98.1971,19.0224,macroseismic,0.1275,0.8059
UTM:(14Q 0480 2137 1000),,-99.1856,19.3313,macroseismic,0.12503,0.8059
UTM:(14Q 0481 2140 1000),,-99.1761,19.3585,macroseismic,0.12462,0.8059
UTM:(14Q 0439 2138 1000),,-99.576,19.3395,macroseismic,0.1246,0.8059
UTM:(14Q 0477 2137 1000),,-99.2142,19.3313,macroseismic,0.12444,0.8059
UTM:(14Q 0482 2150 1000),,-99.1667,19.4488,macroseismic,0.12276,0.8059
UTM:(14Q 0484 2152 1000),,-99.1477,19.4669,macroseismic,0.12266,0.8059
UTM:(14Q 0473 2143 1000),,-99.2524,19.3855,macroseismic,0.12255,0.8059
UTM:(14Q 0476 2159 1000),,-99.224,19.5301,macroseismic,0.12007,0.8059
UTM:(14Q 0480 2138 1000),,-99.1856,19.3404,macroseismic,0.1173,0.8059
UTM:(14Q 0479 2149 1000),,-99.1953,19.4398,macroseismic,0.11507,0.8059
PPIG,PPIG,-98.62815,19.06705,seismic,0.1148,0.0
TLIG,TLIG,-98.56647,17.56267,seismic,0.11284,0.0
UTM:(14Q 0472 2157 1000),,-99.2621,19.512,macroseismic,0.1126,0.8059
UTM:(14Q 0476 2134 1000),,-99.2237,19.3042,macroseismic,0.11021,0.8059
UTM:(14Q 0479 2146 1000),,-99.1953,19.4127,macroseismic,0.10865,0.8059
UTM:(14Q 0479 2148 1000),,-99.1953,19.4307,macroseismic,0.1083,0.8059
UTM:(14Q 0475 2098 1000),,-99.2327,18.9788,macroseismic,0.10189,0.8059
UTM:(14Q 0475 2159 1000),,-99.2335,19.5301,macroseismic,0.0995,0.8059
UTM:(14Q 0470 2141 1000),,-99.2809,19.3674,macroseismic,0.0954,0.8059
UTM:(14Q 0472 2154 1000),,-99.262,19.4849,macroseismic,0.09385,0.8059
UTM:(14Q 0477 2172 1000),,-99.2146,19.6476,macroseismic,0.0863,0.8059
UTM:(14Q 0479 2150 1000),,-99.1953,19.4488,macroseismic,0.08416,0.8059
UTM:(14Q 0476 2166 1000),,-99.2241,19.5934,macroseismic,0.08176,0.8059
UTM:(14Q 0431 2132 1000),,-99.6519,19.2851,macroseismic,0.08006,0.8059
UTM:(14Q 0469 2140 1000),,-99.2904,19.3583,macroseismic,0.07914,0.8059
UTM:(14Q 0476 2153 1000),,-99.2239,19.4759,macroseismic,0.0784,0.8059
UTM:(14Q 0477 2161 1000),,-99.2145,19.5482,macroseismic,0.07752,0.8059
MEIG,MEIG,-99.61972,17.92489,seismic,0.07604,0.0
UTM:(14Q 0478 2147 1000),,-99.2048,19.4217,macroseismic,0.07457,0.8059
TPIG,TPIG,-97.36197,18.42023,seismic,0.07272,0.0
UTM:(15Q 0196 2003 1000),,-95.8675,18.099,macroseismic,0.0721,0.8059
UTM:(14Q 0474 2170 1000),,-99.2432,19.6295,macroseismic,0.06727,0.8059
UTM:(14Q 0804 2115 1000),,-96.1059,19.1098,macroseismic,0.06538,0.8059
UTM:(14Q 0583 2105 1000),,-98.2065,19.0405,macroseismic,0.064,0.8059
UTM:(14Q 0742 1887 1000),,-96.7216,17.059,macroseismic,0.0578,0.8059
UTM:(14Q 0477 2138 1000),,-99.2142,19.3403,macroseismic,0.05533,0.8059
UTM:(14Q 0480 2135 1000),,-99.1856,19.3133,macroseismic,0.05248,0.8059
UTM:(14Q 0742 1888 1000),,-96.7215,17.0681,macroseismic,0.04799,0.8059
UTM:(14Q 0480 2147 1000),,-99.1857,19.4217,macroseismic,0.04545,0.8059
UTM:(14Q 0477 2148 1000),,-99.2143,19.4307,macroseismic,0.03166,0.8059
UTM:(14Q 0269 2180 1000),,-101.199,19.7065,macroseismic,0.03154,0.8059
UTM:(14Q 0486 2157 1000),,-99.1287,19.5121,macroseismic,0.03142,0.8059
UTM:(15Q 0297 1985 1000),,-94.912,17.9482,macroseismic,0.01741,0.8059
CAIG,CAIG,-100.26726,17.0485,seismic,0.00823,0.0
ZIIG,ZIIG,-101.46492,17.60695,seismic,0.00427,0.0
CMIG,CMIG,-94.8838,17.09099,seismic,0.00305,0.0
DHIG,DHIG,-99.03549,20.30036,seismic,0.00278,0.0
MMIG,MMIG,-103.34554,18.28854,seismic,0.00218,0.0
TUIG,TUIG,-94.4225,18.03369,seismic,0.00211,0.0
