STATION_ID,STATION_NAME,LATITUDE,LONGITUDE,STATION_TYPE,REFERENCES,SOIL_TYPE,PGA_VALUE,PGA_LN_SIGMA,SA(0.3)_VALUE,SA(0.3)_LN_SIGMA,SA(0.6)_VALUE,SA(0.6)_LN_SIGMA,SA(1.0)_VALUE,SA(1.0)_LN_SIGMA,VS30,VS30_TYPE,MMI_VALUE,MMI_STDDEV,PGV_LN_SIGMA,PGV_VALUE,SA(3.0)_LN_SIGMA,SA(3.0)_VALUE
NCR,NOCERA UMBRA,43.111583,12.784666,seismic,INGV,E,0.4938078919999999,0.0,1.418164602371656,0.0,0.6304672403882455,0.0,0.2799753148403277,0.0,555.0,E,,,,,,
CLF,COLFIORITO,43.036714,12.920428,seismic,INGV,D,0.223383881,0.0,0.4015117048274323,0.0,0.3332387785064126,0.0,0.4421554112978336,0.0,145.0,D,,,,,,
ASS,ASSISI,43.074982,12.604141,seismic,INGV,A (inferred from geology),0.184351486,0.0,0.5853571317674999,0.0,0.2210605024114107,0.0,0.0477719303638457,0.0,,A (inferred from geology),,,,,,
CSA,CASTELNUOVO  ASSISI,43.008015,12.590602,seismic,INGV,C,0.168815475,0.0,0.2950269524383916,0.0,0.32374801468716,0.0,0.2131831513755427,0.0,200.0,C,,,,,,
MTL,MATELICA,43.249435,13.008338,seismic,INGV,B,0.114078545,0.0,0.2093527798408229,0.0,0.1740407031365346,0.0,0.126678056502209,0.0,579.0,B,,,,,,
GBP,GUBBIO PIANA,43.31381,12.58949,seismic,INGV,C,0.095893517,0.0,0.2016030720320779,0.0,0.1737026603449573,0.0,0.1364228519117253,0.0,224.0,C,,,,,,
GBB,GUBBIO,43.356972,12.597252,seismic,INGV,B (inferred from geology),0.081651451,0.0,0.1265305106943493,0.0,0.0273962300408507,0.0,0.0191777852630488,0.0,,B (inferred from geology),,,,,,
BVG,BEVAGNA,42.932367,12.611065,seismic,INGV,C,0.077351105,0.0,0.1456158750652763,0.0,0.248833334256625,0.0,0.1099452740130786,0.0,211.0,C,,,,,,
PTL,PIETRALUNGA,43.427334,12.448597,seismic,INGV,B (inferred from geology),0.068404991,0.0,0.1254265944169449,0.0,0.0373246002472582,0.0,0.0302900197945405,0.0,,B (inferred from geology),,,,,,
SNG,SENIGALLIA,43.68558,13.226162,seismic,INGV,C,0.044568413,0.0,0.0962981085296805,0.0,0.0859038450991456,0.0,0.0783349621210777,0.0,258.0,C,,,,,,
LNS,LEONESSA,42.565,12.984167,seismic,INGV,C (inferred from geology),0.032254482,0.0,0.0588570119983924,0.0,0.0200115528909379,0.0,0.0128105657873739,0.0,,C (inferred from geology),,,,,,
FHC,FORCA CANAPINE (ARQUATA TRONTO),42.761111,13.210278,seismic,INGV,B (inferred from geology),0.031983917,0.0,0.0444536836901059,0.0,0.0224085651572303,0.0,0.0078177287387385,0.0,,B (inferred from geology),,,,,,
MNF,MONTE FIEGNI  FIASTRA,43.059684,13.184466,seismic,INGV,A,0.031170944,0.0,0.0521170940360043,0.0,0.0279985617386876,0.0,0.015413680428453,0.0,1062.0,A,,,,,,
CSC,CASCIA,42.719097,13.01228,seismic,INGV,B,0.0214763969999999,0.0,0.0445336961431269,0.0,0.0246163073379392,0.0,0.0103370055943563,0.0,698.0,B,,,,,,
CGL,CAGLI,43.535278,12.629167,seismic,INGV,A,0.019588989,0.0,0.0538116666289509,0.0,0.0187620098458636,0.0,0.0087333521413945,0.0,800.0,A,,,,,,
RTI,RIETI (CAB. ENEL),42.430278,12.829097,seismic,INGV,D,0.018396322,0.0,0.0384862870364877,0.0,0.044013891368902,0.0,0.0446361512298186,0.0,170.0,D,,,,,,
PNN,PENNABILLI,43.818159,12.262846,seismic,INGV,C,0.015035211,0.0,0.066893695608257,0.0,0.0240490760645088,0.0,0.017374205490942,0.0,335.0,C,,,,,,
BTT2,BORGO OTTOMILA - 2 (CELANO),41.998333,13.543056,seismic,INGV,D,0.008029109,0.0,0.0088313467260081,0.0,0.0182725850305813,0.0,0.0240943969657547,0.0,90.0,D,,,,,,
AQG,L AQUILA   V. ATERNO    COLLE GRILLI,42.373474,13.337026,seismic,INGV,B,0.006911106,0.0,0.0179232740850445,0.0,0.0097981827936566,0.0,0.0060058052599097,0.0,696.0,B,,,,,,
AQK,L AQUILA   V. ATERNO   AQUIL PARK ING.,42.344967,13.400949,seismic,INGV,B,0.004139194,0.0,0.0113505120261323,0.0,0.0156210732178636,0.0,0.0100431275067715,0.0,705.0,B,,,,,,
AQI,L'AQUILA - V. ATERNO -  AQUIL PARK INT.,42.3449,13.4009,seismic,INGV,C (inferred from geology),0.004021737,0.0,0.0080022005104947,0.0,0.0147038711544956,0.0,0.0114566871636522,0.0,,C (inferred from geology),,,,,,
OBS_1,Collecurti MC,42.963,12.934,macroseismic,Stations_USGS,,1.315654,0.8059,1.964966,1.0131,,,1.069106,1.0822,858.15,inferred,9.0,0.3,0.875,97.8377,1.4737,0.204483
OBS_6,Isola PG,43.149,12.776,macroseismic,Stations_USGS,,0.963844,0.8059,1.487929,1.0131,,,0.718798,1.0822,584.08,inferred,8.5,0.3,0.875,67.9639,1.4737,0.13949
OBS_9,Verchiano PG,42.95,12.884,macroseismic,Stations_USGS,,0.963844,0.8059,1.487929,1.0131,,,0.718798,1.0822,644.36,inferred,8.5,0.3,0.875,67.9639,1.4737,0.13949
OBS_5,Cesi MC,43.005,12.899,macroseismic,Stations_USGS,,0.963844,0.8059,1.487929,1.0131,,,0.718798,1.0822,549.17,inferred,8.5,0.3,0.875,67.9639,1.4737,0.13949
OBS_3,Arvello PG,43.037,12.846,macroseismic,Stations_USGS,,0.963844,0.8059,1.487929,1.0131,,,0.718798,1.0822,365.95,inferred,8.5,0.3,0.875,67.9639,1.4737,0.13949
OBS_7,Molina PG,43.158,12.777,macroseismic,Stations_USGS,,0.963844,0.8059,1.487929,1.0131,,,0.718798,1.0822,429.17,inferred,8.5,0.3,0.875,67.9639,1.4737,0.13949
OBS_2,Annifo PG,43.052,12.855,macroseismic,Stations_USGS,,0.963844,0.8059,1.487929,1.0131,,,0.718798,1.0822,647.12,inferred,8.5,0.3,0.875,67.9639,1.4737,0.13949
OBS_8,San Martino MC,42.972,12.929,macroseismic,Stations_USGS,,0.963844,0.8059,1.487929,1.0131,,,0.718798,1.0822,363.65,inferred,8.5,0.3,0.875,67.9639,1.4737,0.13949
OBS_4,Camino PG,42.933,12.892,macroseismic,Stations_USGS,,0.944421,0.8059,1.47209,1.0131,,,0.727823,1.0822,709.35,inferred,8.5,0.3,0.875,67.9639,1.4737,0.141454
OBS_14,Cupigliolo PG,42.999,12.862,macroseismic,Stations_USGS,,0.706109,0.8059,1.126702,1.0131,,,0.483274,1.0822,535.97,inferred,8.0,0.3,0.875,47.2118,1.4737,0.095155
OBS_15,Dignano MC,43.019,12.925,macroseismic,Stations_USGS,,0.706109,0.8059,1.126702,1.0131,,,0.483274,1.0822,714.12,inferred,8.0,0.3,0.875,47.2118,1.4737,0.095155
OBS_17,Voltellina MC,42.965,12.932,macroseismic,Stations_USGS,,0.706109,0.8059,1.126702,1.0131,,,0.483274,1.0822,858.15,inferred,8.0,0.3,0.875,47.2118,1.4737,0.095155
OBS_13,Costa MC,42.993,12.924,macroseismic,Stations_USGS,,0.706109,0.8059,1.126702,1.0131,,,0.483274,1.0822,900.0,inferred,8.0,0.3,0.875,47.2118,1.4737,0.095155
OBS_11,Casale delle Macchie PG,43.164,12.905,macroseismic,Stations_USGS,,0.706109,0.8059,1.126702,1.0131,,,0.483274,1.0822,766.83,inferred,8.0,0.3,0.875,47.2118,1.4737,0.095155
OBS_12,Casenove PG,42.976,12.842,macroseismic,Stations_USGS,,0.706109,0.8059,1.126702,1.0131,,,0.483274,1.0822,468.5,inferred,8.0,0.3,0.875,47.2118,1.4737,0.095155
OBS_10,Aggi PG,43.108,12.836,macroseismic,Stations_USGS,,0.706109,0.8059,1.126702,1.0131,,,0.483274,1.0822,535.87,inferred,8.0,0.3,0.875,47.2118,1.4737,0.095155
OBS_16,Sorifa PG,43.078,12.822,macroseismic,Stations_USGS,,0.706109,0.8059,1.126702,1.0131,,,0.483274,1.0822,569.65,inferred,8.0,0.3,0.875,47.2118,1.4737,0.095155
OBS_27,Leggiana PG,42.981,12.829,macroseismic,Stations_USGS,,0.517293,0.8059,0.853171,1.0131,,,0.324922,1.0822,639.73,inferred,7.5,0.3,0.875,32.7961,1.4737,0.064911
OBS_35,Stravignano PG,43.088,12.813,macroseismic,Stations_USGS,,0.517293,0.8059,0.853171,1.0131,,,0.324922,1.0822,527.44,inferred,7.5,0.3,0.875,32.7961,1.4737,0.064911
OBS_37,Valtopina PG,43.056,12.754,macroseismic,Stations_USGS,,0.517293,0.8059,0.853171,1.0131,,,0.324922,1.0822,664.9,inferred,7.5,0.3,0.875,32.7961,1.4737,0.064911
OBS_33,Salmaregia PG,43.197,12.861,macroseismic,Stations_USGS,,0.517293,0.8059,0.853171,1.0131,,,0.324922,1.0822,758.52,inferred,7.5,0.3,0.875,32.7961,1.4737,0.064911
OBS_20,Capodacqua PG,43.017,12.78,macroseismic,Stations_USGS,,0.517293,0.8059,0.853171,1.0131,,,0.324922,1.0822,706.94,inferred,7.5,0.3,0.875,32.7961,1.4737,0.064911
OBS_26,Franca PG,42.997,12.83,macroseismic,Stations_USGS,,0.517293,0.8059,0.853171,1.0131,,,0.324922,1.0822,549.54,inferred,7.5,0.3,0.875,32.7961,1.4737,0.064911
OBS_18,Acquapagana MC,42.985,12.929,macroseismic,Stations_USGS,,0.517293,0.8059,0.853171,1.0131,,,0.324922,1.0822,544.57,inferred,7.5,0.3,0.875,32.7961,1.4737,0.064911
OBS_30,Ponte Santa Lucia PG,42.98,12.785,macroseismic,Stations_USGS,,0.517293,0.8059,0.853171,1.0131,,,0.324922,1.0822,556.12,inferred,7.5,0.3,0.875,32.7961,1.4737,0.064911
OBS_25,Fraia PG,42.997,12.89,macroseismic,Stations_USGS,,0.517293,0.8059,0.853171,1.0131,,,0.324922,1.0822,557.61,inferred,7.5,0.3,0.875,32.7961,1.4737,0.064911
OBS_34,Scopoli PG,42.972,12.809,macroseismic,Stations_USGS,,0.517293,0.8059,0.853171,1.0131,,,0.324922,1.0822,544.93,inferred,7.5,0.3,0.875,32.7961,1.4737,0.064911
OBS_29,Nocera Umbra PG,43.113,12.788,macroseismic,Stations_USGS,,0.517293,0.8059,0.853171,1.0131,,,0.324922,1.0822,474.43,inferred,7.5,0.3,0.875,32.7961,1.4737,0.064911
OBS_23,Croce di Verchiano PG,42.953,12.879,macroseismic,Stations_USGS,,0.517293,0.8059,0.853171,1.0131,,,0.324922,1.0822,531.87,inferred,7.5,0.3,0.875,32.7961,1.4737,0.064911
OBS_28,Nocera Scalo PG,43.1,12.767,macroseismic,Stations_USGS,,0.517293,0.8059,0.853171,1.0131,,,0.324922,1.0822,377.8,inferred,7.5,0.3,0.875,32.7961,1.4737,0.064911
OBS_19,Belvedere AN,43.237,12.86,macroseismic,Stations_USGS,,0.489987,0.8059,0.829191,1.0131,,,0.335904,1.0822,650.95,inferred,7.5,0.3,0.875,32.7961,1.4737,0.067375
OBS_24,Forfi PG,42.918,12.911,macroseismic,Stations_USGS,,0.485136,0.8059,0.824865,1.0131,,,0.337958,1.0822,691.5,inferred,7.5,0.3,0.875,32.7961,1.4737,0.067837
OBS_32,Riofreddo MC,42.943,12.99,macroseismic,Stations_USGS,,0.483328,0.8059,0.823248,1.0131,,,0.338733,1.0822,795.34,inferred,7.5,0.3,0.875,32.7961,1.4737,0.068011
OBS_31,Preci PG,42.878,13.039,macroseismic,Stations_USGS,,0.421512,0.8059,0.766101,1.0131,,,0.368369,1.0822,646.58,inferred,7.5,0.3,0.875,32.7961,1.4737,0.074714
OBS_36,Triponzo PG,42.827,12.937,macroseismic,Stations_USGS,,0.414181,0.8059,0.759067,1.0131,,,0.372352,1.0822,389.4,inferred,7.5,0.3,0.875,32.7961,1.4737,0.07562
OBS_55,Forcella MC,42.956,12.944,macroseismic,Stations_USGS,,0.378967,0.8059,0.646046,1.0131,,,0.218457,1.0822,900.0,inferred,7.0,0.3,0.875,22.7822,1.4737,0.04428
OBS_47,Colfiorito PG,43.027,12.891,macroseismic,Stations_USGS,,0.378967,0.8059,0.646046,1.0131,,,0.218457,1.0822,464.08,inferred,7.0,0.3,0.875,22.7822,1.4737,0.04428
OBS_63,Rio PG,43.02,12.824,macroseismic,Stations_USGS,,0.378967,0.8059,0.646046,1.0131,,,0.218457,1.0822,512.72,inferred,7.0,0.3,0.875,22.7822,1.4737,0.04428
OBS_68,Sorifa MC,43.14,12.849,macroseismic,Stations_USGS,,0.378967,0.8059,0.646046,1.0131,,,0.218457,1.0822,667.16,inferred,7.0,0.3,0.875,22.7822,1.4737,0.04428
OBS_69,Sorti MC,43.122,12.952,macroseismic,Stations_USGS,,0.378967,0.8059,0.646046,1.0131,,,0.218457,1.0822,678.92,inferred,7.0,0.3,0.875,22.7822,1.4737,0.04428
OBS_66,Seggio PG,43.015,12.835,macroseismic,Stations_USGS,,0.378967,0.8059,0.646046,1.0131,,,0.218457,1.0822,292.09,inferred,7.0,0.3,0.875,22.7822,1.4737,0.04428
OBS_56,Molinaccio PG,43.207,12.864,macroseismic,Stations_USGS,,0.378967,0.8059,0.646046,1.0131,,,0.218457,1.0822,610.14,inferred,7.0,0.3,0.875,22.7822,1.4737,0.04428
OBS_65,Sefro MC,43.146,12.949,macroseismic,Stations_USGS,,0.378967,0.8059,0.646046,1.0131,,,0.218457,1.0822,610.74,inferred,7.0,0.3,0.875,22.7822,1.4737,0.04428
OBS_38,Armenzano PG,43.07,12.699,macroseismic,Stations_USGS,,0.378967,0.8059,0.646046,1.0131,,,0.218457,1.0822,900.0,inferred,7.0,0.3,0.875,22.7822,1.4737,0.04428
OBS_72,Volperino PG,42.98,12.863,macroseismic,Stations_USGS,,0.378967,0.8059,0.646046,1.0131,,,0.218457,1.0822,870.11,inferred,7.0,0.3,0.875,22.7822,1.4737,0.04428
OBS_59,Poggio Sorifa MC,43.144,12.855,macroseismic,Stations_USGS,,0.378967,0.8059,0.646046,1.0131,,,0.218457,1.0822,660.66,inferred,7.0,0.3,0.875,22.7822,1.4737,0.04428
OBS_54,Forcatura PG,43.026,12.862,macroseismic,Stations_USGS,,0.378967,0.8059,0.646046,1.0131,,,0.218457,1.0822,496.42,inferred,7.0,0.3,0.875,22.7822,1.4737,0.04428
OBS_40,Attiloni MC,42.958,12.941,macroseismic,Stations_USGS,,0.378967,0.8059,0.646046,1.0131,,,0.218457,1.0822,900.0,inferred,7.0,0.3,0.875,22.7822,1.4737,0.04428
OBS_58,Pantaneto MC,42.981,12.994,macroseismic,Stations_USGS,,0.378967,0.8059,0.646046,1.0131,,,0.218457,1.0822,875.16,inferred,7.0,0.3,0.875,22.7822,1.4737,0.04428
OBS_49,Colle Croce PG,43.074,12.855,macroseismic,Stations_USGS,,0.378967,0.8059,0.646046,1.0131,,,0.218457,1.0822,310.82,inferred,7.0,0.3,0.875,22.7822,1.4737,0.04428
OBS_45,Case Pettinari PG,43.135,12.796,macroseismic,Stations_USGS,,0.378967,0.8059,0.646046,1.0131,,,0.218457,1.0822,893.31,inferred,7.0,0.3,0.875,22.7822,1.4737,0.04428
OBS_67,Selvapiana PG,42.998,12.964,macroseismic,Stations_USGS,,0.378967,0.8059,0.646046,1.0131,,,0.218457,1.0822,480.25,inferred,7.0,0.3,0.875,22.7822,1.4737,0.04428
OBS_61,Ponte Parrano PG,43.135,12.776,macroseismic,Stations_USGS,,0.378967,0.8059,0.646046,1.0131,,,0.218457,1.0822,449.6,inferred,7.0,0.3,0.875,22.7822,1.4737,0.04428
OBS_48,Collattoni MC,42.98,12.964,macroseismic,Stations_USGS,,0.378967,0.8059,0.646046,1.0131,,,0.218457,1.0822,546.18,inferred,7.0,0.3,0.875,22.7822,1.4737,0.04428
OBS_70,Taverne MC,43.028,12.918,macroseismic,Stations_USGS,,0.378967,0.8059,0.646046,1.0131,,,0.218457,1.0822,584.58,inferred,7.0,0.3,0.875,22.7822,1.4737,0.04428
OBS_41,Bagnara PG,43.111,12.853,macroseismic,Stations_USGS,,0.378967,0.8059,0.646046,1.0131,,,0.218457,1.0822,335.97,inferred,7.0,0.3,0.875,22.7822,1.4737,0.04428
OBS_44,Cascine MC,42.992,12.966,macroseismic,Stations_USGS,,0.378967,0.8059,0.646046,1.0131,,,0.218457,1.0822,499.26,inferred,7.0,0.3,0.875,22.7822,1.4737,0.04428
OBS_42,Biscina PG,42.93,12.847,macroseismic,Stations_USGS,,0.371361,0.8059,0.639197,1.0131,,,0.221188,1.0822,735.51,inferred,7.0,0.3,0.875,22.7822,1.4737,0.044901
OBS_50,Colle San Lorenzo PG,42.969,12.75,macroseismic,Stations_USGS,,0.367545,0.8059,0.635735,1.0131,,,0.222593,1.0822,900.0,inferred,7.0,0.3,0.875,22.7822,1.4737,0.04522
OBS_43,Campodonico AN,43.228,12.864,macroseismic,Stations_USGS,,0.366206,0.8059,0.634516,1.0131,,,0.223092,1.0822,709.09,inferred,7.0,0.3,0.875,22.7822,1.4737,0.045334
OBS_57,Molini di Cammoro PG,42.916,12.859,macroseismic,Stations_USGS,,0.359512,0.8059,0.628392,1.0131,,,0.225628,1.0822,536.21,inferred,7.0,0.3,0.875,22.7822,1.4737,0.045912
OBS_62,Rasenna MC,42.935,12.957,macroseismic,Stations_USGS,,0.358298,0.8059,0.627276,1.0131,,,0.226097,1.0822,583.15,inferred,7.0,0.3,0.875,22.7822,1.4737,0.046019
OBS_22,Crescenti PG,43.514,12.878,macroseismic,Stations_USGS,,0.346644,0.8059,0.691256,1.0131,,,0.415276,1.0822,516.93,inferred,,,0.875,32.7961,1.4737,0.085456
OBS_53,Foligno PG,42.955,12.704,macroseismic,Stations_USGS,,0.340744,0.8059,0.610927,1.0131,,,0.233166,1.0822,289.58,inferred,7.0,0.3,0.875,22.7822,1.4737,0.047635
OBS_39,Aschio MC,42.973,13.064,macroseismic,Stations_USGS,,0.340088,0.8059,0.610309,1.0131,,,0.233442,1.0822,680.33,inferred,7.0,0.3,0.875,22.7822,1.4737,0.047698
OBS_71,Villamagina PG,42.891,12.914,macroseismic,Stations_USGS,,0.336482,0.8059,0.606898,1.0131,,,0.234972,1.0822,775.53,inferred,7.0,0.3,0.875,22.7822,1.4737,0.048048
OBS_52,Croce MC,42.924,13.03,macroseismic,Stations_USGS,,0.330745,0.8059,0.601436,1.0131,,,0.237462,1.0822,900.0,inferred,7.0,0.3,0.875,22.7822,1.4737,0.048619
OBS_21,Colle di Verchiano PG,43.659,12.892,macroseismic,Stations_USGS,,0.317338,0.8059,0.65989,1.0131,,,0.438378,1.0822,510.79,inferred,,,0.875,32.7961,1.4737,0.090802
OBS_46,Colbassano PG,43.292,12.729,macroseismic,Stations_USGS,,0.316584,0.8059,0.587758,1.0131,,,0.243917,1.0822,395.42,inferred,7.0,0.3,0.875,22.7822,1.4737,0.050103
OBS_51,Corone PG,42.882,13.01,macroseismic,Stations_USGS,,0.315612,0.8059,0.586808,1.0131,,,0.244377,1.0822,389.59,inferred,7.0,0.3,0.875,22.7822,1.4737,0.050209
OBS_64,Roccanolfi PG,42.859,13.018,macroseismic,Stations_USGS,,0.305146,0.8059,0.576496,1.0131,,,0.249481,1.0822,884.1,inferred,7.0,0.3,0.875,22.7822,1.4737,0.051385
OBS_60,Ponte PG,42.805,12.911,macroseismic,Stations_USGS,,0.297179,0.8059,0.568534,1.0131,,,0.253559,1.0822,543.89,inferred,7.0,0.3,0.875,22.7822,1.4737,0.052328
OBS_104,Rigali PG,43.207,12.789,macroseismic,Stations_USGS,,0.27763,0.8059,0.489204,1.0131,,,0.146876,1.0822,897.2,inferred,6.5,0.3,0.875,15.8259,1.4737,0.030206
OBS_87,Colmaggiore MC,43.202,12.868,macroseismic,Stations_USGS,,0.27763,0.8059,0.489204,1.0131,,,0.146876,1.0822,709.91,inferred,6.5,0.3,0.875,15.8259,1.4737,0.030206
OBS_93,Fondi PG,43.04,12.821,macroseismic,Stations_USGS,,0.27763,0.8059,0.489204,1.0131,,,0.146876,1.0822,625.43,inferred,6.5,0.3,0.875,15.8259,1.4737,0.030206
OBS_107,San Giovanni PG,43.051,12.711,macroseismic,Stations_USGS,,0.27763,0.8059,0.489204,1.0131,,,0.146876,1.0822,900.0,inferred,6.5,0.3,0.875,15.8259,1.4737,0.030206
OBS_111,Serrone PG,42.971,12.844,macroseismic,Stations_USGS,,0.27763,0.8059,0.489204,1.0131,,,0.146876,1.0822,468.5,inferred,6.5,0.3,0.875,15.8259,1.4737,0.030206
OBS_97,Laverino MC,43.133,12.885,macroseismic,Stations_USGS,,0.27763,0.8059,0.489204,1.0131,,,0.146876,1.0822,791.66,inferred,6.5,0.3,0.875,15.8259,1.4737,0.030206
OBS_84,Colle Aprico PG,43.116,12.858,macroseismic,Stations_USGS,,0.27763,0.8059,0.489204,1.0131,,,0.146876,1.0822,708.94,inferred,6.5,0.3,0.875,15.8259,1.4737,0.030206
OBS_108,San Presto PG,43.131,12.674,macroseismic,Stations_USGS,,0.27763,0.8059,0.489204,1.0131,,,0.146876,1.0822,477.35,inferred,6.5,0.3,0.875,15.8259,1.4737,0.030206
OBS_89,Corgneto MC,42.998,12.918,macroseismic,Stations_USGS,,0.27763,0.8059,0.489204,1.0131,,,0.146876,1.0822,831.18,inferred,6.5,0.3,0.875,15.8259,1.4737,0.030206
OBS_98,Massaprofoglio MC,43.058,13.003,macroseismic,Stations_USGS,,0.27763,0.8059,0.489204,1.0131,,,0.146876,1.0822,900.0,inferred,6.5,0.3,0.875,15.8259,1.4737,0.030206
OBS_88,Copogna MC,43.098,12.95,macroseismic,Stations_USGS,,0.27763,0.8059,0.489204,1.0131,,,0.146876,1.0822,602.76,inferred,6.5,0.3,0.875,15.8259,1.4737,0.030206
OBS_86,Collepino PG,43.02,12.704,macroseismic,Stations_USGS,,0.27098,0.8059,0.483009,1.0131,,,0.149075,1.0822,900.0,inferred,6.5,0.3,0.875,15.8259,1.4737,0.030713
OBS_103,Porziano PG,43.144,12.662,macroseismic,Stations_USGS,,0.270518,0.8059,0.482576,1.0131,,,0.149231,1.0822,547.08,inferred,6.5,0.3,0.875,15.8259,1.4737,0.030749
OBS_92,Fiuminata MC,43.188,12.932,macroseismic,Stations_USGS,,0.269226,0.8059,0.481363,1.0131,,,0.14967,1.0822,568.13,inferred,6.5,0.3,0.875,15.8259,1.4737,0.03085
OBS_96,Gualdo Tadino PG,43.23,12.785,macroseismic,Stations_USGS,,0.268863,0.8059,0.481022,1.0131,,,0.149793,1.0822,636.63,inferred,6.5,0.3,0.875,15.8259,1.4737,0.030879
OBS_106,San Cassiano MC,43.174,12.949,macroseismic,Stations_USGS,,0.267863,0.8059,0.48008,1.0131,,,0.150136,1.0822,846.51,inferred,6.5,0.3,0.875,15.8259,1.4737,0.030958
OBS_73,Assisi PG,43.07,12.616,macroseismic,Stations_USGS,,0.254218,0.8059,0.467064,1.0131,,,0.155025,1.0822,729.94,inferred,6.5,0.3,0.875,15.8259,1.4737,0.03209
OBS_100,Ottaggi PG,42.906,12.912,macroseismic,Stations_USGS,,0.253812,0.8059,0.466672,1.0131,,,0.155177,1.0822,532.36,inferred,6.5,0.3,0.875,15.8259,1.4737,0.032125
OBS_113,Spello PG,42.992,12.668,macroseismic,Stations_USGS,,0.249821,0.8059,0.4628,1.0131,,,0.156692,1.0822,464.99,inferred,6.5,0.3,0.875,15.8259,1.4737,0.032477
OBS_115,Valfabbrica PG,43.158,12.602,macroseismic,Stations_USGS,,0.245728,0.8059,0.458798,1.0131,,,0.158286,1.0822,523.29,inferred,6.5,0.3,0.875,15.8259,1.4737,0.032848
OBS_109,Sellano PG,42.888,12.927,macroseismic,Stations_USGS,,0.243834,0.8059,0.456936,1.0131,,,0.159039,1.0822,487.63,inferred,6.5,0.3,0.875,15.8259,1.4737,0.033023
OBS_75,Camerino MC,43.135,13.068,macroseismic,Stations_USGS,,0.24107,0.8059,0.454205,1.0131,,,0.160154,1.0822,395.9,inferred,6.5,0.3,0.875,15.8259,1.4737,0.033283
OBS_79,Caprara PG,43.255,12.698,macroseismic,Stations_USGS,,0.240622,0.8059,0.453761,1.0131,,,0.160337,1.0822,623.28,inferred,6.5,0.3,0.875,15.8259,1.4737,0.033325
OBS_99,Osteria del Gatto PG,43.291,12.749,macroseismic,Stations_USGS,,0.234165,0.8059,0.447318,1.0131,,,0.163032,1.0822,526.59,inferred,6.5,0.3,0.875,15.8259,1.4737,0.033954
OBS_94,Fossato di Vico PG,43.295,12.762,macroseismic,Stations_USGS,,0.233684,0.8059,0.446835,1.0131,,,0.163238,1.0822,832.31,inferred,6.5,0.3,0.875,15.8259,1.4737,0.034002
OBS_105,Saccovescio PG,42.898,13.034,macroseismic,Stations_USGS,,0.232834,0.8059,0.44598,1.0131,,,0.163603,1.0822,812.22,inferred,6.5,0.3,0.875,15.8259,1.4737,0.034087
OBS_118,Visso MC,42.93,13.088,macroseismic,Stations_USGS,,0.231988,0.8059,0.445127,1.0131,,,0.163968,1.0822,571.64,inferred,6.5,0.3,0.875,15.8259,1.4737,0.034172
OBS_77,Cannara PG,42.994,12.583,macroseismic,Stations_USGS,,0.229933,0.8059,0.44305,1.0131,,,0.164865,1.0822,231.04,inferred,6.5,0.3,0.875,15.8259,1.4737,0.034382
OBS_85,Colle Soglio PG,42.835,12.904,macroseismic,Stations_USGS,,0.22661,0.8059,0.439672,1.0131,,,0.166342,1.0822,900.0,inferred,6.5,0.3,0.875,15.8259,1.4737,0.034727
OBS_117,Varano AN,43.325,12.854,macroseismic,Stations_USGS,,0.224381,0.8059,0.437393,1.0131,,,0.167353,1.0822,608.94,inferred,6.5,0.3,0.875,15.8259,1.4737,0.034964
OBS_112,Sigillo PG,43.331,12.741,macroseismic,Stations_USGS,,0.22071,0.8059,0.433616,1.0131,,,0.169054,1.0822,672.6,inferred,6.5,0.3,0.875,15.8259,1.4737,0.035362
OBS_90,Cupo AN,43.34,12.815,macroseismic,Stations_USGS,,0.220358,0.8059,0.433253,1.0131,,,0.169219,1.0822,619.01,inferred,6.5,0.3,0.875,15.8259,1.4737,0.035401
OBS_95,Gagliole MC,43.237,13.067,macroseismic,Stations_USGS,,0.220021,0.8059,0.432904,1.0131,,,0.169378,1.0822,585.33,inferred,6.5,0.3,0.875,15.8259,1.4737,0.035438
OBS_91,Fabriano AN,43.335,12.905,macroseismic,Stations_USGS,,0.219,0.8059,0.431847,1.0131,,,0.169862,1.0822,512.64,inferred,6.5,0.3,0.875,15.8259,1.4737,0.035552
OBS_78,Cantia AN,43.363,12.86,macroseismic,Stations_USGS,,0.213571,0.8059,0.426185,1.0131,,,0.172495,1.0822,530.54,inferred,6.5,0.3,0.875,15.8259,1.4737,0.03617
OBS_116,Vallinfante MC,42.892,13.175,macroseismic,Stations_USGS,,0.210347,0.8059,0.422791,1.0131,,,0.174111,1.0822,533.06,inferred,6.5,0.3,0.875,15.8259,1.4737,0.03655
OBS_110,Serravalle PG,42.786,13.022,macroseismic,Stations_USGS,,0.206667,0.8059,0.418887,1.0131,,,0.176004,1.0822,683.88,inferred,6.5,0.3,0.875,15.8259,1.4737,0.036996
OBS_82,Cessapalombo MC,43.108,13.258,macroseismic,Stations_USGS,,0.206101,0.8059,0.418283,1.0131,,,0.176301,1.0822,565.7,inferred,6.5,0.3,0.875,15.8259,1.4737,0.037066
OBS_74,Belforte del Chienti MC,43.163,13.238,macroseismic,Stations_USGS,,0.204905,0.8059,0.417005,1.0131,,,0.176931,1.0822,518.13,inferred,6.5,0.3,0.875,15.8259,1.4737,0.037214
OBS_76,Camporotondo di Fiastrone MC,43.131,13.265,macroseismic,Stations_USGS,,0.2037,0.8059,0.415713,1.0131,,,0.177572,1.0822,386.38,inferred,6.5,0.3,0.875,15.8259,1.4737,0.037365
OBS_224,Valcaldara MC,43.014,12.991,macroseismic,Stations_USGS,,0.203391,0.8059,0.37044,1.0131,,,0.09875,1.0822,812.3,inferred,6.0,0.3,0.875,10.9936,1.4737,0.020605
OBS_180,Morano PG,43.171,12.718,macroseismic,Stations_USGS,,0.203391,0.8059,0.37044,1.0131,,,0.09875,1.0822,304.96,inferred,6.0,0.3,0.875,10.9936,1.4737,0.020605
OBS_201,Rasiglia PG,42.959,12.861,macroseismic,Stations_USGS,,0.203391,0.8059,0.37044,1.0131,,,0.09875,1.0822,401.12,inferred,6.0,0.3,0.875,10.9936,1.4737,0.020605
OBS_157,Grillo PG,43.104,12.808,macroseismic,Stations_USGS,,0.203391,0.8059,0.37044,1.0131,,,0.09875,1.0822,438.61,inferred,6.0,0.3,0.875,10.9936,1.4737,0.020605
OBS_186,Osteria di Morano PG,43.186,12.722,macroseismic,Stations_USGS,,0.203391,0.8059,0.37044,1.0131,,,0.09875,1.0822,411.3,inferred,6.0,0.3,0.875,10.9936,1.4737,0.020605
OBS_172,Piedelsasso MC,42.994,13.001,macroseismic,Stations_USGS,,0.203391,0.8059,0.37044,1.0131,,,0.09875,1.0822,426.05,inferred,6.0,0.3,0.875,10.9936,1.4737,0.020605
OBS_193,Pieve Torina MC,43.042,13.049,macroseismic,Stations_USGS,,0.195653,0.8059,0.362963,1.0131,,,0.101126,1.0822,472.8,inferred,6.0,0.3,0.875,10.9936,1.4737,0.021162
OBS_182,Muccia MC,43.081,13.043,macroseismic,Stations_USGS,,0.193953,0.8059,0.361301,1.0131,,,0.101668,1.0822,668.06,inferred,6.0,0.3,0.875,10.9936,1.4737,0.021289
OBS_81,Castel Sant'Angelo MC,43.342,13.183,macroseismic,Stations_USGS,,0.192524,0.8059,0.403563,1.0131,,,0.18382,1.0822,532.17,inferred,6.5,0.3,0.875,15.8259,1.4737,0.038842
OBS_138,Casavecchia MC,42.998,13.062,macroseismic,Stations_USGS,,0.187436,0.8059,0.354868,1.0131,,,0.10382,1.0822,491.85,inferred,6.0,0.3,0.875,10.9936,1.4737,0.021795
OBS_83,Cingoli MC,43.375,13.216,macroseismic,Stations_USGS,,0.186777,0.8059,0.397185,1.0131,,,0.187266,1.0822,645.01,inferred,,,0.875,15.8259,1.4737,0.039659
OBS_196,Pioraco MC,43.178,12.986,macroseismic,Stations_USGS,,0.185078,0.8059,0.352513,1.0131,,,0.104629,1.0822,493.96,inferred,6.0,0.3,0.875,10.9936,1.4737,0.021985
OBS_114,Treia MC,43.311,13.312,macroseismic,Stations_USGS,,0.184319,0.8059,0.394427,1.0131,,,0.188794,1.0822,366.57,inferred,6.5,0.3,0.875,15.8259,1.4737,0.040022
OBS_194,Pievebovigliana MC,43.062,13.085,macroseismic,Stations_USGS,,0.183158,0.8059,0.350586,1.0131,,,0.1053,1.0822,495.94,inferred,6.0,0.3,0.875,10.9936,1.4737,0.022143
OBS_154,Fiordimonte MC,43.036,13.088,macroseismic,Stations_USGS,,0.182915,0.8059,0.350342,1.0131,,,0.105386,1.0822,476.06,inferred,6.0,0.3,0.875,10.9936,1.4737,0.022163
OBS_212,Serradica AN,43.264,12.849,macroseismic,Stations_USGS,,0.182232,0.8059,0.349654,1.0131,,,0.105628,1.0822,428.71,inferred,6.0,0.3,0.875,10.9936,1.4737,0.02222
OBS_152,Fematre MC,42.931,13.014,macroseismic,Stations_USGS,,0.181932,0.8059,0.349351,1.0131,,,0.105734,1.0822,900.0,inferred,6.0,0.3,0.875,10.9936,1.4737,0.022245
OBS_102,Poggio San Marcello AN,43.511,13.076,macroseismic,Stations_USGS,,0.181187,0.8059,0.39089,1.0131,,,0.190787,1.0822,521.73,inferred,,,0.875,15.8259,1.4737,0.040495
OBS_184,Nemi MC,43.023,13.095,macroseismic,Stations_USGS,,0.180611,0.8059,0.348015,1.0131,,,0.106208,1.0822,560.25,inferred,6.0,0.3,0.875,10.9936,1.4737,0.022357
OBS_101,Pergola PU,43.563,12.837,macroseismic,Stations_USGS,,0.180255,0.8059,0.389831,1.0131,,,0.191391,1.0822,502.48,inferred,,,0.875,15.8259,1.4737,0.040639
OBS_80,Casebianche AP,42.832,13.481,macroseismic,Stations_USGS,,0.176027,0.8059,0.384997,1.0131,,,0.194196,1.0822,644.56,inferred,,,0.875,15.8259,1.4737,0.041307
OBS_149,Esanatoglia MC,43.251,12.948,macroseismic,Stations_USGS,,0.175888,0.8059,0.3432,1.0131,,,0.107947,1.0822,666.38,inferred,6.0,0.3,0.875,10.9936,1.4737,0.022768
OBS_167,Mergnano San Pietro MC,43.169,13.045,macroseismic,Stations_USGS,,0.17464,0.8059,0.341917,1.0131,,,0.108419,1.0822,426.04,inferred,6.0,0.3,0.875,10.9936,1.4737,0.022879
OBS_168,Mergnano San Savino MC,43.163,13.052,macroseismic,Stations_USGS,,0.174442,0.8059,0.341714,1.0131,,,0.108494,1.0822,489.6,inferred,6.0,0.3,0.875,10.9936,1.4737,0.022897
OBS_132,Borgo Sant'Antonio MC,42.943,13.084,macroseismic,Stations_USGS,,0.172892,0.8059,0.340115,1.0131,,,0.109089,1.0822,443.19,inferred,6.0,0.3,0.875,10.9936,1.4737,0.023038
OBS_220,Trevi PG,42.877,12.747,macroseismic,Stations_USGS,,0.172371,0.8059,0.339575,1.0131,,,0.109291,1.0822,858.29,inferred,6.0,0.3,0.875,10.9936,1.4737,0.023086
OBS_126,Bastia PG,43.065,12.552,macroseismic,Stations_USGS,,0.171418,0.8059,0.338586,1.0131,,,0.109664,1.0822,290.05,inferred,6.0,0.3,0.875,10.9936,1.4737,0.023174
OBS_121,Agnano MC,43.174,13.063,macroseismic,Stations_USGS,,0.170673,0.8059,0.337812,1.0131,,,0.109957,1.0822,665.8,inferred,6.0,0.3,0.875,10.9936,1.4737,0.023243
OBS_133,Buggiano PG,42.848,12.911,macroseismic,Stations_USGS,,0.168797,0.8059,0.335855,1.0131,,,0.110704,1.0822,900.0,inferred,6.0,0.3,0.875,10.9936,1.4737,0.023421
OBS_225,Valle Vegenana MC,43.174,13.078,macroseismic,Stations_USGS,,0.16829,0.8059,0.335325,1.0131,,,0.110908,1.0822,608.42,inferred,6.0,0.3,0.875,10.9936,1.4737,0.023469
OBS_219,Trebbio PG,43.172,13.087,macroseismic,Stations_USGS,,0.167225,0.8059,0.334207,1.0131,,,0.111341,1.0822,479.94,inferred,6.0,0.3,0.875,10.9936,1.4737,0.023572
OBS_218,Torrone MC,43.157,13.102,macroseismic,Stations_USGS,,0.16719,0.8059,0.33417,1.0131,,,0.111355,1.0822,532.47,inferred,6.0,0.3,0.875,10.9936,1.4737,0.023575
OBS_166,Matelica MC,43.256,13.009,macroseismic,Stations_USGS,,0.16628,0.8059,0.333213,1.0131,,,0.111728,1.0822,356.36,inferred,6.0,0.3,0.875,10.9936,1.4737,0.023663
OBS_141,Castelraimondo MC,43.209,13.057,macroseismic,Stations_USGS,,0.166272,0.8059,0.333205,1.0131,,,0.111731,1.0822,364.38,inferred,6.0,0.3,0.875,10.9936,1.4737,0.023664
OBS_223,Ussita MC,42.944,13.136,macroseismic,Stations_USGS,,0.164695,0.8059,0.33154,1.0131,,,0.112386,1.0822,801.32,inferred,6.0,0.3,0.875,10.9936,1.4737,0.02382
OBS_119,Acquacanina MC,43.029,13.175,macroseismic,Stations_USGS,,0.164049,0.8059,0.330855,1.0131,,,0.112657,1.0822,656.51,inferred,6.0,0.3,0.875,10.9936,1.4737,0.023884
OBS_161,Letegge MC,43.158,13.123,macroseismic,Stations_USGS,,0.164049,0.8059,0.330855,1.0131,,,0.112657,1.0822,900.0,inferred,6.0,0.3,0.875,10.9936,1.4737,0.023884
OBS_175,Montefalco PG,42.893,12.652,macroseismic,Stations_USGS,,0.164028,0.8059,0.330833,1.0131,,,0.112666,1.0822,333.5,inferred,6.0,0.3,0.875,10.9936,1.4737,0.023886
OBS_128,Bevagna PG,42.932,12.608,macroseismic,Stations_USGS,,0.163384,0.8059,0.330149,1.0131,,,0.112938,1.0822,255.84,inferred,6.0,0.3,0.875,10.9936,1.4737,0.023951
OBS_160,Lenano PG,42.823,12.788,macroseismic,Stations_USGS,,0.162867,0.8059,0.3296,1.0131,,,0.113157,1.0822,900.0,inferred,6.0,0.3,0.875,10.9936,1.4737,0.024003
OBS_147,Crispiero MC,43.196,13.098,macroseismic,Stations_USGS,,0.162392,0.8059,0.329095,1.0131,,,0.11336,1.0822,630.86,inferred,6.0,0.3,0.875,10.9936,1.4737,0.024051
OBS_214,Silvignano PG,42.817,12.808,macroseismic,Stations_USGS,,0.16226,0.8059,0.328954,1.0131,,,0.113416,1.0822,715.37,inferred,6.0,0.3,0.875,10.9936,1.4737,0.024065
OBS_144,Cerreto di Spoleto PG,42.819,12.917,macroseismic,Stations_USGS,,0.162078,0.8059,0.328759,1.0131,,,0.113495,1.0822,414.74,inferred,6.0,0.3,0.875,10.9936,1.4737,0.024083
OBS_136,Campello sul Clitunno PG,42.82,12.777,macroseismic,Stations_USGS,,0.161802,0.8059,0.328465,1.0131,,,0.113613,1.0822,573.84,inferred,6.0,0.3,0.875,10.9936,1.4737,0.024111
OBS_131,Borgo Cerreto PG,42.814,12.917,macroseismic,Stations_USGS,,0.161067,0.8059,0.32768,1.0131,,,0.113931,1.0822,414.74,inferred,6.0,0.3,0.875,10.9936,1.4737,0.024187
OBS_143,Cerreto d'Esi AN,43.32,12.985,macroseismic,Stations_USGS,,0.158139,0.8059,0.324534,1.0131,,,0.115219,1.0822,361.62,inferred,6.0,0.3,0.875,10.9936,1.4737,0.024494
OBS_127,Bettona PG,43.013,12.485,macroseismic,Stations_USGS,,0.157299,0.8059,0.323627,1.0131,,,0.115596,1.0822,563.29,inferred,6.0,0.3,0.875,10.9936,1.4737,0.024583
OBS_142,Castelsantangelo sul Nera MC,42.895,13.153,macroseismic,Stations_USGS,,0.156709,0.8059,0.322989,1.0131,,,0.115862,1.0822,900.0,inferred,6.0,0.3,0.875,10.9936,1.4737,0.024647
OBS_130,Borgiano MC,43.149,13.197,macroseismic,Stations_USGS,,0.155603,0.8059,0.321788,1.0131,,,0.116367,1.0822,727.44,inferred,6.0,0.3,0.875,10.9936,1.4737,0.024767
OBS_146,Costacciaro PG,43.358,12.712,macroseismic,Stations_USGS,,0.15539,0.8059,0.321556,1.0131,,,0.116464,1.0822,582.96,inferred,6.0,0.3,0.875,10.9936,1.4737,0.024791
OBS_129,Bolognola MC,42.993,13.228,macroseismic,Stations_USGS,,0.155258,0.8059,0.321412,1.0131,,,0.116525,1.0822,659.18,inferred,6.0,0.3,0.875,10.9936,1.4737,0.024805
OBS_158,Gualdo Cattaneo PG,42.911,12.556,macroseismic,Stations_USGS,,0.154988,0.8059,0.321118,1.0131,,,0.116649,1.0822,606.23,inferred,6.0,0.3,0.875,10.9936,1.4737,0.024835
OBS_213,Serrapetrona MC,43.176,13.189,macroseismic,Stations_USGS,,0.154111,0.8059,0.320162,1.0131,,,0.117056,1.0822,639.73,inferred,6.0,0.3,0.875,10.9936,1.4737,0.024932
OBS_122,Ancarano PG,42.84,13.108,macroseismic,Stations_USGS,,0.153636,0.8059,0.319642,1.0131,,,0.117278,1.0822,900.0,inferred,6.0,0.3,0.875,10.9936,1.4737,0.024985
OBS_135,Caldarola MC,43.137,13.226,macroseismic,Stations_USGS,,0.153115,0.8059,0.319072,1.0131,,,0.117522,1.0822,474.28,inferred,6.0,0.3,0.875,10.9936,1.4737,0.025043
OBS_202,Rocchetta PG,42.771,12.937,macroseismic,Stations_USGS,,0.152813,0.8059,0.318742,1.0131,,,0.117664,1.0822,900.0,inferred,6.0,0.3,0.875,10.9936,1.4737,0.025077
OBS_217,Torgiano PG,43.025,12.436,macroseismic,Stations_USGS,,0.152262,0.8059,0.318137,1.0131,,,0.117925,1.0822,269.81,inferred,6.0,0.3,0.875,10.9936,1.4737,0.025139
OBS_159,Gubbio PG,43.351,12.577,macroseismic,Stations_USGS,,0.148594,0.8059,0.314085,1.0131,,,0.1197,1.0822,646.31,inferred,6.0,0.3,0.875,10.9936,1.4737,0.025564
OBS_210,Scheggia PG,43.402,12.668,macroseismic,Stations_USGS,,0.147116,0.8059,0.312438,1.0131,,,0.120436,1.0822,566.67,inferred,6.0,0.3,0.875,10.9936,1.4737,0.02574
OBS_215,Spoleto PG,42.732,12.736,macroseismic,Stations_USGS,,0.146318,0.8059,0.311546,1.0131,,,0.120838,1.0822,433.27,inferred,6.0,0.3,0.875,10.9936,1.4737,0.025836
OBS_209,Sassoferrato AN,43.434,12.858,macroseismic,Stations_USGS,,0.145488,0.8059,0.310616,1.0131,,,0.12126,1.0822,357.96,inferred,6.0,0.3,0.875,10.9936,1.4737,0.025938
OBS_150,Falcioni AN,43.415,12.986,macroseismic,Stations_USGS,,0.144826,0.8059,0.309872,1.0131,,,0.1216,1.0822,563.1,inferred,6.0,0.3,0.875,10.9936,1.4737,0.026019
OBS_203,San Ginesio MC,43.108,13.319,macroseismic,Stations_USGS,,0.144803,0.8059,0.309847,1.0131,,,0.121612,1.0822,480.23,inferred,6.0,0.3,0.875,10.9936,1.4737,0.026022
OBS_198,Poggio San Vicino MC,43.375,13.079,macroseismic,Stations_USGS,,0.144766,0.8059,0.309805,1.0131,,,0.121631,1.0822,780.78,inferred,6.0,0.3,0.875,10.9936,1.4737,0.026026
OBS_156,Genga AN,43.429,12.935,macroseismic,Stations_USGS,,0.144751,0.8059,0.309787,1.0131,,,0.121639,1.0822,453.75,inferred,6.0,0.3,0.875,10.9936,1.4737,0.026028
OBS_199,Poggiodomo PG,42.711,12.934,macroseismic,Stations_USGS,,0.144511,0.8059,0.309517,1.0131,,,0.121762,1.0822,829.19,inferred,6.0,0.3,0.875,10.9936,1.4737,0.026058
OBS_216,Tolentino MC,43.21,13.283,macroseismic,Stations_USGS,,0.143063,0.8059,0.307883,1.0131,,,0.122516,1.0822,366.52,inferred,6.0,0.3,0.875,10.9936,1.4737,0.026239
OBS_179,Montemonaco AP,42.899,13.327,macroseismic,Stations_USGS,,0.141125,0.8059,0.305683,1.0131,,,0.123545,1.0822,297.4,inferred,6.0,0.3,0.875,10.9936,1.4737,0.026486
OBS_123,Apiro MC,43.391,13.132,macroseismic,Stations_USGS,,0.140312,0.8059,0.304756,1.0131,,,0.123983,1.0822,549.96,inferred,6.0,0.3,0.875,10.9936,1.4737,0.026591
OBS_211,Serra Sant'Abbondio PU,43.491,12.772,macroseismic,Stations_USGS,,0.13873,0.8059,0.302945,1.0131,,,0.124848,1.0822,635.34,inferred,6.0,0.3,0.875,10.9936,1.4737,0.026799
OBS_208,Sant'Angelo in Pontano MC,43.099,13.398,macroseismic,Stations_USGS,,0.138381,0.8059,0.302544,1.0131,,,0.12504,1.0822,593.64,inferred,6.0,0.3,0.875,10.9936,1.4737,0.026845
OBS_137,Cantiano PU,43.473,12.628,macroseismic,Stations_USGS,,0.137937,0.8059,0.302033,1.0131,,,0.125287,1.0822,411.17,inferred,6.0,0.3,0.875,10.9936,1.4737,0.026905
OBS_169,Mergo AN,43.471,13.037,macroseismic,Stations_USGS,,0.137254,0.8059,0.301246,1.0131,,,0.125669,1.0822,503.49,inferred,6.0,0.3,0.875,10.9936,1.4737,0.026997
OBS_124,Arcevia AN,43.499,12.94,macroseismic,Stations_USGS,,0.136971,0.8059,0.30092,1.0131,,,0.125828,1.0822,599.39,inferred,6.0,0.3,0.875,10.9936,1.4737,0.027035
OBS_207,San Martino AN,43.496,12.958,macroseismic,Stations_USGS,,0.136928,0.8059,0.30087,1.0131,,,0.125852,1.0822,544.5,inferred,6.0,0.3,0.875,10.9936,1.4737,0.027041
OBS_148,Cupramontana AN,43.445,13.116,macroseismic,Stations_USGS,,0.136613,0.8059,0.300506,1.0131,,,0.12603,1.0822,476.93,inferred,6.0,0.3,0.875,10.9936,1.4737,0.027084
OBS_155,Frontone PU,43.513,12.734,macroseismic,Stations_USGS,,0.136158,0.8059,0.299979,1.0131,,,0.126288,1.0822,513.46,inferred,6.0,0.3,0.875,10.9936,1.4737,0.027146
OBS_190,Passo di Treia MC,43.283,13.329,macroseismic,Stations_USGS,,0.135619,0.8059,0.299354,1.0131,,,0.126595,1.0822,442.94,inferred,6.0,0.3,0.875,10.9936,1.4737,0.02722
OBS_163,Loro Piceno MC,43.166,13.416,macroseismic,Stations_USGS,,0.135509,0.8059,0.299227,1.0131,,,0.126658,1.0822,409.54,inferred,6.0,0.3,0.875,10.9936,1.4737,0.027235
OBS_200,Pollenza MC,43.267,13.348,macroseismic,Stations_USGS,,0.135429,0.8059,0.299133,1.0131,,,0.126704,1.0822,518.72,inferred,6.0,0.3,0.875,10.9936,1.4737,0.027246
OBS_153,Ferentillo TR,42.62,12.791,macroseismic,Stations_USGS,,0.135028,0.8059,0.298668,1.0131,,,0.126935,1.0822,816.38,inferred,6.0,0.3,0.875,10.9936,1.4737,0.027302
OBS_191,Pescia PG,42.685,13.157,macroseismic,Stations_USGS,,0.134972,0.8059,0.298603,1.0131,,,0.126966,1.0822,510.87,inferred,6.0,0.3,0.875,10.9936,1.4737,0.027309
OBS_221,Troviggiano MC,43.375,13.258,macroseismic,Stations_USGS,,0.134533,0.8059,0.298092,1.0131,,,0.127221,1.0822,555.15,inferred,6.0,0.3,0.875,10.9936,1.4737,0.027371
OBS_164,Maiolati Spontini AN,43.476,13.12,macroseismic,Stations_USGS,,0.134027,0.8059,0.297502,1.0131,,,0.127515,1.0822,346.48,inferred,6.0,0.3,0.875,10.9936,1.4737,0.027441
OBS_176,Montefalcone Appennino AP,42.987,13.46,macroseismic,Stations_USGS,,0.134027,0.8059,0.297502,1.0131,,,0.127515,1.0822,845.19,inferred,6.0,0.3,0.875,10.9936,1.4737,0.027441
OBS_151,Falerone AP,43.107,13.472,macroseismic,Stations_USGS,,0.133133,0.8059,0.296456,1.0131,,,0.128039,1.0822,337.59,inferred,6.0,0.3,0.875,10.9936,1.4737,0.027568
OBS_197,Piticchio AN,43.539,12.974,macroseismic,Stations_USGS,,0.132789,0.8059,0.296054,1.0131,,,0.128242,1.0822,314.75,inferred,6.0,0.3,0.875,10.9936,1.4737,0.027617
OBS_171,Montappone AP,43.137,13.47,macroseismic,Stations_USGS,,0.132764,0.8059,0.296024,1.0131,,,0.128257,1.0822,358.32,inferred,6.0,0.3,0.875,10.9936,1.4737,0.027621
OBS_139,Castelbellino AN,43.486,13.145,macroseismic,Stations_USGS,,0.132412,0.8059,0.295612,1.0131,,,0.128466,1.0822,574.47,inferred,6.0,0.3,0.875,10.9936,1.4737,0.027671
OBS_189,Palmiano AP,42.899,13.458,macroseismic,Stations_USGS,,0.132319,0.8059,0.295503,1.0131,,,0.128521,1.0822,631.06,inferred,6.0,0.3,0.875,10.9936,1.4737,0.027684
OBS_165,Massa Fermana AP,43.149,13.476,macroseismic,Stations_USGS,,0.132156,0.8059,0.295311,1.0131,,,0.128618,1.0822,459.0,inferred,6.0,0.3,0.875,10.9936,1.4737,0.027708
OBS_173,Monte Vidon Corrado AP,43.121,13.486,macroseismic,Stations_USGS,,0.13206,0.8059,0.295199,1.0131,,,0.128675,1.0822,565.81,inferred,6.0,0.3,0.875,10.9936,1.4737,0.027722
OBS_134,Cagli PU,43.546,12.651,macroseismic,Stations_USGS,,0.132025,0.8059,0.295157,1.0131,,,0.128697,1.0822,390.44,inferred,6.0,0.3,0.875,10.9936,1.4737,0.027727
OBS_125,Arrone TR,42.583,12.768,macroseismic,Stations_USGS,,0.131626,0.8059,0.294688,1.0131,,,0.128935,1.0822,560.68,inferred,6.0,0.3,0.875,10.9936,1.4737,0.027784
OBS_192,Petriolo MC,43.221,13.466,macroseismic,Stations_USGS,,0.130789,0.8059,0.293701,1.0131,,,0.129441,1.0822,410.18,inferred,6.0,0.3,0.875,10.9936,1.4737,0.027906
OBS_185,Nidastore AN,43.582,12.936,macroseismic,Stations_USGS,,0.129867,0.8059,0.292611,1.0131,,,0.130003,1.0822,546.3,inferred,6.0,0.3,0.875,10.9936,1.4737,0.028042
OBS_178,Montelparo AP,43.018,13.536,macroseismic,Stations_USGS,,0.129625,0.8059,0.292324,1.0131,,,0.130152,1.0822,517.95,inferred,6.0,0.3,0.875,10.9936,1.4737,0.028078
OBS_170,Monsampietro Morico AP,43.067,13.556,macroseismic,Stations_USGS,,0.128515,0.8059,0.291006,1.0131,,,0.13084,1.0822,480.05,inferred,6.0,0.3,0.875,10.9936,1.4737,0.028245
OBS_162,Lisciano Niccone PG,43.246,12.143,macroseismic,Stations_USGS,,0.128316,0.8059,0.290769,1.0131,,,0.130964,1.0822,525.08,inferred,6.0,0.3,0.875,10.9936,1.4737,0.028275
OBS_205,San Lorenzo in Campo PU,43.604,12.947,macroseismic,Stations_USGS,,0.128116,0.8059,0.29053,1.0131,,,0.131089,1.0822,341.18,inferred,6.0,0.3,0.875,10.9936,1.4737,0.028305
OBS_140,Castelleone di Suasa AN,43.608,12.977,macroseismic,Stations_USGS,,0.127489,0.8059,0.289782,1.0131,,,0.131484,1.0822,496.39,inferred,6.0,0.3,0.875,10.9936,1.4737,0.028401
OBS_120,Acqualagna PU,43.619,12.673,macroseismic,Stations_USGS,,0.126891,0.8059,0.289067,1.0131,,,0.131863,1.0822,298.35,inferred,6.0,0.3,0.875,10.9936,1.4737,0.028492
OBS_241,Canepina MC,43.165,13.059,macroseismic,Stations_USGS,,0.126628,0.8059,0.257509,1.0131,,,0.073356,1.0822,321.39,inferred,5.5,0.3,0.875,7.6368,1.4737,0.015718
OBS_187,Ostra Vetere AN,43.603,13.059,macroseismic,Stations_USGS,,0.126585,0.8059,0.2887,1.0131,,,0.132059,1.0822,416.56,inferred,6.0,0.3,0.875,10.9936,1.4737,0.02854
OBS_174,Montedinove AP,42.97,13.588,macroseismic,Stations_USGS,,0.126494,0.8059,0.28859,1.0131,,,0.132117,1.0822,594.31,inferred,6.0,0.3,0.875,10.9936,1.4737,0.028554
OBS_195,Piobbico PU,43.589,12.512,macroseismic,Stations_USGS,,0.12618,0.8059,0.288214,1.0131,,,0.132318,1.0822,664.37,inferred,6.0,0.3,0.875,10.9936,1.4737,0.028603
OBS_145,Cittï¿½ di Castello PG,43.457,12.239,macroseismic,Stations_USGS,,0.125144,0.8059,0.286968,1.0131,,,0.132988,1.0822,290.98,inferred,6.0,0.3,0.875,10.9936,1.4737,0.028765
OBS_206,San Marcello AN,43.576,13.207,macroseismic,Stations_USGS,,0.124953,0.8059,0.286737,1.0131,,,0.133113,1.0822,353.66,inferred,6.0,0.3,0.875,10.9936,1.4737,0.028795
OBS_181,Moregnano AP,43.083,13.657,macroseismic,Stations_USGS,,0.123441,0.8059,0.284908,1.0131,,,0.13411,1.0822,554.22,inferred,6.0,0.3,0.875,10.9936,1.4737,0.029037
OBS_183,Narni TR,42.517,12.521,macroseismic,Stations_USGS,,0.123229,0.8059,0.28465,1.0131,,,0.134252,1.0822,704.96,inferred,6.0,0.3,0.875,10.9936,1.4737,0.029072
OBS_248,Cerreto di Camerino PG,43.172,13.085,macroseismic,Stations_USGS,,0.122728,0.8059,0.253309,1.0131,,,0.074776,1.0822,479.94,inferred,5.5,0.3,0.875,7.6368,1.4737,0.01606
OBS_222,Urbino PU,43.726,12.636,macroseismic,Stations_USGS,,0.120088,0.8059,0.280813,1.0131,,,0.136393,1.0822,446.38,inferred,6.0,0.3,0.875,10.9936,1.4737,0.029592
OBS_204,San Giustino PG,43.549,12.175,macroseismic,Stations_USGS,,0.119412,0.8059,0.27998,1.0131,,,0.136866,1.0822,472.48,inferred,6.0,0.3,0.875,10.9936,1.4737,0.029707
OBS_177,Montegallo AN,43.525,13.478,macroseismic,Stations_USGS,,0.119384,0.8059,0.279946,1.0131,,,0.136885,1.0822,332.64,inferred,6.0,0.3,0.875,10.9936,1.4737,0.029711
OBS_188,Otricoli TR,42.422,12.478,macroseismic,Stations_USGS,,0.117769,0.8059,0.277949,1.0131,,,0.138033,1.0822,522.59,inferred,6.0,0.3,0.875,10.9936,1.4737,0.029991
OBS_244,Castel Ritaldi PG,42.822,12.673,macroseismic,Stations_USGS,,0.114093,0.8059,0.243777,1.0131,,,0.078196,1.0822,440.21,inferred,5.5,0.3,0.875,7.6368,1.4737,0.016885
OBS_322,San Severino Marche MC,43.229,13.177,macroseismic,Stations_USGS,,0.110093,0.8059,0.239247,1.0131,,,0.079925,1.0822,603.8,inferred,5.5,0.3,0.875,7.6368,1.4737,0.017304
OBS_268,Giano dell'Umbria PG,42.833,12.578,macroseismic,Stations_USGS,,0.10955,0.8059,0.238626,1.0131,,,0.080168,1.0822,592.98,inferred,5.5,0.3,0.875,7.6368,1.4737,0.017363
OBS_309,Perugia PG,43.106,12.386,macroseismic,Stations_USGS,,0.108861,0.8059,0.237836,1.0131,,,0.080478,1.0822,600.49,inferred,5.5,0.3,0.875,7.6368,1.4737,0.017439
OBS_299,Norcia PG,42.793,13.094,macroseismic,Stations_USGS,,0.108713,0.8059,0.237666,1.0131,,,0.080545,1.0822,499.03,inferred,5.5,0.3,0.875,7.6368,1.4737,0.017455
OBS_325,Sant'Anatolia di Narco PG,42.734,12.836,macroseismic,Stations_USGS,,0.10867,0.8059,0.237616,1.0131,,,0.080565,1.0822,326.17,inferred,5.5,0.3,0.875,7.6368,1.4737,0.01746
OBS_261,Deruta PG,42.982,12.419,macroseismic,Stations_USGS,,0.108506,0.8059,0.237428,1.0131,,,0.080639,1.0822,464.63,inferred,5.5,0.3,0.875,7.6368,1.4737,0.017478
OBS_327,Sarnano MC,43.035,13.301,macroseismic,Stations_USGS,,0.108092,0.8059,0.236951,1.0131,,,0.080829,1.0822,482.86,inferred,5.5,0.3,0.875,7.6368,1.4737,0.017524
OBS_329,Scheggino PG,42.712,12.83,macroseismic,Stations_USGS,,0.106464,0.8059,0.235068,1.0131,,,0.081584,1.0822,787.09,inferred,5.5,0.3,0.875,7.6368,1.4737,0.017707
OBS_252,Collazzone PG,42.9,12.436,macroseismic,Stations_USGS,,0.10526,0.8059,0.233667,1.0131,,,0.082155,1.0822,338.55,inferred,5.5,0.3,0.875,7.6368,1.4737,0.017846
CTR,Borgo-Cerreto Torre,42.814,12.915,seismic,Stations_USGS,,0.105102,0.0,0.207143,0.0,,,0.018776,0.0,414.74,inferred,4.7,0.63,0.0,4.41,0.0,0.00301
OBS_242,Cascia PG,42.718,13.013,macroseismic,Stations_USGS,,0.104975,0.8059,0.233334,1.0131,,,0.082291,1.0822,616.78,inferred,5.5,0.3,0.875,7.6368,1.4737,0.017879
OBS_290,Montefortino AP,42.942,13.342,macroseismic,Stations_USGS,,0.103834,0.8059,0.231997,1.0131,,,0.082845,1.0822,567.59,inferred,5.5,0.3,0.875,7.6368,1.4737,0.018014
OBS_231,Amandola AP,42.98,13.357,macroseismic,Stations_USGS,,0.103707,0.8059,0.231848,1.0131,,,0.082907,1.0822,527.86,inferred,5.5,0.3,0.875,7.6368,1.4737,0.018029
OBS_331,Serra San Quirico AN,43.447,13.015,macroseismic,Stations_USGS,,0.102769,0.8059,0.230743,1.0131,,,0.08337,1.0822,834.92,inferred,5.5,0.3,0.875,7.6368,1.4737,0.018142
OBS_318,Ripe San Ginesio MC,43.142,13.367,macroseismic,Stations_USGS,,0.102372,0.8059,0.230274,1.0131,,,0.083568,1.0822,549.06,inferred,5.5,0.3,0.875,7.6368,1.4737,0.018191
OBS_254,Colmurano MC,43.163,13.358,macroseismic,Stations_USGS,,0.102343,0.8059,0.23024,1.0131,,,0.083582,1.0822,289.93,inferred,5.5,0.3,0.875,7.6368,1.4737,0.018194
OBS_258,Corciano PG,43.128,12.287,macroseismic,Stations_USGS,,0.102199,0.8059,0.230069,1.0131,,,0.083654,1.0822,584.83,inferred,5.5,0.3,0.875,7.6368,1.4737,0.018212
OBS_275,Marsciano PG,42.91,12.338,macroseismic,Stations_USGS,,0.100901,0.8059,0.228528,1.0131,,,0.084312,1.0822,376.68,inferred,5.5,0.3,0.875,7.6368,1.4737,0.018372
OBS_294,Monteleone di Spoleto PG,42.652,12.953,macroseismic,Stations_USGS,,0.100852,0.8059,0.22847,1.0131,,,0.084337,1.0822,557.77,inferred,5.5,0.3,0.875,7.6368,1.4737,0.018378
OBS_341,Valcarecce MC,43.399,13.175,macroseismic,Stations_USGS,,0.100666,0.8059,0.228249,1.0131,,,0.084433,1.0822,653.1,inferred,5.5,0.3,0.875,7.6368,1.4737,0.018402
OBS_340,Urbisaglia MC,43.196,13.377,macroseismic,Stations_USGS,,0.1004,0.8059,0.227931,1.0131,,,0.08457,1.0822,399.54,inferred,5.5,0.3,0.875,7.6368,1.4737,0.018435
OBS_338,Umbertide PG,43.305,12.331,macroseismic,Stations_USGS,,0.100268,0.8059,0.227774,1.0131,,,0.084638,1.0822,390.01,inferred,5.5,0.3,0.875,7.6368,1.4737,0.018452
OBS_308,Penna San Giovanni MC,43.056,13.426,macroseismic,Stations_USGS,,0.10016,0.8059,0.227645,1.0131,,,0.084694,1.0822,462.1,inferred,5.5,0.3,0.875,7.6368,1.4737,0.018465
OBS_255,Comunanza AP,42.959,13.414,macroseismic,Stations_USGS,,0.10015,0.8059,0.227633,1.0131,,,0.084699,1.0822,351.58,inferred,5.5,0.3,0.875,7.6368,1.4737,0.018467
OBS_281,Monte San Martino MC,43.031,13.439,macroseismic,Stations_USGS,,0.099485,0.8059,0.226837,1.0131,,,0.085046,1.0822,437.15,inferred,5.5,0.3,0.875,7.6368,1.4737,0.018551
OBS_237,Arquata del Tronto AP,42.772,13.296,macroseismic,Stations_USGS,,0.099316,0.8059,0.226635,1.0131,,,0.085134,1.0822,304.77,inferred,5.5,0.3,0.875,7.6368,1.4737,0.018573
OBS_332,Smerillo AP,43.004,13.445,macroseismic,Stations_USGS,,0.099061,0.8059,0.226328,1.0131,,,0.085269,1.0822,715.11,inferred,5.5,0.3,0.875,7.6368,1.4737,0.018606
OBS_228,Acquasparta TR,42.69,12.546,macroseismic,Stations_USGS,,0.099011,0.8059,0.226267,1.0131,,,0.085295,1.0822,417.81,inferred,5.5,0.3,0.875,7.6368,1.4737,0.018613
OBS_333,Staffolo AN,43.432,13.187,macroseismic,Stations_USGS,,0.098542,0.8059,0.225704,1.0131,,,0.085544,1.0822,338.63,inferred,5.5,0.3,0.875,7.6368,1.4737,0.018673
OBS_246,Castelplanio AN,43.493,13.082,macroseismic,Stations_USGS,,0.098147,0.8059,0.225228,1.0131,,,0.085754,1.0822,688.92,inferred,5.5,0.3,0.875,7.6368,1.4737,0.018725
OBS_272,Magione PG,43.141,12.206,macroseismic,Stations_USGS,,0.097901,0.8059,0.224931,1.0131,,,0.085886,1.0822,491.2,inferred,5.5,0.3,0.875,7.6368,1.4737,0.018757
OBS_321,San Paolo di Jesi AN,43.454,13.174,macroseismic,Stations_USGS,,0.097843,0.8059,0.22486,1.0131,,,0.085918,1.0822,644.9,inferred,5.5,0.3,0.875,7.6368,1.4737,0.018765
OBS_296,Montone PG,43.363,12.327,macroseismic,Stations_USGS,,0.097789,0.8059,0.224795,1.0131,,,0.085947,1.0822,403.24,inferred,5.5,0.3,0.875,7.6368,1.4737,0.018772
OBS_313,Pietralunga PG,43.442,12.436,macroseismic,Stations_USGS,,0.097693,0.8059,0.224679,1.0131,,,0.085999,1.0822,347.94,inferred,5.5,0.3,0.875,7.6368,1.4737,0.018785
OBS_280,Monte Roberto AN,43.481,13.139,macroseismic,Stations_USGS,,0.097421,0.8059,0.224351,1.0131,,,0.086146,1.0822,574.47,inferred,5.5,0.3,0.875,7.6368,1.4737,0.018821
OBS_291,Montefranco TR,42.597,12.766,macroseismic,Stations_USGS,,0.097269,0.8059,0.224167,1.0131,,,0.086228,1.0822,781.01,inferred,5.5,0.3,0.875,7.6368,1.4737,0.018841
OBS_226,Accumoli RI,42.694,13.248,macroseismic,Stations_USGS,,0.096961,0.8059,0.223793,1.0131,,,0.086396,1.0822,574.49,inferred,5.5,0.3,0.875,7.6368,1.4737,0.018882
OBS_324,Santa Vittoria in Matenano AP,43.018,13.496,macroseismic,Stations_USGS,,0.096696,0.8059,0.223472,1.0131,,,0.086541,1.0822,563.63,inferred,5.5,0.3,0.875,7.6368,1.4737,0.018917
OBS_284,Montecarotto AN,43.526,13.063,macroseismic,Stations_USGS,,0.096652,0.8059,0.223417,1.0131,,,0.086565,1.0822,541.07,inferred,5.5,0.3,0.875,7.6368,1.4737,0.018923
OBS_323,San Venanzo TR,42.868,12.267,macroseismic,Stations_USGS,,0.096439,0.8059,0.223158,1.0131,,,0.086682,1.0822,441.76,inferred,5.5,0.3,0.875,7.6368,1.4737,0.018952
OBS_277,Mogliano MC,43.185,13.479,macroseismic,Stations_USGS,,0.096062,0.8059,0.2227,1.0131,,,0.08689,1.0822,328.63,inferred,5.5,0.3,0.875,7.6368,1.4737,0.019003
OBS_236,Appignano MC,43.364,13.347,macroseismic,Stations_USGS,,0.095651,0.8059,0.222198,1.0131,,,0.087119,1.0822,345.45,inferred,5.5,0.3,0.875,7.6368,1.4737,0.019059
OBS_286,Montecastrilli TR,42.65,12.487,macroseismic,Stations_USGS,,0.095385,0.8059,0.221874,1.0131,,,0.087268,1.0822,344.41,inferred,5.5,0.3,0.875,7.6368,1.4737,0.019096
OBS_271,Leonessa RI,42.566,12.962,macroseismic,Stations_USGS,,0.095275,0.8059,0.221738,1.0131,,,0.08733,1.0822,828.02,inferred,5.5,0.3,0.875,7.6368,1.4737,0.019111
OBS_227,Acquasanta Terme AP,42.769,13.41,macroseismic,Stations_USGS,,0.095126,0.8059,0.221556,1.0131,,,0.087414,1.0822,560.4,inferred,5.5,0.3,0.875,7.6368,1.4737,0.019131
OBS_342,Venarotta AP,42.881,13.493,macroseismic,Stations_USGS,,0.095123,0.8059,0.221553,1.0131,,,0.087415,1.0822,586.29,inferred,5.5,0.3,0.875,7.6368,1.4737,0.019132
OBS_292,Montegiorgio AP,43.13,13.537,macroseismic,Stations_USGS,,0.0945,0.8059,0.220788,1.0131,,,0.087768,1.0822,475.15,inferred,5.5,0.3,0.875,7.6368,1.4737,0.019218
OBS_306,Passignano sul Trasimeno PG,43.187,12.136,macroseismic,Stations_USGS,,0.094498,0.8059,0.220786,1.0131,,,0.087769,1.0822,600.0,inferred,5.5,0.3,0.875,7.6368,1.4737,0.019219
OBS_240,Barbara AN,43.579,13.025,macroseismic,Stations_USGS,,0.094372,0.8059,0.220631,1.0131,,,0.087841,1.0822,424.27,inferred,5.5,0.3,0.875,7.6368,1.4737,0.019236
OBS_336,Terni TR,42.561,12.648,macroseismic,Stations_USGS,,0.094029,0.8059,0.220209,1.0131,,,0.088037,1.0822,338.86,inferred,5.5,0.3,0.875,7.6368,1.4737,0.019284
OBS_239,Avigliano Umbro TR,42.651,12.428,macroseismic,Stations_USGS,,0.093918,0.8059,0.220073,1.0131,,,0.088101,1.0822,390.86,inferred,5.5,0.3,0.875,7.6368,1.4737,0.0193
OBS_260,Corridonia MC,43.248,13.51,macroseismic,Stations_USGS,,0.093554,0.8059,0.219624,1.0131,,,0.088311,1.0822,414.27,inferred,5.5,0.3,0.875,7.6368,1.4737,0.019352
OBS_264,Filottrano AN,43.434,13.351,macroseismic,Stations_USGS,,0.093249,0.8059,0.219247,1.0131,,,0.088488,1.0822,385.14,inferred,5.5,0.3,0.875,7.6368,1.4737,0.019395
OBS_319,Rivodutri RI,42.515,12.856,macroseismic,Stations_USGS,,0.092908,0.8059,0.218825,1.0131,,,0.088687,1.0822,900.0,inferred,5.5,0.3,0.875,7.6368,1.4737,0.019444
OBS_232,Amatrice RI,42.628,13.29,macroseismic,Stations_USGS,,0.0929,0.8059,0.218815,1.0131,,,0.088692,1.0822,374.63,inferred,5.5,0.3,0.875,7.6368,1.4737,0.019445
OBS_285,Montecassiano MC,43.363,13.436,macroseismic,Stations_USGS,,0.092795,0.8059,0.218685,1.0131,,,0.088753,1.0822,452.86,inferred,5.5,0.3,0.875,7.6368,1.4737,0.01946
OBS_273,Magliano di Tenna AP,43.138,13.586,macroseismic,Stations_USGS,,0.092557,0.8059,0.218391,1.0131,,,0.088893,1.0822,483.4,inferred,5.5,0.3,0.875,7.6368,1.4737,0.019494
OBS_302,Ortezzano AP,43.031,13.609,macroseismic,Stations_USGS,,0.092157,0.8059,0.217894,1.0131,,,0.089129,1.0822,571.2,inferred,5.5,0.3,0.875,7.6368,1.4737,0.019553
OBS_235,Apecchio PU,43.559,12.42,macroseismic,Stations_USGS,,0.092052,0.8059,0.217763,1.0131,,,0.089191,1.0822,450.71,inferred,5.5,0.3,0.875,7.6368,1.4737,0.019568
OBS_312,Piegaro PG,42.97,12.086,macroseismic,Stations_USGS,,0.092048,0.8059,0.217758,1.0131,,,0.089194,1.0822,397.47,inferred,5.5,0.3,0.875,7.6368,1.4737,0.019569
OBS_279,Montalto delle Marche AP,42.988,13.609,macroseismic,Stations_USGS,,0.092019,0.8059,0.217722,1.0131,,,0.089211,1.0822,445.17,inferred,5.5,0.3,0.875,7.6368,1.4737,0.019573
OBS_337,Tuoro sul Trasimeno PG,43.208,12.072,macroseismic,Stations_USGS,,0.091915,0.8059,0.217593,1.0131,,,0.089273,1.0822,488.4,inferred,5.5,0.3,0.875,7.6368,1.4737,0.019588
OBS_238,Ascoli Piceno AP,42.853,13.578,macroseismic,Stations_USGS,,0.091547,0.8059,0.217134,1.0131,,,0.089493,1.0822,673.68,inferred,5.5,0.3,0.875,7.6368,1.4737,0.019642
OBS_288,Montefano MC,43.411,13.438,macroseismic,Stations_USGS,,0.091364,0.8059,0.216906,1.0131,,,0.089602,1.0822,284.37,inferred,5.5,0.3,0.875,7.6368,1.4737,0.019669
OBS_315,Porchia AP,42.996,13.63,macroseismic,Stations_USGS,,0.091318,0.8059,0.216848,1.0131,,,0.08963,1.0822,441.51,inferred,5.5,0.3,0.875,7.6368,1.4737,0.019676
OBS_278,Monsano AN,43.563,13.25,macroseismic,Stations_USGS,,0.091207,0.8059,0.21671,1.0131,,,0.089697,1.0822,450.83,inferred,5.5,0.3,0.875,7.6368,1.4737,0.019692
OBS_247,Castignano AP,42.937,13.622,macroseismic,Stations_USGS,,0.091191,0.8059,0.216689,1.0131,,,0.089707,1.0822,617.9,inferred,5.5,0.3,0.875,7.6368,1.4737,0.019695
OBS_305,Ostra AN,43.612,13.158,macroseismic,Stations_USGS,,0.090913,0.8059,0.216342,1.0131,,,0.089875,1.0822,425.26,inferred,5.5,0.3,0.875,7.6368,1.4737,0.019736
OBS_259,Corinaldo AN,43.649,13.048,macroseismic,Stations_USGS,,0.090763,0.8059,0.216155,1.0131,,,0.089966,1.0822,453.14,inferred,5.5,0.3,0.875,7.6368,1.4737,0.019758
OBS_311,Petritoli AP,43.067,13.656,macroseismic,Stations_USGS,,0.090507,0.8059,0.215834,1.0131,,,0.090121,1.0822,410.34,inferred,5.5,0.3,0.875,7.6368,1.4737,0.019797
OBS_297,Morro d'Alba AN,43.601,13.214,macroseismic,Stations_USGS,,0.090429,0.8059,0.215737,1.0131,,,0.090169,1.0822,417.02,inferred,5.5,0.3,0.875,7.6368,1.4737,0.019808
OBS_283,Monte Santa Maria Tiberina PG,43.437,12.162,macroseismic,Stations_USGS,,0.090277,0.8059,0.215545,1.0131,,,0.090262,1.0822,570.49,inferred,5.5,0.3,0.875,7.6368,1.4737,0.019831
OBS_266,Fossombrone PU,43.688,12.81,macroseismic,Stations_USGS,,0.090196,0.8059,0.215443,1.0131,,,0.090312,1.0822,614.71,inferred,5.5,0.3,0.875,7.6368,1.4737,0.019844
OBS_262,Fermignano PU,43.675,12.647,macroseismic,Stations_USGS,,0.090147,0.8059,0.215382,1.0131,,,0.090342,1.0822,553.57,inferred,5.5,0.3,0.875,7.6368,1.4737,0.019851
OBS_298,Morrovalle MC,43.314,13.58,macroseismic,Stations_USGS,,0.08991,0.8059,0.215084,1.0131,,,0.090488,1.0822,349.15,inferred,5.5,0.3,0.875,7.6368,1.4737,0.019887
OBS_293,Montegranaro AP,43.233,13.633,macroseismic,Stations_USGS,,0.089818,0.8059,0.214968,1.0131,,,0.090545,1.0822,337.73,inferred,5.5,0.3,0.875,7.6368,1.4737,0.019901
OBS_295,Montelupone MC,43.343,13.568,macroseismic,Stations_USGS,,0.089601,0.8059,0.214695,1.0131,,,0.090679,1.0822,431.32,inferred,5.5,0.3,0.875,7.6368,1.4737,0.019934
OBS_282,Monte San Vito AN,43.601,13.271,macroseismic,Stations_USGS,,0.08942,0.8059,0.214467,1.0131,,,0.090792,1.0822,480.69,inferred,5.5,0.3,0.875,7.6368,1.4737,0.019962
OBS_339,Urbania PU,43.668,12.523,macroseismic,Stations_USGS,,0.089257,0.8059,0.214261,1.0131,,,0.090893,1.0822,295.02,inferred,5.5,0.3,0.875,7.6368,1.4737,0.019987
OBS_250,Cittdella Pieve PG,42.952,12.004,macroseismic,Stations_USGS,,0.089194,0.8059,0.214181,1.0131,,,0.090933,1.0822,625.17,inferred,5.5,0.3,0.875,7.6368,1.4737,0.019997
OBS_276,Micigliano RI,42.451,13.055,macroseismic,Stations_USGS,,0.089052,0.8059,0.214003,1.0131,,,0.091021,1.0822,877.43,inferred,5.5,0.3,0.875,7.6368,1.4737,0.020018
OBS_300,Offida AP,42.935,13.691,macroseismic,Stations_USGS,,0.088964,0.8059,0.213892,1.0131,,,0.091076,1.0822,546.66,inferred,5.5,0.3,0.875,7.6368,1.4737,0.020032
OBS_243,Castel Colonna AN,43.679,13.107,macroseismic,Stations_USGS,,0.088893,0.8059,0.213801,1.0131,,,0.091121,1.0822,484.91,inferred,5.5,0.3,0.875,7.6368,1.4737,0.020043
OBS_230,Alviano TR,42.59,12.297,macroseismic,Stations_USGS,,0.088738,0.8059,0.213606,1.0131,,,0.091218,1.0822,861.97,inferred,5.5,0.3,0.875,7.6368,1.4737,0.020067
OBS_304,Osimo AN,43.485,13.483,macroseismic,Stations_USGS,,0.088309,0.8059,0.213062,1.0131,,,0.09149,1.0822,350.94,inferred,5.5,0.3,0.875,7.6368,1.4737,0.020134
OBS_289,Montefelcino PU,43.734,12.834,macroseismic,Stations_USGS,,0.088238,0.8059,0.212972,1.0131,,,0.091535,1.0822,513.02,inferred,5.5,0.3,0.875,7.6368,1.4737,0.020145
OBS_263,Fermo AP,43.16,13.716,macroseismic,Stations_USGS,,0.088166,0.8059,0.212881,1.0131,,,0.091581,1.0822,509.74,inferred,5.5,0.3,0.875,7.6368,1.4737,0.020156
OBS_269,Isola del Piano PU,43.736,12.783,macroseismic,Stations_USGS,,0.08814,0.8059,0.212848,1.0131,,,0.091597,1.0822,454.63,inferred,5.5,0.3,0.875,7.6368,1.4737,0.02016
OBS_326,Sant'Angelo in Vado PU,43.664,12.411,macroseismic,Stations_USGS,,0.087955,0.8059,0.212612,1.0131,,,0.091716,1.0822,432.05,inferred,5.5,0.3,0.875,7.6368,1.4737,0.02019
OBS_274,Maltignano AP,42.831,13.687,macroseismic,Stations_USGS,,0.087937,0.8059,0.212589,1.0131,,,0.091727,1.0822,583.76,inferred,5.5,0.3,0.875,7.6368,1.4737,0.020192
OBS_316,Rieti RI,42.404,12.867,macroseismic,Stations_USGS,,0.087925,0.8059,0.212575,1.0131,,,0.091734,1.0822,484.05,inferred,5.5,0.3,0.875,7.6368,1.4737,0.020194
OBS_307,Peglio PU,43.695,12.496,macroseismic,Stations_USGS,,0.087923,0.8059,0.212572,1.0131,,,0.091736,1.0822,563.48,inferred,5.5,0.3,0.875,7.6368,1.4737,0.020195
OBS_257,Configni RI,42.423,12.643,macroseismic,Stations_USGS,,0.087889,0.8059,0.212528,1.0131,,,0.091758,1.0822,900.0,inferred,5.5,0.3,0.875,7.6368,1.4737,0.0202
OBS_303,Orvieto TR,42.719,12.113,macroseismic,Stations_USGS,,0.087758,0.8059,0.212362,1.0131,,,0.091841,1.0822,437.51,inferred,5.5,0.3,0.875,7.6368,1.4737,0.020221
OBS_249,Citerna PG,43.498,12.116,macroseismic,Stations_USGS,,0.087603,0.8059,0.212165,1.0131,,,0.091941,1.0822,357.17,inferred,5.5,0.3,0.875,7.6368,1.4737,0.020245
OBS_234,Antrodoco RI,42.415,13.076,macroseismic,Stations_USGS,,0.087489,0.8059,0.21202,1.0131,,,0.092014,1.0822,461.24,inferred,5.5,0.3,0.875,7.6368,1.4737,0.020263
OBS_245,Castelfidardo AN,43.463,13.55,macroseismic,Stations_USGS,,0.087247,0.8059,0.211711,1.0131,,,0.092171,1.0822,378.68,inferred,5.5,0.3,0.875,7.6368,1.4737,0.020302
OBS_317,Ripatransone AP,42.999,13.762,macroseismic,Stations_USGS,,0.087221,0.8059,0.211678,1.0131,,,0.092188,1.0822,684.1,inferred,5.5,0.3,0.875,7.6368,1.4737,0.020306
OBS_251,Cittaducale RI,42.386,12.949,macroseismic,Stations_USGS,,0.087078,0.8059,0.211495,1.0131,,,0.092281,1.0822,468.7,inferred,5.5,0.3,0.875,7.6368,1.4737,0.020329
OBS_233,Ancarano TE,42.837,13.742,macroseismic,Stations_USGS,,0.086552,0.8059,0.210823,1.0131,,,0.092624,1.0822,452.16,inferred,5.5,0.3,0.875,7.6368,1.4737,0.020414
OBS_229,Allerona TR,42.812,11.974,macroseismic,Stations_USGS,,0.086389,0.8059,0.210614,1.0131,,,0.092731,1.0822,498.19,inferred,5.5,0.3,0.875,7.6368,1.4737,0.02044
OBS_310,Petriano PU,43.78,12.734,macroseismic,Stations_USGS,,0.086364,0.8059,0.210582,1.0131,,,0.092747,1.0822,473.97,inferred,5.5,0.3,0.875,7.6368,1.4737,0.020444
OBS_330,Senigallia AN,43.714,13.223,macroseismic,Stations_USGS,,0.086302,0.8059,0.210502,1.0131,,,0.092788,1.0822,244.48,inferred,5.5,0.3,0.875,7.6368,1.4737,0.020454
OBS_301,Orte VT,42.46,12.385,macroseismic,Stations_USGS,,0.086301,0.8059,0.210501,1.0131,,,0.092789,1.0822,510.62,inferred,5.5,0.3,0.875,7.6368,1.4737,0.020455
OBS_320,San Costanzo PU,43.763,13.07,macroseismic,Stations_USGS,,0.086135,0.8059,0.210289,1.0131,,,0.092898,1.0822,373.2,inferred,5.5,0.3,0.875,7.6368,1.4737,0.020482
OBS_334,Tarano RI,42.355,12.596,macroseismic,Stations_USGS,,0.085144,0.8059,0.209012,1.0131,,,0.09356,1.0822,446.6,inferred,5.5,0.3,0.875,7.6368,1.4737,0.020645
OBS_287,Monteciccardo PU,43.819,12.809,macroseismic,Stations_USGS,,0.085086,0.8059,0.208938,1.0131,,,0.093598,1.0822,437.46,inferred,5.5,0.3,0.875,7.6368,1.4737,0.020655
OBS_328,Sassocorvaro PU,43.78,12.496,macroseismic,Stations_USGS,,0.085014,0.8059,0.208845,1.0131,,,0.093647,1.0822,722.36,inferred,5.5,0.3,0.875,7.6368,1.4737,0.020667
OBS_256,Concerviano RI,42.322,12.986,macroseismic,Stations_USGS,,0.084701,0.8059,0.20844,1.0131,,,0.093859,1.0822,708.1,inferred,5.5,0.3,0.875,7.6368,1.4737,0.020719
OBS_335,Teramo TE,42.659,13.704,macroseismic,Stations_USGS,,0.084676,0.8059,0.208409,1.0131,,,0.093876,1.0822,445.25,inferred,5.5,0.3,0.875,7.6368,1.4737,0.020723
OBS_314,Poggio Catino RI,42.295,12.692,macroseismic,Stations_USGS,,0.083733,0.8059,0.207184,1.0131,,,0.094523,1.0822,900.0,inferred,5.5,0.3,0.875,7.6368,1.4737,0.020884
OBS_265,Forano RI,42.297,12.595,macroseismic,Stations_USGS,,0.083322,0.8059,0.20665,1.0131,,,0.094808,1.0822,380.69,inferred,5.5,0.3,0.875,7.6368,1.4737,0.020954
OBS_270,L'Aquila AQ,42.356,13.396,macroseismic,Stations_USGS,,0.082456,0.8059,0.205517,1.0131,,,0.095417,1.0822,478.16,inferred,5.5,0.3,0.875,7.6368,1.4737,0.021105
OBS_267,Gemmano RN,43.904,12.583,macroseismic,Stations_USGS,,0.081853,0.8059,0.204725,1.0131,,,0.095848,1.0822,615.2,inferred,5.5,0.3,0.875,7.6368,1.4737,0.021212
OBS_486,Vallo di Nera PG,42.754,12.865,macroseismic,Stations_USGS,,0.081216,0.8059,0.181828,1.0131,,,0.053508,1.0822,900.0,inferred,5.0,0.3,0.875,5.305,1.4737,0.011748
OBS_253,Collecorvino PE,42.458,14.015,macroseismic,Stations_USGS,,0.076667,0.8059,0.197802,1.0131,,,0.099771,1.0822,318.53,inferred,5.5,0.3,0.875,7.6368,1.4737,0.022187
OBS_410,Massa Martana PG,42.775,12.525,macroseismic,Stations_USGS,,0.075561,0.8059,0.175057,1.0131,,,0.055928,1.0822,501.28,inferred,5.0,0.3,0.875,5.305,1.4737,0.012345
OBS_461,Rosora AN,43.482,13.069,macroseismic,Stations_USGS,,0.072603,0.8059,0.171421,1.0131,,,0.057314,1.0822,607.7,inferred,5.0,0.3,0.875,5.305,1.4737,0.012689
OBS_481,Todi PG,42.781,12.407,macroseismic,Stations_USGS,,0.072153,0.8059,0.170862,1.0131,,,0.057533,1.0822,460.84,inferred,5.0,0.3,0.875,5.305,1.4737,0.012743
OBS_444,Polino TR,42.585,12.844,macroseismic,Stations_USGS,,0.070934,0.8059,0.169337,1.0131,,,0.058137,1.0822,900.0,inferred,5.0,0.3,0.875,5.305,1.4737,0.012893
OBS_388,Force AP,42.963,13.491,macroseismic,Stations_USGS,,0.070706,0.8059,0.169052,1.0131,,,0.058252,1.0822,550.96,inferred,5.0,0.3,0.875,5.305,1.4737,0.012921
OBS_474,Serra de' Conti AN,43.543,13.037,macroseismic,Stations_USGS,,0.070437,0.8059,0.168713,1.0131,,,0.058388,1.0822,572.74,inferred,5.0,0.3,0.875,5.305,1.4737,0.012955
OBS_459,Roccafluvione AP,42.861,13.475,macroseismic,Stations_USGS,,0.069887,0.8059,0.168019,1.0131,,,0.058669,1.0822,556.36,inferred,5.0,0.3,0.875,5.305,1.4737,0.013025
OBS_374,Cittareale RI,42.617,13.16,macroseismic,Stations_USGS,,0.069717,0.8059,0.167805,1.0131,,,0.058757,1.0822,581.57,inferred,5.0,0.3,0.875,5.305,1.4737,0.013047
OBS_466,San Gemini TR,42.613,12.547,macroseismic,Stations_USGS,,0.069588,0.8059,0.167641,1.0131,,,0.058824,1.0822,446.38,inferred,5.0,0.3,0.875,5.305,1.4737,0.013064
OBS_350,Belmonte Piceno AP,43.091,13.54,macroseismic,Stations_USGS,,0.069372,0.8059,0.167367,1.0131,,,0.058936,1.0822,397.5,inferred,5.0,0.3,0.875,5.305,1.4737,0.013092
OBS_405,Macerata MC,43.299,13.452,macroseismic,Stations_USGS,,0.069032,0.8059,0.166935,1.0131,,,0.059114,1.0822,405.58,inferred,5.0,0.3,0.875,5.305,1.4737,0.013136
OBS_389,Francavilla d'Ete AP,43.19,13.54,macroseismic,Stations_USGS,,0.068561,0.8059,0.166336,1.0131,,,0.059362,1.0822,394.49,inferred,5.0,0.3,0.875,5.305,1.4737,0.013198
OBS_462,Rotella AP,42.954,13.561,macroseismic,Stations_USGS,,0.068532,0.8059,0.166298,1.0131,,,0.059378,1.0822,659.59,inferred,5.0,0.3,0.875,5.305,1.4737,0.013202
OBS_399,Labro RI,42.525,12.8,macroseismic,Stations_USGS,,0.068383,0.8059,0.166108,1.0131,,,0.059457,1.0822,512.36,inferred,5.0,0.3,0.875,5.305,1.4737,0.013221
OBS_433,Panicale PG,43.028,12.099,macroseismic,Stations_USGS,,0.068224,0.8059,0.165905,1.0131,,,0.059542,1.0822,545.06,inferred,5.0,0.3,0.875,5.305,1.4737,0.013243
OBS_398,Jesi AN,43.522,13.245,macroseismic,Stations_USGS,,0.068068,0.8059,0.165706,1.0131,,,0.059625,1.0822,426.6,inferred,5.0,0.3,0.875,5.305,1.4737,0.013263
OBS_469,Santa Maria Nuova AN,43.495,13.31,macroseismic,Stations_USGS,,0.067644,0.8059,0.165162,1.0131,,,0.059854,1.0822,401.6,inferred,5.0,0.3,0.875,5.305,1.4737,0.01332
OBS_417,Monte San Pietrangeli AP,43.192,13.578,macroseismic,Stations_USGS,,0.067542,0.8059,0.165032,1.0131,,,0.059909,1.0822,462.12,inferred,5.0,0.3,0.875,5.305,1.4737,0.013334
OBS_395,Grottazzolina AP,43.111,13.603,macroseismic,Stations_USGS,,0.067516,0.8059,0.164997,1.0131,,,0.059924,1.0822,463.86,inferred,5.0,0.3,0.875,5.305,1.4737,0.013338
OBS_453,Rapagnano AP,43.161,13.593,macroseismic,Stations_USGS,,0.06745,0.8059,0.164913,1.0131,,,0.05996,1.0822,515.89,inferred,5.0,0.3,0.875,5.305,1.4737,0.013347
OBS_377,Colli sul Velino RI,42.498,12.779,macroseismic,Stations_USGS,,0.067339,0.8059,0.164771,1.0131,,,0.06002,1.0822,462.83,inferred,5.0,0.3,0.875,5.305,1.4737,0.013362
OBS_450,Posta RI,42.524,13.097,macroseismic,Stations_USGS,,0.067227,0.8059,0.164626,1.0131,,,0.060081,1.0822,246.17,inferred,5.0,0.3,0.875,5.305,1.4737,0.013377
OBS_367,Castiglione del Lago PG,43.126,12.051,macroseismic,Stations_USGS,,0.067146,0.8059,0.164522,1.0131,,,0.060126,1.0822,263.92,inferred,5.0,0.3,0.875,5.305,1.4737,0.013388
OBS_419,Monte Vidon Combatte AP,43.05,13.631,macroseismic,Stations_USGS,,0.066945,0.8059,0.16374,1.0131,,,0.060236,1.0822,530.76,inferred,5.0,0.3,0.875,5.305,1.4737,0.013416
OBS_485,Valle Castellana TE,42.735,13.498,macroseismic,Stations_USGS,,0.066927,0.8059,0.163682,1.0131,,,0.060246,1.0822,524.12,inferred,5.0,0.3,0.875,5.305,1.4737,0.013418
OBS_482,Torre San Patrizio AP,43.184,13.608,macroseismic,Stations_USGS,,0.066874,0.8059,0.163515,1.0131,,,0.060276,1.0822,286.06,inferred,5.0,0.3,0.875,5.305,1.4737,0.013426
OBS_415,Monte Giberto AP,43.091,13.631,macroseismic,Stations_USGS,,0.066872,0.8059,0.163511,1.0131,,,0.060276,1.0822,364.88,inferred,5.0,0.3,0.875,5.305,1.4737,0.013426
OBS_479,Stroncone TR,42.498,12.662,macroseismic,Stations_USGS,,0.06678,0.8059,0.16322,1.0131,,,0.060328,1.0822,618.52,inferred,5.0,0.3,0.875,5.305,1.4737,0.013439
OBS_434,Parrano TR,42.863,12.106,macroseismic,Stations_USGS,,0.06658,0.8059,0.162591,1.0131,,,0.060439,1.0822,726.48,inferred,5.0,0.3,0.875,5.305,1.4737,0.013466
OBS_352,Borbona RI,42.512,13.137,macroseismic,Stations_USGS,,0.066472,0.8059,0.162251,1.0131,,,0.060499,1.0822,546.41,inferred,5.0,0.3,0.875,5.305,1.4737,0.013481
OBS_473,Sant'Ippolito PU,43.684,12.872,macroseismic,Stations_USGS,,0.066164,0.8059,0.161283,1.0131,,,0.060671,1.0822,456.87,inferred,5.0,0.3,0.875,5.305,1.4737,0.013524
OBS_446,Ponzano di Fermo AP,43.102,13.659,macroseismic,Stations_USGS,,0.066147,0.8059,0.16123,1.0131,,,0.060681,1.0822,364.4,inferred,5.0,0.3,0.875,5.305,1.4737,0.013527
OBS_424,Monteleone d'Orvieto TR,42.917,12.051,macroseismic,Stations_USGS,,0.066053,0.8059,0.160934,1.0131,,,0.060734,1.0822,581.9,inferred,5.0,0.3,0.875,5.305,1.4737,0.01354
OBS_345,Amelia TR,42.558,12.413,macroseismic,Stations_USGS,,0.065952,0.8059,0.16062,1.0131,,,0.06079,1.0822,410.6,inferred,5.0,0.3,0.875,5.305,1.4737,0.013554
OBS_432,Orciano di Pesaro PU,43.688,12.966,macroseismic,Stations_USGS,,0.065742,0.8059,0.159962,1.0131,,,0.060909,1.0822,456.63,inferred,5.0,0.3,0.875,5.305,1.4737,0.013584
OBS_397,Guardea TR,42.622,12.298,macroseismic,Stations_USGS,,0.065727,0.8059,0.159913,1.0131,,,0.060918,1.0822,626.53,inferred,5.0,0.3,0.875,5.305,1.4737,0.013586
OBS_401,Lisciano RI,42.448,12.918,macroseismic,Stations_USGS,,0.065689,0.8059,0.159795,1.0131,,,0.06094,1.0822,819.61,inferred,5.0,0.3,0.875,5.305,1.4737,0.013591
OBS_445,Polverigi AN,43.525,13.394,macroseismic,Stations_USGS,,0.065452,0.8059,0.159052,1.0131,,,0.061075,1.0822,519.3,inferred,5.0,0.3,0.875,5.305,1.4737,0.013625
OBS_387,Folignano AP,42.82,13.633,macroseismic,Stations_USGS,,0.065415,0.8059,0.158937,1.0131,,,0.061096,1.0822,550.79,inferred,5.0,0.3,0.875,5.305,1.4737,0.013631
OBS_458,Rocca Santa Maria TE,42.686,13.528,macroseismic,Stations_USGS,,0.065378,0.8059,0.158821,1.0131,,,0.061117,1.0822,590.82,inferred,5.0,0.3,0.875,5.305,1.4737,0.013636
OBS_385,Ficulle TR,42.835,12.066,macroseismic,Stations_USGS,,0.06532,0.8059,0.158641,1.0131,,,0.06115,1.0822,563.01,inferred,5.0,0.3,0.875,5.305,1.4737,0.013644
OBS_349,Baschi TR,42.669,12.216,macroseismic,Stations_USGS,,0.065226,0.8059,0.158345,1.0131,,,0.061204,1.0822,270.05,inferred,5.0,0.3,0.875,5.305,1.4737,0.013658
OBS_418,Monte Urano AP,43.202,13.673,macroseismic,Stations_USGS,,0.065219,0.8059,0.158325,1.0131,,,0.061208,1.0822,528.04,inferred,5.0,0.3,0.875,5.305,1.4737,0.013659
OBS_454,Recanati MC,43.403,13.55,macroseismic,Stations_USGS,,0.06493,0.8059,0.157422,1.0131,,,0.061375,1.0822,434.88,inferred,5.0,0.3,0.875,5.305,1.4737,0.0137
OBS_357,Camerata Picena AN,43.578,13.353,macroseismic,Stations_USGS,,0.064924,0.8059,0.157401,1.0131,,,0.061379,1.0822,444.0,inferred,5.0,0.3,0.875,5.305,1.4737,0.013701
OBS_359,Capitignano AQ,42.52,13.301,macroseismic,Stations_USGS,,0.064883,0.8059,0.157275,1.0131,,,0.061402,1.0822,646.02,inferred,5.0,0.3,0.875,5.305,1.4737,0.013707
OBS_467,San Giorgio di Pesaro PU,43.718,12.981,macroseismic,Stations_USGS,,0.064767,0.8059,0.156913,1.0131,,,0.06147,1.0822,366.86,inferred,5.0,0.3,0.875,5.305,1.4737,0.013724
OBS_426,Monterado AN,43.697,13.092,macroseismic,Stations_USGS,,0.064727,0.8059,0.156788,1.0131,,,0.061493,1.0822,542.92,inferred,5.0,0.3,0.875,5.305,1.4737,0.01373
OBS_422,Montecosaro MC,43.316,13.636,macroseismic,Stations_USGS,,0.064719,0.8059,0.156763,1.0131,,,0.061498,1.0822,545.47,inferred,5.0,0.3,0.875,5.305,1.4737,0.013731
OBS_472,Sant'Elpidio a Mare AP,43.229,13.686,macroseismic,Stations_USGS,,0.064707,0.8059,0.156723,1.0131,,,0.061505,1.0822,412.78,inferred,5.0,0.3,0.875,5.305,1.4737,0.013733
OBS_384,Fabro TR,42.863,12.013,macroseismic,Stations_USGS,,0.064628,0.8059,0.15648,1.0131,,,0.061551,1.0822,530.78,inferred,5.0,0.3,0.875,5.305,1.4737,0.013744
OBS_368,Castiglione in Teverina VT,42.646,12.204,macroseismic,Stations_USGS,,0.064597,0.8059,0.156383,1.0131,,,0.061569,1.0822,480.38,inferred,5.0,0.3,0.875,5.305,1.4737,0.013749
OBS_429,Moresco AP,43.085,13.732,macroseismic,Stations_USGS,,0.064536,0.8059,0.156191,1.0131,,,0.061605,1.0822,762.43,inferred,5.0,0.3,0.875,5.305,1.4737,0.013758
OBS_378,Contigliano RI,42.411,12.769,macroseismic,Stations_USGS,,0.064527,0.8059,0.156165,1.0131,,,0.06161,1.0822,691.13,inferred,5.0,0.3,0.875,5.305,1.4737,0.013759
OBS_380,Cortino TE,42.622,13.509,macroseismic,Stations_USGS,,0.064434,0.8059,0.155874,1.0131,,,0.061664,1.0822,584.59,inferred,5.0,0.3,0.875,5.305,1.4737,0.013773
OBS_438,Piagge PU,43.732,12.969,macroseismic,Stations_USGS,,0.064411,0.8059,0.155802,1.0131,,,0.061678,1.0822,294.79,inferred,5.0,0.3,0.875,5.305,1.4737,0.013776
OBS_364,Castel di Lama AP,42.873,13.707,macroseismic,Stations_USGS,,0.0644,0.8059,0.155767,1.0131,,,0.061684,1.0822,487.83,inferred,5.0,0.3,0.875,5.305,1.4737,0.013778
OBS_451,Potenza Picena MC,43.366,13.621,macroseismic,Stations_USGS,,0.06428,0.8059,0.155394,1.0131,,,0.061755,1.0822,396.89,inferred,5.0,0.3,0.875,5.305,1.4737,0.013795
OBS_369,Castorano AP,42.898,13.727,macroseismic,Stations_USGS,,0.064176,0.8059,0.15507,1.0131,,,0.061816,1.0822,517.39,inferred,5.0,0.3,0.875,5.305,1.4737,0.013811
OBS_381,Cottanello RI,42.406,12.686,macroseismic,Stations_USGS,,0.064118,0.8059,0.154891,1.0131,,,0.06185,1.0822,788.08,inferred,5.0,0.3,0.875,5.305,1.4737,0.013819
OBS_412,Mercatello sul Metauro PU,43.647,12.337,macroseismic,Stations_USGS,,0.064035,0.8059,0.154631,1.0131,,,0.0619,1.0822,472.92,inferred,5.0,0.3,0.875,5.305,1.4737,0.013832
OBS_382,Crognaleto TE,42.587,13.49,macroseismic,Stations_USGS,,0.064004,0.8059,0.154535,1.0131,,,0.061918,1.0822,443.18,inferred,5.0,0.3,0.875,5.305,1.4737,0.013836
OBS_362,Cartoceto PU,43.765,12.883,macroseismic,Stations_USGS,,0.063708,0.8059,0.153617,1.0131,,,0.062094,1.0822,471.48,inferred,5.0,0.3,0.875,5.305,1.4737,0.01388
OBS_436,Penna in Teverina TR,42.493,12.355,macroseismic,Stations_USGS,,0.063637,0.8059,0.153394,1.0131,,,0.062137,1.0822,536.48,inferred,5.0,0.3,0.875,5.305,1.4737,0.013891
OBS_448,Porano TR,42.686,12.102,macroseismic,Stations_USGS,,0.06356,0.8059,0.153155,1.0131,,,0.062183,1.0822,493.13,inferred,5.0,0.3,0.875,5.305,1.4737,0.013903
OBS_348,Barete AQ,42.45,13.283,macroseismic,Stations_USGS,,0.063376,0.8059,0.152586,1.0131,,,0.062293,1.0822,900.0,inferred,5.0,0.3,0.875,5.305,1.4737,0.01393
OBS_355,Calvi dell'Umbria TR,42.401,12.567,macroseismic,Stations_USGS,,0.063346,0.8059,0.152491,1.0131,,,0.062312,1.0822,700.5,inferred,5.0,0.3,0.875,5.305,1.4737,0.013935
OBS_484,Vacone RI,42.384,12.645,macroseismic,Stations_USGS,,0.063343,0.8059,0.152484,1.0131,,,0.062313,1.0822,900.0,inferred,5.0,0.3,0.875,5.305,1.4737,0.013935
OBS_393,Graffignano VT,42.575,12.205,macroseismic,Stations_USGS,,0.063326,0.8059,0.152432,1.0131,,,0.062323,1.0822,385.03,inferred,5.0,0.3,0.875,5.305,1.4737,0.013938
OBS_372,Cetona SI,42.963,11.902,macroseismic,Stations_USGS,,0.063326,0.8059,0.152432,1.0131,,,0.062323,1.0822,513.09,inferred,5.0,0.3,0.875,5.305,1.4737,0.013938
OBS_353,Borgo Pace PU,43.658,12.295,macroseismic,Stations_USGS,,0.063301,0.8059,0.152354,1.0131,,,0.062338,1.0822,409.08,inferred,5.0,0.3,0.875,5.305,1.4737,0.013942
OBS_468,Sansepolcro AR,43.57,12.141,macroseismic,Stations_USGS,,0.063202,0.8059,0.152046,1.0131,,,0.062398,1.0822,403.69,inferred,5.0,0.3,0.875,5.305,1.4737,0.013957
OBS_404,Lunano PU,43.728,12.44,macroseismic,Stations_USGS,,0.063118,0.8059,0.151785,1.0131,,,0.062449,1.0822,587.06,inferred,5.0,0.3,0.875,5.305,1.4737,0.013969
OBS_375,Civitanova Marche MC,43.307,13.73,macroseismic,Stations_USGS,,0.063087,0.8059,0.151688,1.0131,,,0.062468,1.0822,253.61,inferred,5.0,0.3,0.875,5.305,1.4737,0.013974
OBS_439,Piandimeleto PU,43.724,12.414,macroseismic,Stations_USGS,,0.062997,0.8059,0.15141,1.0131,,,0.062523,1.0822,410.38,inferred,5.0,0.3,0.875,5.305,1.4737,0.013988
OBS_449,Porto San Giorgio AP,43.18,13.794,macroseismic,Stations_USGS,,0.062928,0.8059,0.151197,1.0131,,,0.062565,1.0822,483.35,inferred,5.0,0.3,0.875,5.305,1.4737,0.013998
OBS_356,Camerano AN,43.53,13.551,macroseismic,Stations_USGS,,0.062848,0.8059,0.150951,1.0131,,,0.062613,1.0822,465.52,inferred,5.0,0.3,0.875,5.305,1.4737,0.014011
OBS_440,Pizzoli AQ,42.435,13.303,macroseismic,Stations_USGS,,0.062839,0.8059,0.150923,1.0131,,,0.062619,1.0822,612.46,inferred,5.0,0.3,0.875,5.305,1.4737,0.014012
OBS_343,Acquaviva Picena AP,42.944,13.814,macroseismic,Stations_USGS,,0.062714,0.8059,0.150535,1.0131,,,0.062696,1.0822,283.75,inferred,5.0,0.3,0.875,5.305,1.4737,0.014031
OBS_420,Montebuono RI,42.367,12.597,macroseismic,Stations_USGS,,0.062673,0.8059,0.150408,1.0131,,,0.062721,1.0822,599.92,inferred,5.0,0.3,0.875,5.305,1.4737,0.014038
OBS_346,Anghiari AR,43.541,12.054,macroseismic,Stations_USGS,,0.062509,0.8059,0.149903,1.0131,,,0.062821,1.0822,355.89,inferred,5.0,0.3,0.875,5.305,1.4737,0.014063
OBS_435,Pedaso AP,43.097,13.841,macroseismic,Stations_USGS,,0.062353,0.8059,0.14942,1.0131,,,0.062918,1.0822,365.62,inferred,5.0,0.3,0.875,5.305,1.4737,0.014087
OBS_416,Monte San Giovanni in Sabina RI,42.328,12.777,macroseismic,Stations_USGS,,0.062314,0.8059,0.149301,1.0131,,,0.062942,1.0822,425.81,inferred,5.0,0.3,0.875,5.305,1.4737,0.014093
OBS_363,Casperia RI,42.338,12.67,macroseismic,Stations_USGS,,0.062287,0.8059,0.149216,1.0131,,,0.062959,1.0822,598.77,inferred,5.0,0.3,0.875,5.305,1.4737,0.014097
OBS_476,Sestino AR,43.708,12.297,macroseismic,Stations_USGS,,0.062262,0.8059,0.14914,1.0131,,,0.062974,1.0822,410.8,inferred,5.0,0.3,0.875,5.305,1.4737,0.014101
OBS_421,Montecalvo in Foglia PU,43.811,12.632,macroseismic,Stations_USGS,,0.062201,0.8059,0.148951,1.0131,,,0.063012,1.0822,396.72,inferred,5.0,0.3,0.875,5.305,1.4737,0.014111
OBS_471,Sant'Angelo in Lizzola PU,43.827,12.803,macroseismic,Stations_USGS,,0.062134,0.8059,0.148745,1.0131,,,0.063054,1.0822,533.65,inferred,5.0,0.3,0.875,5.305,1.4737,0.014121
OBS_431,Numana AN,43.512,13.622,macroseismic,Stations_USGS,,0.062052,0.8059,0.148493,1.0131,,,0.063105,1.0822,600.0,inferred,5.0,0.3,0.875,5.305,1.4737,0.014134
OBS_383,Cupra Marittima AP,43.024,13.86,macroseismic,Stations_USGS,,0.062049,0.8059,0.148484,1.0131,,,0.063106,1.0822,540.9,inferred,5.0,0.3,0.875,5.305,1.4737,0.014134
OBS_428,Montorio al Vomano TE,42.582,13.629,macroseismic,Stations_USGS,,0.061973,0.8059,0.148248,1.0131,,,0.063154,1.0822,461.0,inferred,5.0,0.3,0.875,5.305,1.4737,0.014146
OBS_406,Magliano Sabina RI,42.361,12.482,macroseismic,Stations_USGS,,0.061828,0.8059,0.147801,1.0131,,,0.063245,1.0822,496.79,inferred,5.0,0.3,0.875,5.305,1.4737,0.014169
OBS_391,Frontino PU,43.764,12.377,macroseismic,Stations_USGS,,0.061796,0.8059,0.147704,1.0131,,,0.063265,1.0822,508.33,inferred,5.0,0.3,0.875,5.305,1.4737,0.014174
OBS_394,Grottammare AP,42.98,13.872,macroseismic,Stations_USGS,,0.061771,0.8059,0.147628,1.0131,,,0.06328,1.0822,287.69,inferred,5.0,0.3,0.875,5.305,1.4737,0.014178
OBS_347,Auditore PU,43.821,12.571,macroseismic,Stations_USGS,,0.061721,0.8059,0.147474,1.0131,,,0.063312,1.0822,659.04,inferred,5.0,0.3,0.875,5.305,1.4737,0.014186
OBS_379,Corropoli TE,42.828,13.833,macroseismic,Stations_USGS,,0.061719,0.8059,0.147467,1.0131,,,0.063313,1.0822,437.18,inferred,5.0,0.3,0.875,5.305,1.4737,0.014186
OBS_376,Collevecchio RI,42.334,12.553,macroseismic,Stations_USGS,,0.06166,0.8059,0.147285,1.0131,,,0.06335,1.0822,439.93,inferred,5.0,0.3,0.875,5.305,1.4737,0.014195
OBS_423,Montelabbate PU,43.849,12.789,macroseismic,Stations_USGS,,0.061597,0.8059,0.147092,1.0131,,,0.06339,1.0822,557.08,inferred,5.0,0.3,0.875,5.305,1.4737,0.014205
OBS_358,Cantalupo in Sabina RI,42.304,12.65,macroseismic,Stations_USGS,,0.061414,0.8059,0.14653,1.0131,,,0.063505,1.0822,552.72,inferred,5.0,0.3,0.875,5.305,1.4737,0.014234
OBS_465,San Benedetto del Tronto AP,42.934,13.893,macroseismic,Stations_USGS,,0.061279,0.8059,0.146113,1.0131,,,0.063592,1.0822,332.9,inferred,5.0,0.3,0.875,5.305,1.4737,0.014256
OBS_414,Mondaino RN,43.858,12.673,macroseismic,Stations_USGS,,0.061216,0.8059,0.145922,1.0131,,,0.063631,1.0822,329.68,inferred,5.0,0.3,0.875,5.305,1.4737,0.014266
OBS_361,Carpegna PU,43.781,12.336,macroseismic,Stations_USGS,,0.061119,0.8059,0.145623,1.0131,,,0.063693,1.0822,888.45,inferred,5.0,0.3,0.875,5.305,1.4737,0.014282
OBS_478,Stimigliano RI,42.299,12.565,macroseismic,Stations_USGS,,0.060949,0.8059,0.145103,1.0131,,,0.063802,1.0822,445.6,inferred,5.0,0.3,0.875,5.305,1.4737,0.014309
OBS_402,Longone Sabino RI,42.272,12.966,macroseismic,Stations_USGS,,0.060934,0.8059,0.145056,1.0131,,,0.063812,1.0822,408.79,inferred,5.0,0.3,0.875,5.305,1.4737,0.014311
OBS_464,Saludecio RN,43.872,12.668,macroseismic,Stations_USGS,,0.06089,0.8059,0.14492,1.0131,,,0.06384,1.0822,520.41,inferred,5.0,0.3,0.875,5.305,1.4737,0.014319
OBS_483,Torricella in Sabina RI,42.261,12.871,macroseismic,Stations_USGS,,0.060791,0.8059,0.144616,1.0131,,,0.063904,1.0822,572.35,inferred,5.0,0.3,0.875,5.305,1.4737,0.014335
OBS_408,Martinsicuro TE,42.885,13.914,macroseismic,Stations_USGS,,0.060733,0.8059,0.144439,1.0131,,,0.063941,1.0822,210.94,inferred,5.0,0.3,0.875,5.305,1.4737,0.014344
OBS_441,Poggio Mirteto RI,42.265,12.686,macroseismic,Stations_USGS,,0.060658,0.8059,0.144211,1.0131,,,0.063989,1.0822,592.15,inferred,5.0,0.3,0.875,5.305,1.4737,0.014356
OBS_452,Radicofani SI,42.896,11.769,macroseismic,Stations_USGS,,0.060627,0.8059,0.144116,1.0131,,,0.064009,1.0822,469.58,inferred,5.0,0.3,0.875,5.305,1.4737,0.014361
OBS_463,Salisano RI,42.257,12.746,macroseismic,Stations_USGS,,0.060614,0.8059,0.144076,1.0131,,,0.064018,1.0822,575.33,inferred,5.0,0.3,0.875,5.305,1.4737,0.014363
OBS_443,Poggio San Lorenzo RI,42.252,12.844,macroseismic,Stations_USGS,,0.060594,0.8059,0.144015,1.0131,,,0.064031,1.0822,489.78,inferred,5.0,0.3,0.875,5.305,1.4737,0.014367
OBS_365,Castellalto TE,42.677,13.818,macroseismic,Stations_USGS,,0.060581,0.8059,0.143974,1.0131,,,0.06404,1.0822,619.0,inferred,5.0,0.3,0.875,5.305,1.4737,0.014369
OBS_403,Lucignano AR,43.273,11.746,macroseismic,Stations_USGS,,0.060515,0.8059,0.143773,1.0131,,,0.064082,1.0822,467.52,inferred,5.0,0.3,0.875,5.305,1.4737,0.014379
OBS_480,Tavullia PU,43.898,12.754,macroseismic,Stations_USGS,,0.060461,0.8059,0.143608,1.0131,,,0.064117,1.0822,479.7,inferred,5.0,0.3,0.875,5.305,1.4737,0.014388
OBS_413,Mompeo RI,42.248,12.753,macroseismic,Stations_USGS,,0.06043,0.8059,0.143514,1.0131,,,0.064137,1.0822,487.67,inferred,5.0,0.3,0.875,5.305,1.4737,0.014393
OBS_344,Alba Adriatica TE,42.827,13.93,macroseismic,Stations_USGS,,0.060175,0.8059,0.142732,1.0131,,,0.064304,1.0822,319.26,inferred,5.0,0.3,0.875,5.305,1.4737,0.014435
OBS_396,Grotte di Castro VT,42.674,11.873,macroseismic,Stations_USGS,,0.060111,0.8059,0.142538,1.0131,,,0.064346,1.0822,479.46,inferred,5.0,0.3,0.875,5.305,1.4737,0.014446
OBS_447,Ponzano Romano RM,42.257,12.572,macroseismic,Stations_USGS,,0.060101,0.8059,0.142508,1.0131,,,0.064352,1.0822,500.44,inferred,5.0,0.3,0.875,5.305,1.4737,0.014447
OBS_390,Frasso Sabino RI,42.229,12.805,macroseismic,Stations_USGS,,0.060084,0.8059,0.142456,1.0131,,,0.064363,1.0822,415.1,inferred,5.0,0.3,0.875,5.305,1.4737,0.01445
OBS_366,Castelnuovo di Farfa RI,42.231,12.744,macroseismic,Stations_USGS,,0.060056,0.8059,0.14237,1.0131,,,0.064382,1.0822,533.23,inferred,5.0,0.3,0.875,5.305,1.4737,0.014455
OBS_437,Pennabilli PU,43.816,12.265,macroseismic,Stations_USGS,,0.059902,0.8059,0.141899,1.0131,,,0.064484,1.0822,630.37,inferred,5.0,0.3,0.875,5.305,1.4737,0.01448
HIST_19,Norcia-Altavilla,42.796,13.089,seismic,Stations_USGS,,0.059796,0.0,0.100102,0.0,,,0.052347,0.0,780.91,inferred,4.3,0.63,0.0,3.13,0.0,0.004735
OBS_427,Montescudo RN,43.919,12.544,macroseismic,Stations_USGS,,0.05953,0.8059,0.140767,1.0131,,,0.06473,1.0822,556.17,inferred,5.0,0.3,0.875,5.305,1.4737,0.014542
OBS_442,Poggio Moiano RI,42.201,12.878,macroseismic,Stations_USGS,,0.05952,0.8059,0.140735,1.0131,,,0.064737,1.0822,457.85,inferred,5.0,0.3,0.875,5.305,1.4737,0.014544
OBS_360,Caprarola VT,42.327,12.238,macroseismic,Stations_USGS,,0.05931,0.8059,0.140097,1.0131,,,0.064877,1.0822,554.99,inferred,5.0,0.3,0.875,5.305,1.4737,0.014579
OBS_407,Maiolo PU,43.874,12.311,macroseismic,Stations_USGS,,0.059194,0.8059,0.139744,1.0131,,,0.064955,1.0822,800.2,inferred,5.0,0.3,0.875,5.305,1.4737,0.014599
OBS_370,Cattolica RN,43.963,12.74,macroseismic,Stations_USGS,,0.059111,0.8059,0.139491,1.0131,,,0.065011,1.0822,274.61,inferred,5.0,0.3,0.875,5.305,1.4737,0.014613
OBS_351,Bisenti TE,42.528,13.802,macroseismic,Stations_USGS,,0.059078,0.8059,0.139391,1.0131,,,0.065033,1.0822,494.01,inferred,5.0,0.3,0.875,5.305,1.4737,0.014619
OBS_470,Sant'Agata Feltria PU,43.864,12.209,macroseismic,Stations_USGS,,0.058672,0.8059,0.138158,1.0131,,,0.065309,1.0822,672.62,inferred,5.0,0.3,0.875,5.305,1.4737,0.014688
OBS_430,Nepi VT,42.241,12.345,macroseismic,Stations_USGS,,0.058621,0.8059,0.138005,1.0131,,,0.065343,1.0822,284.87,inferred,5.0,0.3,0.875,5.305,1.4737,0.014697
OBS_400,Laterina AR,43.508,11.716,macroseismic,Stations_USGS,,0.058467,0.8059,0.137538,1.0131,,,0.065449,1.0822,378.16,inferred,5.0,0.3,0.875,5.305,1.4737,0.014724
OBS_456,Riccione RN,44.001,12.659,macroseismic,Stations_USGS,,0.058283,0.8059,0.136981,1.0131,,,0.065575,1.0822,338.75,inferred,5.0,0.3,0.875,5.305,1.4737,0.014755
OBS_425,Montelibretti RM,42.134,12.739,macroseismic,Stations_USGS,,0.058167,0.8059,0.13663,1.0131,,,0.065655,1.0822,346.85,inferred,5.0,0.3,0.875,5.305,1.4737,0.014776
OBS_457,Rimini RN,44.059,12.567,macroseismic,Stations_USGS,,0.057093,0.8059,0.133389,1.0131,,,0.06641,1.0822,230.92,inferred,5.0,0.3,0.875,5.305,1.4737,0.014966
OBS_477,Sogliano al Rubicone FC,44.005,12.3,macroseismic,Stations_USGS,,0.056994,0.8059,0.13309,1.0131,,,0.066481,1.0822,617.85,inferred,5.0,0.3,0.875,5.305,1.4737,0.014984
OBS_455,Riano RM,42.091,12.523,macroseismic,Stations_USGS,,0.056947,0.8059,0.13295,1.0131,,,0.066514,1.0822,446.08,inferred,5.0,0.3,0.875,5.305,1.4737,0.014992
OBS_460,Roccagiovine RM,42.049,12.899,macroseismic,Stations_USGS,,0.056771,0.8059,0.13242,1.0131,,,0.066641,1.0822,857.43,inferred,5.0,0.3,0.875,5.305,1.4737,0.015024
OBS_411,Mentana RM,42.036,12.638,macroseismic,Stations_USGS,,0.056368,0.8059,0.131212,1.0131,,,0.066932,1.0822,374.94,inferred,5.0,0.3,0.875,5.305,1.4737,0.015098
OBS_409,Massa d'Albe AQ,42.107,13.393,macroseismic,Stations_USGS,,0.056364,0.8059,0.131199,1.0131,,,0.066935,1.0822,555.31,inferred,5.0,0.3,0.875,5.305,1.4737,0.015099
OBS_392,Gambettola FC,44.118,12.339,macroseismic,Stations_USGS,,0.05552,0.8059,0.128673,1.0131,,,0.067557,1.0822,265.51,inferred,5.0,0.3,0.875,5.305,1.4737,0.015256
OBS_373,Ciciliano RM,41.961,12.941,macroseismic,Stations_USGS,,0.055402,0.8059,0.128324,1.0131,,,0.067645,1.0822,309.81,inferred,5.0,0.3,0.875,5.305,1.4737,0.015278
OBS_371,Cesenatico FC,44.197,12.405,macroseismic,Stations_USGS,,0.054661,0.8059,0.126117,1.0131,,,0.068205,1.0822,226.01,inferred,5.0,0.3,0.875,5.305,1.4737,0.01542
OBS_475,Serramonacesca PE,42.248,14.094,macroseismic,Stations_USGS,,0.053686,0.8059,0.123226,1.0131,,,0.068962,1.0822,507.35,inferred,5.0,0.3,0.875,5.305,1.4737,0.015612
OBS_539,Fratta Todina PG,42.857,12.366,macroseismic,Stations_USGS,,0.05362,0.8059,0.092939,1.0131,,,0.032411,1.0822,438.04,inferred,4.5,0.3,0.875,3.6852,1.4737,0.006862
OBS_354,Bucchianico CH,42.304,14.181,macroseismic,Stations_USGS,,0.053528,0.8059,0.12276,1.0131,,,0.069087,1.0822,353.24,inferred,5.0,0.3,0.875,5.305,1.4737,0.015644
OBS_386,Firenze FI,43.777,11.249,macroseismic,Stations_USGS,,0.052356,0.8059,0.11931,1.0131,,,0.07003,1.0822,760.0,inferred,5.0,0.3,0.875,5.305,1.4737,0.015883
OBS_601,Servigliano AP,43.08,13.492,macroseismic,Stations_USGS,,0.051963,0.8059,0.089256,1.0131,,,0.033631,1.0822,435.32,inferred,4.5,0.3,0.875,3.6852,1.4737,0.007254
OBS_572,Morro Reatino RI,42.527,12.832,macroseismic,Stations_USGS,,0.05019,0.8059,0.085353,1.0131,,,0.035034,1.0822,507.46,inferred,4.5,0.3,0.875,3.6852,1.4737,0.007713
OBS_584,Poggio Bustone RI,42.501,12.888,macroseismic,Stations_USGS,,0.04947,0.8059,0.083779,1.0131,,,0.035635,1.0822,900.0,inferred,4.5,0.3,0.875,3.6852,1.4737,0.007913
OBS_495,Belvedere Ostrense AN,43.58,13.167,macroseismic,Stations_USGS,,0.049433,0.8059,0.083699,1.0131,,,0.035666,1.0822,327.61,inferred,4.5,0.3,0.875,3.6852,1.4737,0.007923
OBS_561,Montegabbione TR,42.92,12.093,macroseismic,Stations_USGS,,0.049131,0.8059,0.08304,1.0131,,,0.035925,1.0822,440.45,inferred,4.5,0.3,0.875,3.6852,1.4737,0.008009
OBS_558,Montecchio TR,42.662,12.286,macroseismic,Stations_USGS,,0.048633,0.8059,0.081958,1.0131,,,0.036358,1.0822,594.52,inferred,4.5,0.3,0.875,3.6852,1.4737,0.008155
OBS_503,Cantalice RI,42.466,12.904,macroseismic,Stations_USGS,,0.048568,0.8059,0.081818,1.0131,,,0.036415,1.0822,669.26,inferred,4.5,0.3,0.875,3.6852,1.4737,0.008174
OBS_567,Montereale AQ,42.522,13.246,macroseismic,Stations_USGS,,0.048051,0.8059,0.080698,1.0131,,,0.036877,1.0822,452.77,inferred,4.5,0.3,0.875,3.6852,1.4737,0.00833
OBS_557,Monte Porzio PU,43.69,13.046,macroseismic,Stations_USGS,,0.047797,0.8059,0.08015,1.0131,,,0.037107,1.0822,440.98,inferred,4.5,0.3,0.875,3.6852,1.4737,0.008408
OBS_547,Lugnano in Teverina TR,42.573,12.331,macroseismic,Stations_USGS,,0.047724,0.8059,0.079991,1.0131,,,0.037174,1.0822,715.22,inferred,4.5,0.3,0.875,3.6852,1.4737,0.008431
OBS_568,Monterubbiano AP,43.085,13.716,macroseismic,Stations_USGS,,0.047534,0.8059,0.07958,1.0131,,,0.03735,1.0822,617.36,inferred,4.5,0.3,0.875,3.6852,1.4737,0.008491
OBS_575,Offagna AN,43.527,13.442,macroseismic,Stations_USGS,,0.04734,0.8059,0.079162,1.0131,,,0.03753,1.0822,492.36,inferred,4.5,0.3,0.875,3.6852,1.4737,0.008553
OBS_519,Chiusi SI,43.015,11.947,macroseismic,Stations_USGS,,0.047256,0.8059,0.078982,1.0131,,,0.037608,1.0822,442.76,inferred,4.5,0.3,0.875,3.6852,1.4737,0.008579
OBS_566,Monterchi AR,43.485,12.111,macroseismic,Stations_USGS,,0.047129,0.8059,0.078709,1.0131,,,0.037727,1.0822,352.58,inferred,4.5,0.3,0.875,3.6852,1.4737,0.00862
OBS_600,Serrungarina PU,43.746,12.875,macroseismic,Stations_USGS,,0.047073,0.8059,0.078588,1.0131,,,0.03778,1.0822,521.27,inferred,4.5,0.3,0.875,3.6852,1.4737,0.008638
OBS_524,Civitella del Tronto TE,42.772,13.668,macroseismic,Stations_USGS,,0.046976,0.8059,0.07838,1.0131,,,0.037872,1.0822,590.42,inferred,4.5,0.3,0.875,3.6852,1.4737,0.00867
OBS_563,Montemarciano AN,43.639,13.31,macroseismic,Stations_USGS,,0.046953,0.8059,0.07833,1.0131,,,0.037894,1.0822,391.38,inferred,4.5,0.3,0.875,3.6852,1.4737,0.008677
OBS_498,Borgo Velino RI,42.405,13.059,macroseismic,Stations_USGS,,0.046821,0.8059,0.078048,1.0131,,,0.038019,1.0822,533.06,inferred,4.5,0.3,0.875,3.6852,1.4737,0.008721
OBS_544,Giove TR,42.509,12.324,macroseismic,Stations_USGS,,0.046606,0.8059,0.077585,1.0131,,,0.038226,1.0822,596.46,inferred,4.5,0.3,0.875,3.6852,1.4737,0.008792
OBS_523,Civitella d'Agliano VT,42.605,12.188,macroseismic,Stations_USGS,,0.046599,0.8059,0.07757,1.0131,,,0.038233,1.0822,466.95,inferred,4.5,0.3,0.875,3.6852,1.4737,0.008794
OBS_528,Colli del Tronto AP,42.876,13.748,macroseismic,Stations_USGS,,0.046595,0.8059,0.077563,1.0131,,,0.038236,1.0822,500.02,inferred,4.5,0.3,0.875,3.6852,1.4737,0.008795
OBS_492,Attigliano TR,42.515,12.294,macroseismic,Stations_USGS,,0.046424,0.8059,0.077196,1.0131,,,0.038402,1.0822,423.24,inferred,4.5,0.3,0.875,3.6852,1.4737,0.008853
OBS_546,Loreto AN,43.44,13.61,macroseismic,Stations_USGS,,0.046377,0.8059,0.077095,1.0131,,,0.038448,1.0822,536.33,inferred,4.5,0.3,0.875,3.6852,1.4737,0.008869
OBS_552,Massignano AP,43.05,13.798,macroseismic,Stations_USGS,,0.046314,0.8059,0.07696,1.0131,,,0.03851,1.0822,530.12,inferred,4.5,0.3,0.875,3.6852,1.4737,0.00889
OBS_502,Campli TE,42.726,13.686,macroseismic,Stations_USGS,,0.046309,0.8059,0.076949,1.0131,,,0.038515,1.0822,422.01,inferred,4.5,0.3,0.875,3.6852,1.4737,0.008892
OBS_512,Castiglion Fiorentino AR,43.341,11.923,macroseismic,Stations_USGS,,0.046159,0.8059,0.076629,1.0131,,,0.038662,1.0822,527.89,inferred,4.5,0.3,0.875,3.6852,1.4737,0.008943
OBS_586,Porto Sant'Elpidio AP,43.257,13.761,macroseismic,Stations_USGS,,0.046158,0.8059,0.076627,1.0131,,,0.038663,1.0822,447.19,inferred,4.5,0.3,0.875,3.6852,1.4737,0.008943
OBS_555,Mombaroccio PU,43.795,12.855,macroseismic,Stations_USGS,,0.046106,0.8059,0.076515,1.0131,,,0.038715,1.0822,528.85,inferred,4.5,0.3,0.875,3.6852,1.4737,0.008961
OBS_556,Monsampolo del Tronto AP,42.897,13.794,macroseismic,Stations_USGS,,0.046052,0.8059,0.076401,1.0131,,,0.038768,1.0822,339.82,inferred,4.5,0.3,0.875,3.6852,1.4737,0.00898
OBS_596,Sarteano SI,42.989,11.869,macroseismic,Stations_USGS,,0.046034,0.8059,0.076362,1.0131,,,0.038786,1.0822,513.11,inferred,4.5,0.3,0.875,3.6852,1.4737,0.008986
OBS_610,Torricella Sicura TE,42.658,13.656,macroseismic,Stations_USGS,,0.045974,0.8059,0.076234,1.0131,,,0.038845,1.0822,344.18,inferred,4.5,0.3,0.875,3.6852,1.4737,0.009007
OBS_535,Fano Adriano TE,42.552,13.538,macroseismic,Stations_USGS,,0.045908,0.8059,0.076092,1.0131,,,0.038912,1.0822,900.0,inferred,4.5,0.3,0.875,3.6852,1.4737,0.00903
OBS_606,Torano Nuovo TE,42.823,13.777,macroseismic,Stations_USGS,,0.045895,0.8059,0.076064,1.0131,,,0.038924,1.0822,405.66,inferred,4.5,0.3,0.875,3.6852,1.4737,0.009034
OBS_585,Porto Recanati MC,43.432,13.665,macroseismic,Stations_USGS,,0.04584,0.8059,0.075947,1.0131,,,0.038979,1.0822,267.48,inferred,4.5,0.3,0.875,3.6852,1.4737,0.009053
OBS_608,Torri in Sabina RI,42.352,12.638,macroseismic,Stations_USGS,,0.045789,0.8059,0.075838,1.0131,,,0.03903,1.0822,440.91,inferred,4.5,0.3,0.875,3.6852,1.4737,0.009071
OBS_518,Chianciano Terme SI,43.058,11.832,macroseismic,Stations_USGS,,0.045691,0.8059,0.075629,1.0131,,,0.039129,1.0822,519.72,inferred,4.5,0.3,0.875,3.6852,1.4737,0.009106
OBS_489,Ancona AN,43.603,13.507,macroseismic,Stations_USGS,,0.045633,0.8059,0.075506,1.0131,,,0.039188,1.0822,421.79,inferred,4.5,0.3,0.875,3.6852,1.4737,0.009126
OBS_527,Colbordolo PU,43.82,12.723,macroseismic,Stations_USGS,,0.045585,0.8059,0.075403,1.0131,,,0.039236,1.0822,740.05,inferred,4.5,0.3,0.875,3.6852,1.4737,0.009143
OBS_514,Celleno VT,42.558,12.134,macroseismic,Stations_USGS,,0.045448,0.8059,0.075111,1.0131,,,0.039376,1.0822,492.44,inferred,4.5,0.3,0.875,3.6852,1.4737,0.009192
OBS_507,Castel Giorgio TR,42.708,11.979,macroseismic,Stations_USGS,,0.045427,0.8059,0.075068,1.0131,,,0.039396,1.0822,233.39,inferred,4.5,0.3,0.875,3.6852,1.4737,0.009199
OBS_602,Sirolo AN,43.521,13.62,macroseismic,Stations_USGS,,0.045387,0.8059,0.074982,1.0131,,,0.039437,1.0822,594.07,inferred,4.5,0.3,0.875,3.6852,1.4737,0.009213
OBS_581,Pietracamela TE,42.523,13.554,macroseismic,Stations_USGS,,0.045372,0.8059,0.07495,1.0131,,,0.039453,1.0822,867.85,inferred,4.5,0.3,0.875,3.6852,1.4737,0.009219
OBS_574,Nereto TE,42.819,13.817,macroseismic,Stations_USGS,,0.045363,0.8059,0.074931,1.0131,,,0.039462,1.0822,460.44,inferred,4.5,0.3,0.875,3.6852,1.4737,0.009222
OBS_599,Scoppito AQ,42.372,13.256,macroseismic,Stations_USGS,,0.045304,0.8059,0.074805,1.0131,,,0.039523,1.0822,869.12,inferred,4.5,0.3,0.875,3.6852,1.4737,0.009243
OBS_565,Montepulciano SI,43.097,11.785,macroseismic,Stations_USGS,,0.045108,0.8059,0.074389,1.0131,,,0.039725,1.0822,491.71,inferred,4.5,0.3,0.875,3.6852,1.4737,0.009314
OBS_534,Fano PU,43.837,13.018,macroseismic,Stations_USGS,,0.045081,0.8059,0.074333,1.0131,,,0.039752,1.0822,259.78,inferred,4.5,0.3,0.875,3.6852,1.4737,0.009324
OBS_542,Gallese VT,42.372,12.403,macroseismic,Stations_USGS,,0.045038,0.8059,0.074241,1.0131,,,0.039797,1.0822,407.42,inferred,4.5,0.3,0.875,3.6852,1.4737,0.00934
OBS_529,Colonnella TE,42.872,13.867,macroseismic,Stations_USGS,,0.045005,0.8059,0.074171,1.0131,,,0.039832,1.0822,621.36,inferred,4.5,0.3,0.875,3.6852,1.4737,0.009352
OBS_604,Tavoleto PU,43.843,12.594,macroseismic,Stations_USGS,,0.044917,0.8059,0.073985,1.0131,,,0.039923,1.0822,500.62,inferred,4.5,0.3,0.875,3.6852,1.4737,0.009384
OBS_562,Montegridolfo RN,43.858,12.69,macroseismic,Stations_USGS,,0.044875,0.8059,0.073895,1.0131,,,0.039967,1.0822,699.67,inferred,4.5,0.3,0.875,3.6852,1.4737,0.0094
OBS_564,Montenero Sabino RI,42.28,12.813,macroseismic,Stations_USGS,,0.044841,0.8059,0.073823,1.0131,,,0.040003,1.0822,845.67,inferred,4.5,0.3,0.875,3.6852,1.4737,0.009413
OBS_493,Badia Tedalda AR,43.707,12.187,macroseismic,Stations_USGS,,0.044807,0.8059,0.07375,1.0131,,,0.040039,1.0822,609.32,inferred,4.5,0.3,0.875,3.6852,1.4737,0.009425
OBS_612,Tossicia TE,42.545,13.648,macroseismic,Stations_USGS,,0.044793,0.8059,0.073722,1.0131,,,0.040053,1.0822,516.71,inferred,4.5,0.3,0.875,3.6852,1.4737,0.00943
OBS_490,Arezzo AR,43.463,11.879,macroseismic,Stations_USGS,,0.044721,0.8059,0.073569,1.0131,,,0.04013,1.0822,302.15,inferred,4.5,0.3,0.875,3.6852,1.4737,0.009457
OBS_618,Vitorchiano VT,42.467,12.173,macroseismic,Stations_USGS,,0.04471,0.8059,0.073545,1.0131,,,0.040141,1.0822,434.65,inferred,4.5,0.3,0.875,3.6852,1.4737,0.009461
OBS_551,Marciano della Chiana AR,43.304,11.787,macroseismic,Stations_USGS,,0.044683,0.8059,0.073489,1.0131,,,0.040169,1.0822,374.52,inferred,4.5,0.3,0.875,3.6852,1.4737,0.009471
OBS_594,San Lorenzo Nuovo VT,42.685,11.906,macroseismic,Stations_USGS,,0.044453,0.8059,0.073002,1.0131,,,0.040414,1.0822,560.79,inferred,4.5,0.3,0.875,3.6852,1.4737,0.009558
OBS_616,Vignanello VT,42.384,12.279,macroseismic,Stations_USGS,,0.044433,0.8059,0.07296,1.0131,,,0.040436,1.0822,427.06,inferred,4.5,0.3,0.875,3.6852,1.4737,0.009566
OBS_530,Corchiano VT,42.346,12.357,macroseismic,Stations_USGS,,0.044393,0.8059,0.072874,1.0131,,,0.040479,1.0822,328.69,inferred,4.5,0.3,0.875,3.6852,1.4737,0.009581
OBS_506,Casaprota RI,42.252,12.804,macroseismic,Stations_USGS,,0.044378,0.8059,0.072842,1.0131,,,0.040495,1.0822,645.39,inferred,4.5,0.3,0.875,3.6852,1.4737,0.009587
OBS_613,Vallerano VT,42.385,12.264,macroseismic,Stations_USGS,,0.044347,0.8059,0.072776,1.0131,,,0.040529,1.0822,435.22,inferred,4.5,0.3,0.875,3.6852,1.4737,0.009599
OBS_587,Proceno VT,42.757,11.83,macroseismic,Stations_USGS,,0.044264,0.8059,0.072602,1.0131,,,0.040618,1.0822,506.29,inferred,4.5,0.3,0.875,3.6852,1.4737,0.009631
OBS_559,Montefiore Conca RN,43.889,12.611,macroseismic,Stations_USGS,,0.044224,0.8059,0.072516,1.0131,,,0.040662,1.0822,593.87,inferred,4.5,0.3,0.875,3.6852,1.4737,0.009646
OBS_536,Fiamignano RI,42.265,13.125,macroseismic,Stations_USGS,,0.044177,0.8059,0.072418,1.0131,,,0.040712,1.0822,900.0,inferred,4.5,0.3,0.875,3.6852,1.4737,0.009664
OBS_554,Mercatino Conca PU,43.87,12.493,macroseismic,Stations_USGS,,0.044174,0.8059,0.072412,1.0131,,,0.040715,1.0822,492.25,inferred,4.5,0.3,0.875,3.6852,1.4737,0.009665
OBS_582,Pieve Santo Stefano AR,43.67,12.041,macroseismic,Stations_USGS,,0.044166,0.8059,0.072394,1.0131,,,0.040724,1.0822,557.3,inferred,4.5,0.3,0.875,3.6852,1.4737,0.009669
OBS_577,Pesaro PU,43.905,12.905,macroseismic,Stations_USGS,,0.044165,0.8059,0.072392,1.0131,,,0.040725,1.0822,237.57,inferred,4.5,0.3,0.875,3.6852,1.4737,0.009669
OBS_570,Montopoli di Sabina RI,42.245,12.691,macroseismic,Stations_USGS,,0.044134,0.8059,0.072328,1.0131,,,0.040758,1.0822,521.98,inferred,4.5,0.3,0.875,3.6852,1.4737,0.009681
OBS_573,Mosciano Sant'Angelo TE,42.748,13.888,macroseismic,Stations_USGS,,0.044131,0.8059,0.07232,1.0131,,,0.040762,1.0822,439.81,inferred,4.5,0.3,0.875,3.6852,1.4737,0.009682
OBS_571,Morciano di Romagna RN,43.913,12.646,macroseismic,Stations_USGS,,0.043926,0.8059,0.071889,1.0131,,,0.040986,1.0822,327.37,inferred,4.5,0.3,0.875,3.6852,1.4737,0.009762
OBS_532,Fabrica di Roma VT,42.334,12.295,macroseismic,Stations_USGS,,0.043873,0.8059,0.071777,1.0131,,,0.041044,1.0822,476.2,inferred,4.5,0.3,0.875,3.6852,1.4737,0.009783
OBS_611,Torrita Tiberina RM,42.236,12.619,macroseismic,Stations_USGS,,0.043846,0.8059,0.07172,1.0131,,,0.041074,1.0822,544.0,inferred,4.5,0.3,0.875,3.6852,1.4737,0.009793
OBS_580,Pienza SI,43.076,11.679,macroseismic,Stations_USGS,,0.043844,0.8059,0.071715,1.0131,,,0.041076,1.0822,583.59,inferred,4.5,0.3,0.875,3.6852,1.4737,0.009794
OBS_550,Marcetelli RI,42.226,13.046,macroseismic,Stations_USGS,,0.043789,0.8059,0.071599,1.0131,,,0.041137,1.0822,666.77,inferred,4.5,0.3,0.875,3.6852,1.4737,0.009893
OBS_605,Toffia RI,42.212,12.752,macroseismic,Stations_USGS,,0.043719,0.8059,0.071452,1.0131,,,0.041214,1.0822,760.19,inferred,4.5,0.3,0.875,3.6852,1.4737,0.009904
OBS_617,Viterbo VT,42.421,12.11,macroseismic,Stations_USGS,,0.043683,0.8059,0.071376,1.0131,,,0.041255,1.0822,413.58,inferred,4.5,0.3,0.875,3.6852,1.4737,0.009909
OBS_505,Carbognano VT,42.331,12.267,macroseismic,Stations_USGS,,0.043671,0.8059,0.071351,1.0131,,,0.041268,1.0822,487.32,inferred,4.5,0.3,0.875,3.6852,1.4737,0.009911
OBS_510,Castelli TE,42.489,13.712,macroseismic,Stations_USGS,,0.043645,0.8059,0.071297,1.0131,,,0.041297,1.0822,597.15,inferred,4.5,0.3,0.875,3.6852,1.4737,0.009915
OBS_576,Onano VT,42.692,11.816,macroseismic,Stations_USGS,,0.043644,0.8059,0.071294,1.0131,,,0.041298,1.0822,352.01,inferred,4.5,0.3,0.875,3.6852,1.4737,0.009915
OBS_592,San Clemente RN,43.932,12.626,macroseismic,Stations_USGS,,0.043608,0.8059,0.071219,1.0131,,,0.041338,1.0822,418.23,inferred,4.5,0.3,0.875,3.6852,1.4737,0.009921
OBS_509,Casteldelci PU,43.791,12.155,macroseismic,Stations_USGS,,0.043536,0.8059,0.071067,1.0131,,,0.041419,1.0822,547.73,inferred,4.5,0.3,0.875,3.6852,1.4737,0.009932
OBS_525,Civitella in Val di Chiana AR,43.418,11.723,macroseismic,Stations_USGS,,0.04343,0.8059,0.070844,1.0131,,,0.041538,1.0822,547.32,inferred,4.5,0.3,0.875,3.6852,1.4737,0.009949
OBS_515,Cellino Attanasio TE,42.586,13.859,macroseismic,Stations_USGS,,0.043277,0.8059,0.070522,1.0131,,,0.041711,1.0822,477.48,inferred,4.5,0.3,0.875,3.6852,1.4737,0.009973
OBS_540,Gabicce Mare PU,43.966,12.757,macroseismic,Stations_USGS,,0.043272,0.8059,0.070514,1.0131,,,0.041716,1.0822,376.3,inferred,4.5,0.3,0.875,3.6852,1.4737,0.009974
OBS_491,Arsita TE,42.502,13.784,macroseismic,Stations_USGS,,0.043194,0.8059,0.070348,1.0131,,,0.041805,1.0822,569.5,inferred,4.5,0.3,0.875,3.6852,1.4737,0.009986
OBS_526,Civitella San Paolo RM,42.196,12.582,macroseismic,Stations_USGS,,0.043186,0.8059,0.070332,1.0131,,,0.041814,1.0822,379.76,inferred,4.5,0.3,0.875,3.6852,1.4737,0.009987
OBS_533,Faleria VT,42.226,12.443,macroseismic,Stations_USGS,,0.043156,0.8059,0.070269,1.0131,,,0.041848,1.0822,378.58,inferred,4.5,0.3,0.875,3.6852,1.4737,0.009992
