STATION_ID,STATION_NAME,LONGITUDE,LATITUDE,STATION_TYPE,VS30,MMI_VALUE,MMI_STDDEV,PGA_LN_SIGMA,PGA_VALUE,PGV_LN_SIGMA,PGV_VALUE,SA(0.3)_LN_SIGMA,SA(0.3)_VALUE,SA(1.0)_LN_SIGMA,SA(1.0)_VALUE,SA(3.0)_LN_SIGMA,SA(3.0)_VALUE,VS30_TYPE,REFERENCES
PNN,PNN,12.2614,43.8172,seismic,640.63,3.7,0.63,,,,,,,,,,,inferred,Stations_USGS
GBB,GBB,12.602,43.357,seismic,588.0,null,null,0.0,0.08323,null,null,0.0,0.13042,0.0,0.01967,0.0,0.00448,inferred,Stations_USGS
ASS,ASS,12.6041,43.075,seismic,537.45,null,null,0.0,0.18792,null,null,0.0,0.59716,0.0,0.04967,0.0,0.00519,inferred,Stations_USGS
BTT2,Borgo-Ottomila 2,13.543,41.998,seismic,202.88,4.0,0.63,0.0,0.008337,0.0,1.9,0.0,0.011429,0.0,0.019592,0.0,0.013061,inferred,Stations_USGS
MNF,MNF,13.1847,43.0628,seismic,900.0,3.7,0.63,0.0,0.03178,0.0,1.1047,0.0,0.03728,0.0,0.00742,0.0,0.00121,inferred,Stations_USGS
AQI,AQI,13.4009,42.3449,seismic,414.74,null,null,,,,,,,,,,,inferred,Stations_USGS
BVG,BVG,12.6111,42.9324,seismic,255.84,5.7,0.63,0.0,0.07292,0.0,8.9506,0.0,0.1475,0.0,0.08782,0.0,0.02435,inferred,Stations_USGS
HIST_19,Norcia-Altavilla,13.089,42.796,seismic,780.91,4.3,0.63,0.0,0.059796,0.0,3.13,0.0,0.100102,0.0,0.052347,0.0,0.004735,inferred,Stations_USGS
SNG,SNG,13.2267,43.685,seismic,443.67,null,null,0.0,0.04543,null,null,0.0,0.09839,0.0,0.04692,0.0,0.00283,inferred,Stations_USGS
NRI,Norcia-Zona Industriale,13.097,42.775,seismic,423.94,4.2,0.63,0.0,0.033367,0.0,2.64,0.0,0.05898,0.0,0.04898,0.0,0.005918,inferred,Stations_USGS
AQG,AQG,13.337,42.3735,seismic,462.87,null,null,0.0,0.00705,null,null,0.0,0.01826,0.0,0.00424,0.0,0.00149,inferred,Stations_USGS
FHC,FHC,13.2103,42.7611,seismic,393.34,3.7,0.63,,,,,,,,,,,inferred,Stations_USGS
CSC,CSC,13.0133,42.7189,seismic,616.78,3.8,0.63,0.0,0.02153,0.0,1.3942,0.0,0.04185,0.0,0.00793,0.0,0.00303,inferred,Stations_USGS
CGL,CGL,12.6292,43.5353,seismic,873.14,null,null,0.0,0.01997,null,null,0.0,0.05507,0.0,0.00911,0.0,0.00067,inferred,Stations_USGS
PTL,PTL,12.4486,43.4267,seismic,462.97,null,null,0.0,0.01888,null,null,0.0,0.06342,0.0,0.02116,0.0,0.0144,inferred,Stations_USGS
RTI,RTI,12.8211,42.4303,seismic,217.37,null,null,0.0,0.01875,null,null,0.0,0.03935,0.0,0.04312,0.0,0.00426,inferred,Stations_USGS
CSA,CSA,12.5906,43.008,seismic,194.99,null,null,0.0,0.17216,0.0,13.4219,0.0,0.30216,0.0,0.21831,0.0,0.04041,inferred,Stations_USGS
CLF,CLF,12.9205,43.0359,seismic,390.52,6.3,0.63,0.0,0.22714,0.0,13.4097,0.0,0.34996,0.0,0.28184,0.0,0.02365,inferred,Stations_USGS
NCR,NCR,12.7847,43.1116,seismic,384.71,null,null,0.0,0.40595,null,null,0.0,0.50197,0.0,0.20298,0.0,0.01985,inferred,Stations_USGS
AQK,AQK,13.4009,42.345,seismic,414.74,3.3,0.63,0.0,0.00422,0.0,0.6135,0.0,0.01156,0.0,0.00942,0.0,0.00142,inferred,Stations_USGS
GBP,GBP,12.5895,43.3138,seismic,324.28,null,null,0.0,0.09775,null,null,0.0,0.19785,0.0,0.13947,0.0,0.10251,inferred,Stations_USGS
MTL,MTL,13.0084,43.2495,seismic,383.74,null,null,0.0,0.11629,null,null,0.0,0.20303,0.0,0.08506,0.0,0.01945,inferred,Stations_USGS
CTR,Borgo-Cerreto Torre,12.915,42.814,seismic,414.74,4.7,0.63,0.0,0.105102,0.0,4.41,0.0,0.207143,0.0,0.018776,0.0,0.00301,inferred,Stations_USGS
PGL,PGL,12.4983,43.6956,seismic,563.48,null,null,0.0,0.02502,0.0,0.9365,0.0,0.04697,0.0,0.0077,0.0,0.00172,inferred,Stations_USGS
LNS,LNS,12.9842,42.565,seismic,379.55,3.5,0.63,0.0,0.02214,0.0,0.9229,0.0,0.0559,0.0,0.01173,0.0,0.0025,inferred,Stations_USGS
OBS_688,Montevarchi AR,11.568,43.523,macroseismic,384.19,4.0,0.3,0.8059,0.022303,0.875,1.8712,1.0131,0.033838,1.0822,0.020427,1.4737,0.00403,inferred,Stations_USGS
OBS_295,Montelupone MC,13.568,43.343,macroseismic,431.32,5.5,0.3,0.8059,0.089601,0.875,7.6368,1.0131,0.214695,1.0822,0.090679,1.4737,0.019934,inferred,Stations_USGS
OBS_778,Roviano RM,12.995,42.025,macroseismic,883.36,3.5,0.3,,,,,,,,,,,inferred,Stations_USGS
OBS_578,Pescara PE,14.214,42.464,macroseismic,254.42,4.5,0.3,0.8059,0.03989,0.875,3.6852,1.0131,0.063498,1.0822,0.045965,1.4737,0.010547,inferred,Stations_USGS
OBS_569,Montiano FC,12.305,44.082,macroseismic,421.89,4.5,0.3,0.8059,0.040947,0.875,3.6852,1.0131,0.065671,1.0822,0.044519,1.4737,0.010359,inferred,Stations_USGS
OBS_189,Palmiano AP,13.458,42.899,macroseismic,631.06,6.0,0.3,0.8059,0.132319,0.875,10.9936,1.0131,0.295503,1.0822,0.128521,1.4737,0.027684,inferred,Stations_USGS
OBS_726,Vejano VT,12.095,42.216,macroseismic,372.51,4.0,0.3,0.8059,0.022237,0.875,1.8712,1.0131,0.033784,1.0822,0.020457,1.4737,0.004038,inferred,Stations_USGS
OBS_664,Frascati RM,12.681,41.808,macroseismic,760.0,4.0,0.3,0.8059,0.019267,0.875,1.8712,1.0131,0.031269,1.0822,0.021955,1.4737,0.004491,inferred,Stations_USGS
OBS_714,Roncofreddo FC,12.318,44.042,macroseismic,462.9,4.0,0.3,0.8059,0.022149,0.875,1.8712,1.0131,0.033712,1.0822,0.020497,1.4737,0.00405,inferred,Stations_USGS
OBS_346,Anghiari AR,12.054,43.541,macroseismic,355.89,5.0,0.3,0.8059,0.062509,0.875,5.305,1.0131,0.149903,1.0822,0.062821,1.4737,0.014063,inferred,Stations_USGS
OBS_537,Fiano Romano RM,12.59,42.17,macroseismic,460.4,4.5,0.3,0.8059,0.042854,0.875,3.6852,1.0131,0.069637,1.0822,0.042196,1.4737,0.01004,inferred,Stations_USGS
OBS_281,Monte San Martino MC,13.439,43.031,macroseismic,437.15,5.5,0.3,0.8059,0.099485,0.875,7.6368,1.0131,0.226837,1.0822,0.085046,1.4737,0.018551,inferred,Stations_USGS
OBS_561,Montegabbione TR,12.093,42.92,macroseismic,440.45,4.5,0.3,0.8059,0.049131,0.875,3.6852,1.0131,0.08304,1.0822,0.035925,1.4737,0.008009,inferred,Stations_USGS
OBS_376,Collevecchio RI,12.553,42.334,macroseismic,439.93,5.0,0.3,0.8059,0.06166,0.875,5.305,1.0131,0.147285,1.0822,0.06335,1.4737,0.014195,inferred,Stations_USGS
OBS_483,Torricella in Sabina RI,12.871,42.261,macroseismic,572.35,5.0,0.3,0.8059,0.060791,0.875,5.305,1.0131,0.144616,1.0822,0.063904,1.4737,0.014335,inferred,Stations_USGS
OBS_140,Castelleone di Suasa AN,12.977,43.608,macroseismic,496.39,6.0,0.3,0.8059,0.127489,0.875,10.9936,1.0131,0.289782,1.0822,0.131484,1.4737,0.028401,inferred,Stations_USGS
OBS_360,Caprarola VT,12.238,42.327,macroseismic,554.99,5.0,0.3,0.8059,0.05931,0.875,5.305,1.0131,0.140097,1.0822,0.064877,1.4737,0.014579,inferred,Stations_USGS
OBS_629,Bassano Romano VT,12.194,42.219,macroseismic,495.99,4.0,0.3,0.8059,0.022902,0.875,1.8712,1.0131,0.034325,1.0822,0.020162,1.4737,0.003951,inferred,Stations_USGS
OBS_384,Fabro TR,12.013,42.863,macroseismic,530.78,5.0,0.3,0.8059,0.064628,0.875,5.305,1.0131,0.15648,1.0822,0.061551,1.4737,0.013744,inferred,Stations_USGS
OBS_524,Civitella del Tronto TE,13.668,42.772,macroseismic,590.42,4.5,0.3,0.8059,0.046976,0.875,3.6852,1.0131,0.07838,1.0822,0.037872,1.4737,0.00867,inferred,Stations_USGS
OBS_228,Acquasparta TR,12.546,42.69,macroseismic,417.81,5.5,0.3,0.8059,0.099011,0.875,7.6368,1.0131,0.226267,1.0822,0.085295,1.4737,0.018613,inferred,Stations_USGS
OBS_496,Bibbiena AR,11.816,43.697,macroseismic,445.14,4.5,0.3,0.8059,0.042232,0.875,3.6852,1.0131,0.068339,1.0822,0.042927,1.4737,0.010142,inferred,Stations_USGS
OBS_518,Chianciano Terme SI,11.832,43.058,macroseismic,519.72,4.5,0.3,0.8059,0.045691,0.875,3.6852,1.0131,0.075629,1.0822,0.039129,1.4737,0.009106,inferred,Stations_USGS
OBS_114,Treia MC,13.312,43.311,macroseismic,366.57,6.5,0.3,0.8059,0.184319,0.875,15.8259,1.0131,0.394427,1.0822,0.188794,1.4737,0.040022,inferred,Stations_USGS
OBS_528,Colli del Tronto AP,13.748,42.876,macroseismic,500.02,4.5,0.3,0.8059,0.046595,0.875,3.6852,1.0131,0.077563,1.0822,0.038236,1.4737,0.008795,inferred,Stations_USGS
OBS_370,Cattolica RN,12.74,43.963,macroseismic,274.61,5.0,0.3,0.8059,0.059111,0.875,5.305,1.0131,0.139491,1.0822,0.065011,1.4737,0.014613,inferred,Stations_USGS
OBS_446,Ponzano di Fermo AP,13.659,43.102,macroseismic,364.4,5.0,0.3,0.8059,0.066147,0.875,5.305,1.0131,0.16123,1.0822,0.060681,1.4737,0.013527,inferred,Stations_USGS
OBS_369,Castorano AP,13.727,42.898,macroseismic,517.39,5.0,0.3,0.8059,0.064176,0.875,5.305,1.0131,0.15507,1.0822,0.061816,1.4737,0.013811,inferred,Stations_USGS
OBS_155,Frontone PU,12.734,43.513,macroseismic,513.46,6.0,0.3,0.8059,0.136158,0.875,10.9936,1.0131,0.299979,1.0822,0.126288,1.4737,0.027146,inferred,Stations_USGS
OBS_652,Colledara TE,13.681,42.54,macroseismic,501.4,4.0,0.3,0.8059,0.026219,0.875,1.8712,1.0131,0.036924,1.0822,0.018861,1.4737,0.003575,inferred,Stations_USGS
OBS_706,Ripa Teatina CH,14.235,42.358,macroseismic,566.93,4.0,0.3,0.8059,0.019455,0.875,1.8712,1.0131,0.031434,1.0822,0.02185,1.4737,0.004458,inferred,Stations_USGS
OBS_503,Cantalice RI,12.904,42.466,macroseismic,669.26,4.5,0.3,0.8059,0.048568,0.875,3.6852,1.0131,0.081818,1.0822,0.036415,1.4737,0.008174,inferred,Stations_USGS
OBS_749,Castel Focognano AR,11.789,43.653,macroseismic,612.78,3.5,0.3,,,,,,,,,,,inferred,Stations_USGS
OBS_795,Vittorito AQ,13.817,42.125,macroseismic,759.47,3.5,0.3,,,,,,,,,,,inferred,Stations_USGS
OBS_400,Laterina AR,11.716,43.508,macroseismic,378.16,5.0,0.3,0.8059,0.058467,0.875,5.305,1.0131,0.137538,1.0822,0.065449,1.4737,0.014724,inferred,Stations_USGS
OBS_668,Gradoli VT,11.855,42.643,macroseismic,561.19,4.0,0.3,0.8059,0.025063,0.875,1.8712,1.0131,0.036036,1.0822,0.019285,1.4737,0.003696,inferred,Stations_USGS
OBS_286,Montecastrilli TR,12.487,42.65,macroseismic,344.41,5.5,0.3,0.8059,0.095385,0.875,7.6368,1.0131,0.221874,1.0822,0.087268,1.4737,0.019096,inferred,Stations_USGS
OBS_127,Bettona PG,12.485,43.013,macroseismic,563.29,6.0,0.3,0.8059,0.157299,0.875,10.9936,1.0131,0.323627,1.0822,0.115596,1.4737,0.024583,inferred,Stations_USGS
OBS_732,Arielli CH,14.307,42.262,macroseismic,393.35,3.5,0.3,,,,,,,,,,,inferred,Stations_USGS
OBS_128,Bevagna PG,12.608,42.932,macroseismic,255.84,6.0,0.3,0.8059,0.163384,0.875,10.9936,1.0131,0.330149,1.0822,0.112938,1.4737,0.023951,inferred,Stations_USGS
OBS_424,Monteleone d'Orvieto TR,12.051,42.917,macroseismic,581.9,5.0,0.3,0.8059,0.066053,0.875,5.305,1.0131,0.160934,1.0822,0.060734,1.4737,0.01354,inferred,Stations_USGS
OBS_506,Casaprota RI,12.804,42.252,macroseismic,645.39,4.5,0.3,0.8059,0.044378,0.875,3.6852,1.0131,0.072842,1.0822,0.040495,1.4737,0.009587,inferred,Stations_USGS
OBS_529,Colonnella TE,13.867,42.872,macroseismic,621.36,4.5,0.3,0.8059,0.045005,0.875,3.6852,1.0131,0.074171,1.0822,0.039832,1.4737,0.009352,inferred,Stations_USGS
OBS_260,Corridonia MC,13.51,43.248,macroseismic,414.27,5.5,0.3,0.8059,0.093554,0.875,7.6368,1.0131,0.219624,1.0822,0.088311,1.4737,0.019352,inferred,Stations_USGS
OBS_643,Castel di Tora RI,12.964,42.215,macroseismic,530.92,4.0,0.3,0.8059,0.025262,0.875,1.8712,1.0131,0.03619,1.0822,0.01921,1.4737,0.003675,inferred,Stations_USGS
OBS_581,Pietracamela TE,13.554,42.523,macroseismic,867.85,4.5,0.3,0.8059,0.045372,0.875,3.6852,1.0131,0.07495,1.0822,0.039453,1.4737,0.009219,inferred,Stations_USGS
OBS_364,Castel di Lama AP,13.707,42.873,macroseismic,487.83,5.0,0.3,0.8059,0.0644,0.875,5.305,1.0131,0.155767,1.0822,0.061684,1.4737,0.013778,inferred,Stations_USGS
OBS_575,Offagna AN,13.442,43.527,macroseismic,492.36,4.5,0.3,0.8059,0.04734,0.875,3.6852,1.0131,0.079162,1.0822,0.03753,1.4737,0.008553,inferred,Stations_USGS
OBS_865,Tollo CH,14.319,42.339,macroseismic,448.35,3.0,0.3,,,,,,,,,,,inferred,Stations_USGS
OBS_756,Chieti CH,14.169,42.351,macroseismic,431.29,3.5,0.3,,,,,,,,,,,inferred,Stations_USGS
OBS_150,Falcioni AN,12.986,43.415,macroseismic,563.1,6.0,0.3,0.8059,0.144826,0.875,10.9936,1.0131,0.309872,1.0822,0.1216,1.4737,0.026019,inferred,Stations_USGS
OBS_540,Gabicce Mare PU,12.757,43.966,macroseismic,376.3,4.5,0.3,0.8059,0.043272,0.875,3.6852,1.0131,0.070514,1.0822,0.041716,1.4737,0.009974,inferred,Stations_USGS
OBS_253,Collecorvino PE,14.015,42.458,macroseismic,318.53,5.5,0.3,0.8059,0.076667,0.875,7.6368,1.0131,0.197802,1.0822,0.099771,1.4737,0.022187,inferred,Stations_USGS
OBS_9,Verchiano PG,12.884,42.95,macroseismic,644.36,8.5,0.3,0.8059,0.963844,0.875,67.9639,1.0131,1.487929,1.0822,0.718798,1.4737,0.13949,inferred,Stations_USGS
OBS_198,Poggio San Vicino MC,13.079,43.375,macroseismic,780.78,6.0,0.3,0.8059,0.144766,0.875,10.9936,1.0131,0.309805,1.0822,0.121631,1.4737,0.026026,inferred,Stations_USGS
OBS_640,Caprese Michelangelo AR,11.986,43.641,macroseismic,525.49,4.0,0.3,0.8059,0.025668,0.875,1.8712,1.0131,0.036503,1.0822,0.01906,1.4737,0.003632,inferred,Stations_USGS
OBS_819,Fumone FR,13.291,41.727,macroseismic,760.0,3.0,0.3,,,,,,,,,,,inferred,Stations_USGS
OBS_298,Morrovalle MC,13.58,43.314,macroseismic,349.15,5.5,0.3,0.8059,0.08991,0.875,7.6368,1.0131,0.215084,1.0822,0.090488,1.4737,0.019887,inferred,Stations_USGS
OBS_279,Montalto delle Marche AP,13.609,42.988,macroseismic,445.17,5.5,0.3,0.8059,0.092019,0.875,7.6368,1.0131,0.217722,1.0822,0.089211,1.4737,0.019573,inferred,Stations_USGS
OBS_33,Salmaregia PG,12.861,43.197,macroseismic,758.52,7.5,0.3,0.8059,0.517293,0.875,32.7961,1.0131,0.853171,1.0822,0.324922,1.4737,0.064911,inferred,Stations_USGS
OBS_485,Valle Castellana TE,13.498,42.735,macroseismic,524.12,5.0,0.3,0.8059,0.066927,0.875,5.305,1.0131,0.163682,1.0822,0.060246,1.4737,0.013418,inferred,Stations_USGS
OBS_599,Scoppito AQ,13.256,42.372,macroseismic,869.12,4.5,0.3,0.8059,0.045304,0.875,3.6852,1.0131,0.074805,1.0822,0.039523,1.4737,0.009243,inferred,Stations_USGS
OBS_767,Moricone RM,12.771,42.117,macroseismic,646.63,3.5,0.3,,,,,,,,,,,inferred,Stations_USGS
OBS_504,Capena RM,12.54,42.142,macroseismic,468.53,4.5,0.3,0.8059,0.042375,0.875,3.6852,1.0131,0.068636,1.0822,0.042758,1.4737,0.010118,inferred,Stations_USGS
OBS_522,Civitella Casanova PE,13.889,42.364,macroseismic,433.97,4.5,0.3,0.8059,0.041282,0.875,3.6852,1.0131,0.066366,1.0822,0.044093,1.4737,0.010301,inferred,Stations_USGS
OBS_665,Gerano RM,12.994,41.933,macroseismic,607.06,4.0,0.3,0.8059,0.020717,0.875,1.8712,1.0131,0.032518,1.0822,0.021184,1.4737,0.004256,inferred,Stations_USGS
OBS_90,Cupo AN,12.815,43.34,macroseismic,619.01,6.5,0.3,0.8059,0.220358,0.875,15.8259,1.0131,0.433253,1.0822,0.169219,1.4737,0.035401,inferred,Stations_USGS
OBS_385,Ficulle TR,12.066,42.835,macroseismic,563.01,5.0,0.3,0.8059,0.06532,0.875,5.305,1.0131,0.158641,1.0822,0.06115,1.4737,0.013644,inferred,Stations_USGS
OBS_61,Ponte Parrano PG,12.776,43.135,macroseismic,449.6,7.0,0.3,0.8059,0.378967,0.875,22.7822,1.0131,0.646046,1.0822,0.218457,1.4737,0.04428,inferred,Stations_USGS
OBS_426,Monterado AN,13.092,43.697,macroseismic,542.92,5.0,0.3,0.8059,0.064727,0.875,5.305,1.0131,0.156788,1.0822,0.061493,1.4737,0.01373,inferred,Stations_USGS
OBS_614,Verghereto FC,12.005,43.793,macroseismic,729.31,4.5,0.3,0.8059,0.042583,0.875,3.6852,1.0131,0.069071,1.0822,0.042511,1.4737,0.010084,inferred,Stations_USGS
OBS_289,Montefelcino PU,12.834,43.734,macroseismic,513.02,5.5,0.3,0.8059,0.088238,0.875,7.6368,1.0131,0.212972,1.0822,0.091535,1.4737,0.020145,inferred,Stations_USGS
OBS_5,Cesi MC,12.899,43.005,macroseismic,549.17,8.5,0.3,0.8059,0.963844,0.875,67.9639,1.0131,1.487929,1.0822,0.718798,1.4737,0.13949,inferred,Stations_USGS
OBS_755,Cerreto Laziale RM,12.982,41.944,macroseismic,617.98,3.5,0.3,,,,,,,,,,,inferred,Stations_USGS
OBS_381,Cottanello RI,12.686,42.406,macroseismic,788.08,5.0,0.3,0.8059,0.064118,0.875,5.305,1.0131,0.154891,1.0822,0.06185,1.4737,0.013819,inferred,Stations_USGS
OBS_89,Corgneto MC,12.918,42.998,macroseismic,831.18,6.5,0.3,0.8059,0.27763,0.875,15.8259,1.0131,0.489204,1.0822,0.146876,1.4737,0.030206,inferred,Stations_USGS
OBS_585,Porto Recanati MC,13.665,43.432,macroseismic,267.48,4.5,0.3,0.8059,0.04584,0.875,3.6852,1.0131,0.075947,1.0822,0.038979,1.4737,0.009053,inferred,Stations_USGS
OBS_403,Lucignano AR,11.746,43.273,macroseismic,467.52,5.0,0.3,0.8059,0.060515,0.875,5.305,1.0131,0.143773,1.0822,0.064082,1.4737,0.014379,inferred,Stations_USGS
OBS_256,Concerviano RI,12.986,42.322,macroseismic,708.1,5.5,0.3,0.8059,0.084701,0.875,7.6368,1.0131,0.20844,1.0822,0.093859,1.4737,0.020719,inferred,Stations_USGS
OBS_231,Amandola AP,13.357,42.98,macroseismic,527.86,5.5,0.3,0.8059,0.103707,0.875,7.6368,1.0131,0.231848,1.0822,0.082907,1.4737,0.018029,inferred,Stations_USGS
OBS_849,Rocca di Botte AQ,13.068,42.025,macroseismic,900.0,3.0,0.3,,,,,,,,,,,inferred,Stations_USGS
OBS_72,Volperino PG,12.863,42.98,macroseismic,870.11,7.0,0.3,0.8059,0.378967,0.875,22.7822,1.0131,0.646046,1.0822,0.218457,1.4737,0.04428,inferred,Stations_USGS
OBS_761,Ischia di Castro VT,11.756,42.543,macroseismic,422.55,3.5,0.3,,,,,,,,,,,inferred,Stations_USGS
OBS_102,Poggio San Marcello AN,13.076,43.511,macroseismic,521.73,null,null,0.8059,0.181187,0.875,15.8259,1.0131,0.39089,1.0822,0.190787,1.4737,0.040495,inferred,Stations_USGS
OBS_568,Monterubbiano AP,13.716,43.085,macroseismic,617.36,4.5,0.3,0.8059,0.047534,0.875,3.6852,1.0131,0.07958,1.0822,0.03735,1.4737,0.008491,inferred,Stations_USGS
OBS_827,Jenne RM,13.169,41.887,macroseismic,760.0,3.0,0.3,,,,,,,,,,,inferred,Stations_USGS
OBS_621,Agosta RM,13.033,41.981,macroseismic,579.01,4.0,0.3,0.8059,0.021295,0.875,1.8712,1.0131,0.033004,1.0822,0.020898,1.4737,0.00417,inferred,Stations_USGS
OBS_449,Porto San Giorgio AP,13.794,43.18,macroseismic,483.35,5.0,0.3,0.8059,0.062928,0.875,5.305,1.0131,0.151197,1.0822,0.062565,1.4737,0.013998,inferred,Stations_USGS
OBS_266,Fossombrone PU,12.81,43.688,macroseismic,614.71,5.5,0.3,0.8059,0.090196,0.875,7.6368,1.0131,0.215443,1.0822,0.090312,1.4737,0.019844,inferred,Stations_USGS
OBS_829,Lariano RM,12.833,41.725,macroseismic,760.0,3.0,0.3,,,,,,,,,,,inferred,Stations_USGS
OBS_728,Villa Santa Lucia degli Abruzzi AQ,13.777,42.333,macroseismic,900.0,4.0,0.3,0.8059,0.022527,0.875,1.8712,1.0131,0.034021,1.0822,0.020326,1.4737,0.004,inferred,Stations_USGS
OBS_746,Casape RM,12.886,41.906,macroseismic,760.0,3.5,0.3,,,,,,,,,,,inferred,Stations_USGS
OBS_78,Cantia AN,12.86,43.363,macroseismic,530.54,6.5,0.3,0.8059,0.213571,0.875,15.8259,1.0131,0.426185,1.0822,0.172495,1.4737,0.03617,inferred,Stations_USGS
OBS_336,Terni TR,12.648,42.561,macroseismic,338.86,5.5,0.3,0.8059,0.094029,0.875,7.6368,1.0131,0.220209,1.0822,0.088037,1.4737,0.019284,inferred,Stations_USGS
OBS_594,San Lorenzo Nuovo VT,11.906,42.685,macroseismic,560.79,4.5,0.3,0.8059,0.044453,0.875,3.6852,1.0131,0.073002,1.0822,0.040414,1.4737,0.009558,inferred,Stations_USGS
OBS_211,Serra Sant'Abbondio PU,12.772,43.491,macroseismic,635.34,6.0,0.3,0.8059,0.13873,0.875,10.9936,1.0131,0.302945,1.0822,0.124848,1.4737,0.026799,inferred,Stations_USGS
OBS_451,Potenza Picena MC,13.621,43.366,macroseismic,396.89,5.0,0.3,0.8059,0.06428,0.875,5.305,1.0131,0.155394,1.0822,0.061755,1.4737,0.013795,inferred,Stations_USGS
OBS_43,Campodonico AN,12.864,43.228,macroseismic,709.09,7.0,0.3,0.8059,0.366206,0.875,22.7822,1.0131,0.634516,1.0822,0.223092,1.4737,0.045334,inferred,Stations_USGS
OBS_106,San Cassiano MC,12.949,43.174,macroseismic,846.51,6.5,0.3,0.8059,0.267863,0.875,15.8259,1.0131,0.48008,1.0822,0.150136,1.4737,0.030958,inferred,Stations_USGS
OBS_476,Sestino AR,12.297,43.708,macroseismic,410.8,5.0,0.3,0.8059,0.062262,0.875,5.305,1.0131,0.14914,1.0822,0.062974,1.4737,0.014101,inferred,Stations_USGS
OBS_264,Filottrano AN,13.351,43.434,macroseismic,385.14,5.5,0.3,0.8059,0.093249,0.875,7.6368,1.0131,0.219247,1.0822,0.088488,1.4737,0.019395,inferred,Stations_USGS
OBS_633,Bomarzo VT,12.251,42.488,macroseismic,582.58,4.0,0.3,0.8059,0.027949,0.875,1.8712,1.0131,0.038219,1.0822,0.018276,1.4737,0.00341,inferred,Stations_USGS
OBS_375,Civitanova Marche MC,13.73,43.307,macroseismic,253.61,5.0,0.3,0.8059,0.063087,0.875,5.305,1.0131,0.151688,1.0822,0.062468,1.4737,0.013974,inferred,Stations_USGS
OBS_757,Farnese VT,11.726,42.55,macroseismic,461.48,3.5,0.3,,,,,,,,,,,inferred,Stations_USGS
OBS_65,Sefro MC,12.949,43.146,macroseismic,610.74,7.0,0.3,0.8059,0.378967,0.875,22.7822,1.0131,0.646046,1.0822,0.218457,1.4737,0.04428,inferred,Stations_USGS
OBS_355,Calvi dell'Umbria TR,12.567,42.401,macroseismic,700.5,5.0,0.3,0.8059,0.063346,0.875,5.305,1.0131,0.152491,1.0822,0.062312,1.4737,0.013935,inferred,Stations_USGS
OBS_138,Casavecchia MC,13.062,42.998,macroseismic,491.85,6.0,0.3,0.8059,0.187436,0.875,10.9936,1.0131,0.354868,1.0822,0.10382,1.4737,0.021795,inferred,Stations_USGS
OBS_282,Monte San Vito AN,13.271,43.601,macroseismic,480.69,5.5,0.3,0.8059,0.08942,0.875,7.6368,1.0131,0.214467,1.0822,0.090792,1.4737,0.019962,inferred,Stations_USGS
OBS_27,Leggiana PG,12.829,42.981,macroseismic,639.73,7.5,0.3,0.8059,0.517293,0.875,32.7961,1.0131,0.853171,1.0822,0.324922,1.4737,0.064911,inferred,Stations_USGS
OBS_363,Casperia RI,12.67,42.338,macroseismic,598.77,5.0,0.3,0.8059,0.062287,0.875,5.305,1.0131,0.149216,1.0822,0.062959,1.4737,0.014097,inferred,Stations_USGS
OBS_712,Roccacasale AQ,13.887,42.124,macroseismic,900.0,4.0,0.3,0.8059,0.019734,0.875,1.8712,1.0131,0.031676,1.0822,0.021698,1.4737,0.004412,inferred,Stations_USGS
OBS_169,Mergo AN,13.037,43.471,macroseismic,503.49,6.0,0.3,0.8059,0.137254,0.875,10.9936,1.0131,0.301246,1.0822,0.125669,1.4737,0.026997,inferred,Stations_USGS
OBS_465,San Benedetto del Tronto AP,13.893,42.934,macroseismic,332.9,5.0,0.3,0.8059,0.061279,0.875,5.305,1.0131,0.146113,1.0822,0.063592,1.4737,0.014256,inferred,Stations_USGS
OBS_174,Montedinove AP,13.588,42.97,macroseismic,594.31,6.0,0.3,0.8059,0.126494,0.875,10.9936,1.0131,0.28859,1.0822,0.132117,1.4737,0.028554,inferred,Stations_USGS
OBS_659,Falconara Marittima AN,13.399,43.626,macroseismic,494.32,4.0,0.3,0.8059,0.028992,0.875,1.8712,1.0131,0.038982,1.0822,0.017949,1.4737,0.003318,inferred,Stations_USGS
OBS_332,Smerillo AP,13.445,43.004,macroseismic,715.11,5.5,0.3,0.8059,0.099061,0.875,7.6368,1.0131,0.226328,1.0822,0.085269,1.4737,0.018606,inferred,Stations_USGS
OBS_166,Matelica MC,13.009,43.256,macroseismic,356.36,6.0,0.3,0.8059,0.16628,0.875,10.9936,1.0131,0.333213,1.0822,0.111728,1.4737,0.023663,inferred,Stations_USGS
OBS_839,Ortona CH,14.404,42.353,macroseismic,420.09,3.0,0.3,,,,,,,,,,,inferred,Stations_USGS
OBS_542,Gallese VT,12.403,42.372,macroseismic,407.42,4.5,0.3,0.8059,0.045038,0.875,3.6852,1.0131,0.074241,1.0822,0.039797,1.4737,0.00934,inferred,Stations_USGS
OBS_501,Calcata VT,12.424,42.216,macroseismic,430.46,4.5,0.3,0.8059,0.042955,0.875,3.6852,1.0131,0.069848,1.0822,0.042079,1.4737,0.010024,inferred,Stations_USGS
OBS_593,San Giovanni Teatino CH,14.202,42.411,macroseismic,497.09,4.5,0.3,0.8059,0.039686,0.875,3.6852,1.0131,0.063079,1.0822,0.04611,1.4737,0.010584,inferred,Stations_USGS
OBS_207,San Martino AN,12.958,43.496,macroseismic,544.5,6.0,0.3,0.8059,0.136928,0.875,10.9936,1.0131,0.30087,1.0822,0.125852,1.4737,0.027041,inferred,Stations_USGS
OBS_625,Atri TE,13.978,42.58,macroseismic,625.82,4.0,0.3,0.8059,0.023209,0.875,1.8712,1.0131,0.034573,1.0822,0.02003,1.4737,0.003913,inferred,Stations_USGS
OBS_47,Colfiorito PG,12.891,43.027,macroseismic,464.08,7.0,0.3,0.8059,0.378967,0.875,22.7822,1.0131,0.646046,1.0822,0.218457,1.4737,0.04428,inferred,Stations_USGS
OBS_151,Falerone AP,13.472,43.107,macroseismic,337.59,6.0,0.3,0.8059,0.133133,0.875,10.9936,1.0131,0.296456,1.0822,0.128039,1.4737,0.027568,inferred,Stations_USGS
OBS_760,Galeata FC,11.912,43.996,macroseismic,660.48,3.5,0.3,,,,,,,,,,,inferred,Stations_USGS
OBS_137,Cantiano PU,12.628,43.473,macroseismic,411.17,6.0,0.3,0.8059,0.137937,0.875,10.9936,1.0131,0.302033,1.0822,0.125287,1.4737,0.026905,inferred,Stations_USGS
OBS_373,Ciciliano RM,12.941,41.961,macroseismic,309.81,5.0,0.3,0.8059,0.055402,0.875,5.305,1.0131,0.128324,1.0822,0.067645,1.4737,0.015278,inferred,Stations_USGS
OBS_793,Velletri RM,12.778,41.688,macroseismic,760.0,3.5,0.3,,,,,,,,,,,inferred,Stations_USGS
OBS_808,Castiglione Messer Raimondo TE,13.882,42.531,macroseismic,392.56,3.0,0.3,,,,,,,,,,,inferred,Stations_USGS
OBS_720,Siena SI,11.328,43.321,macroseismic,760.0,4.0,0.3,0.8059,0.020865,0.875,1.8712,1.0131,0.032643,1.0822,0.02111,1.4737,0.004233,inferred,Stations_USGS
OBS_269,Isola del Piano PU,12.783,43.736,macroseismic,454.63,5.5,0.3,0.8059,0.08814,0.875,7.6368,1.0131,0.212848,1.0822,0.091597,1.4737,0.02016,inferred,Stations_USGS
OBS_275,Marsciano PG,12.338,42.91,macroseismic,376.68,5.5,0.3,0.8059,0.100901,0.875,7.6368,1.0131,0.228528,1.0822,0.084312,1.4737,0.018372,inferred,Stations_USGS
OBS_588,Rignano Flaminio RM,12.479,42.206,macroseismic,321.02,4.5,0.3,0.8059,0.04302,0.875,3.6852,1.0131,0.069985,1.0822,0.042004,1.4737,0.010014,inferred,Stations_USGS
OBS_206,San Marcello AN,13.207,43.576,macroseismic,353.66,6.0,0.3,0.8059,0.124953,0.875,10.9936,1.0131,0.286737,1.0822,0.133113,1.4737,0.028795,inferred,Stations_USGS
OBS_495,Belvedere Ostrense AN,13.167,43.58,macroseismic,327.61,4.5,0.3,0.8059,0.049433,0.875,3.6852,1.0131,0.083699,1.0822,0.035666,1.4737,0.007923,inferred,Stations_USGS
OBS_708,Rocca Canterano RM,13.022,41.956,macroseismic,656.52,4.0,0.3,0.8059,0.020981,0.875,1.8712,1.0131,0.03274,1.0822,0.021052,1.4737,0.004216,inferred,Stations_USGS
OBS_330,Senigallia AN,13.223,43.714,macroseismic,244.48,5.5,0.3,0.8059,0.086302,0.875,7.6368,1.0131,0.210502,1.0822,0.092788,1.4737,0.020454,inferred,Stations_USGS
OBS_354,Bucchianico CH,14.181,42.304,macroseismic,353.24,5.0,0.3,0.8059,0.053528,0.875,5.305,1.0131,0.12276,1.0822,0.069087,1.4737,0.015644,inferred,Stations_USGS
OBS_118,Visso MC,13.088,42.93,macroseismic,571.64,6.5,0.3,0.8059,0.231988,0.875,15.8259,1.0131,0.445127,1.0822,0.163968,1.4737,0.034172,inferred,Stations_USGS
OBS_710,Rocca San Giovanni CH,14.466,42.25,macroseismic,760.0,4.0,0.3,0.8059,0.01755,0.875,1.8712,1.0131,0.029734,1.0822,0.02299,1.4737,0.004812,inferred,Stations_USGS
OBS_271,Leonessa RI,12.962,42.566,macroseismic,828.02,5.5,0.3,0.8059,0.095275,0.875,7.6368,1.0131,0.221738,1.0822,0.08733,1.4737,0.019111,inferred,Stations_USGS
OBS_848,Reggio nell'Emilia RE,10.631,44.697,macroseismic,760.0,3.0,0.3,,,,,,,,,,,inferred,Stations_USGS
OBS_735,Barisciano AQ,13.592,42.325,macroseismic,648.52,3.5,0.3,,,,,,,,,,,inferred,Stations_USGS
OBS_199,Poggiodomo PG,12.934,42.711,macroseismic,829.19,6.0,0.3,0.8059,0.144511,0.875,10.9936,1.0131,0.309517,1.0822,0.121762,1.4737,0.026058,inferred,Stations_USGS
OBS_91,Fabriano AN,12.905,43.335,macroseismic,512.64,6.5,0.3,0.8059,0.219,0.875,15.8259,1.0131,0.431847,1.0822,0.169862,1.4737,0.035552,inferred,Stations_USGS
OBS_3,Arvello PG,12.846,43.037,macroseismic,365.95,8.5,0.3,0.8059,0.963844,0.875,67.9639,1.0131,1.487929,1.0822,0.718798,1.4737,0.13949,inferred,Stations_USGS
OBS_802,Blera VT,12.028,42.273,macroseismic,410.26,3.0,0.3,,,,,,,,,,,inferred,Stations_USGS
OBS_790,Tornimparte AQ,13.301,42.29,macroseismic,598.08,3.5,0.3,,,,,,,,,,,inferred,Stations_USGS
OBS_721,Spoltore PE,14.138,42.454,macroseismic,362.33,4.0,0.3,0.8059,0.020778,0.875,1.8712,1.0131,0.032569,1.0822,0.021153,1.4737,0.004247,inferred,Stations_USGS
OBS_675,Marcellina RM,12.806,42.023,macroseismic,860.78,4.0,0.3,0.8059,0.021994,0.875,1.8712,1.0131,0.033585,1.0822,0.020568,1.4737,0.004071,inferred,Stations_USGS
OBS_519,Chiusi SI,11.947,43.015,macroseismic,442.76,4.5,0.3,0.8059,0.047256,0.875,3.6852,1.0131,0.078982,1.0822,0.037608,1.4737,0.008579,inferred,Stations_USGS
OBS_645,Castrocaro Terme FC,11.947,44.172,macroseismic,419.21,4.0,0.3,0.8059,0.019203,0.875,1.8712,1.0131,0.031214,1.0822,0.021991,1.4737,0.004502,inferred,Stations_USGS
OBS_116,Vallinfante MC,13.175,42.892,macroseismic,533.06,6.5,0.3,0.8059,0.210347,0.875,15.8259,1.0131,0.422791,1.0822,0.174111,1.4737,0.03655,inferred,Stations_USGS
OBS_276,Micigliano RI,13.055,42.451,macroseismic,877.43,5.5,0.3,0.8059,0.089052,0.875,7.6368,1.0131,0.214003,1.0822,0.091021,1.4737,0.020018,inferred,Stations_USGS
OBS_791,Tortoreto TE,13.914,42.803,macroseismic,533.16,3.5,0.3,,,,,,,,,,,inferred,Stations_USGS
OBS_534,Fano PU,13.018,43.837,macroseismic,259.78,4.5,0.3,0.8059,0.045081,0.875,3.6852,1.0131,0.074333,1.0822,0.039752,1.4737,0.009324,inferred,Stations_USGS
OBS_358,Cantalupo in Sabina RI,12.65,42.304,macroseismic,552.72,5.0,0.3,0.8059,0.061414,0.875,5.305,1.0131,0.14653,1.0822,0.063505,1.4737,0.014234,inferred,Stations_USGS
OBS_131,Borgo Cerreto PG,12.917,42.814,macroseismic,414.74,6.0,0.3,0.8059,0.161067,0.875,10.9936,1.0131,0.32768,1.0822,0.113931,1.4737,0.024187,inferred,Stations_USGS
OBS_79,Caprara PG,12.698,43.255,macroseismic,623.28,6.5,0.3,0.8059,0.240622,0.875,15.8259,1.0131,0.453761,1.0822,0.160337,1.4737,0.033325,inferred,Stations_USGS
OBS_774,Pomezia RM,12.5,41.678,macroseismic,760.0,3.5,0.3,,,,,,,,,,,inferred,Stations_USGS
OBS_34,Scopoli PG,12.809,42.972,macroseismic,544.93,7.5,0.3,0.8059,0.517293,0.875,32.7961,1.0131,0.853171,1.0822,0.324922,1.4737,0.064911,inferred,Stations_USGS
OBS_112,Sigillo PG,12.741,43.331,macroseismic,672.6,6.5,0.3,0.8059,0.22071,0.875,15.8259,1.0131,0.433616,1.0822,0.169054,1.4737,0.035362,inferred,Stations_USGS
OBS_811,Chitignano AR,11.882,43.661,macroseismic,900.0,3.0,0.3,,,,,,,,,,,inferred,Stations_USGS
OBS_753,Castelvecchio Subequo AQ,13.731,42.13,macroseismic,489.59,3.5,0.3,,,,,,,,,,,inferred,Stations_USGS
OBS_303,Orvieto TR,12.113,42.719,macroseismic,437.51,5.5,0.3,0.8059,0.087758,0.875,7.6368,1.0131,0.212362,1.0822,0.091841,1.4737,0.020221,inferred,Stations_USGS
OBS_54,Forcatura PG,12.862,43.026,macroseismic,496.42,7.0,0.3,0.8059,0.378967,0.875,22.7822,1.0131,0.646046,1.0822,0.218457,1.4737,0.04428,inferred,Stations_USGS
OBS_798,Allumiere RM,11.903,42.155,macroseismic,846.15,3.0,0.3,,,,,,,,,,,inferred,Stations_USGS
OBS_205,San Lorenzo in Campo PU,12.947,43.604,macroseismic,341.18,6.0,0.3,0.8059,0.128116,0.875,10.9936,1.0131,0.29053,1.0822,0.131089,1.4737,0.028305,inferred,Stations_USGS
OBS_509,Casteldelci PU,12.155,43.791,macroseismic,547.73,4.5,0.3,0.8059,0.043536,0.875,3.6852,1.0131,0.071067,1.0822,0.041419,1.4737,0.009932,inferred,Stations_USGS
OBS_108,San Presto PG,12.674,43.131,macroseismic,477.35,6.5,0.3,0.8059,0.27763,0.875,15.8259,1.0131,0.489204,1.0822,0.146876,1.4737,0.030206,inferred,Stations_USGS
OBS_673,Lubriano VT,12.114,42.636,macroseismic,677.9,4.0,0.3,0.8059,0.028651,0.875,1.8712,1.0131,0.038734,1.0822,0.018054,1.4737,0.003348,inferred,Stations_USGS
OBS_86,Collepino PG,12.704,43.02,macroseismic,900.0,6.5,0.3,0.8059,0.27098,0.875,15.8259,1.0131,0.483009,1.0822,0.149075,1.4737,0.030713,inferred,Stations_USGS
OBS_644,Castilenti TE,13.918,42.533,macroseismic,478.01,4.0,0.3,0.8059,0.023412,0.875,1.8712,1.0131,0.034736,1.0822,0.019944,1.4737,0.003887,inferred,Stations_USGS
OBS_393,Graffignano VT,12.205,42.575,macroseismic,385.03,5.0,0.3,0.8059,0.063326,0.875,5.305,1.0131,0.152432,1.0822,0.062323,1.4737,0.013938,inferred,Stations_USGS
OBS_460,Roccagiovine RM,12.899,42.049,macroseismic,857.43,5.0,0.3,0.8059,0.056771,0.875,5.305,1.0131,0.13242,1.0822,0.066641,1.4737,0.015024,inferred,Stations_USGS
OBS_223,Ussita MC,13.136,42.944,macroseismic,801.32,6.0,0.3,0.8059,0.164695,0.875,10.9936,1.0131,0.33154,1.0822,0.112386,1.4737,0.02382,inferred,Stations_USGS
OBS_762,Manciano GR,11.516,42.586,macroseismic,510.33,3.5,0.3,,,,,,,,,,,inferred,Stations_USGS
OBS_677,Mercato Saraceno FC,12.197,43.962,macroseismic,520.61,4.0,0.3,0.8059,0.022684,0.875,1.8712,1.0131,0.034149,1.0822,0.020257,1.4737,0.003979,inferred,Stations_USGS
OBS_685,Montelanico RM,13.04,41.65,macroseismic,760.0,4.0,0.3,0.8059,0.017773,0.875,1.8712,1.0131,0.029937,1.0822,0.022847,1.4737,0.004767,inferred,Stations_USGS
OBS_227,Acquasanta Terme AP,13.41,42.769,macroseismic,560.4,5.5,0.3,0.8059,0.095126,0.875,7.6368,1.0131,0.221556,1.0822,0.087414,1.4737,0.019131,inferred,Stations_USGS
OBS_49,Colle Croce PG,12.855,43.074,macroseismic,310.82,7.0,0.3,0.8059,0.378967,0.875,22.7822,1.0131,0.646046,1.0822,0.218457,1.4737,0.04428,inferred,Stations_USGS
OBS_733,Atessa CH,14.446,42.066,macroseismic,760.0,3.5,0.3,,,,,,,,,,,inferred,Stations_USGS
OBS_450,Posta RI,13.097,42.524,macroseismic,246.17,5.0,0.3,0.8059,0.067227,0.875,5.305,1.0131,0.164626,1.0822,0.060081,1.4737,0.013377,inferred,Stations_USGS
OBS_590,Sacrofano RM,12.447,42.105,macroseismic,504.34,4.5,0.3,0.8059,0.041688,0.875,3.6852,1.0131,0.067207,1.0822,0.043588,1.4737,0.010232,inferred,Stations_USGS
OBS_858,Saracinesco RM,12.953,42.003,macroseismic,900.0,3.0,0.3,,,,,,,,,,,inferred,Stations_USGS
OBS_691,Novafeltria PU,12.29,43.894,macroseismic,422.71,4.0,0.3,0.8059,0.024258,0.875,1.8712,1.0131,0.035407,1.0822,0.019598,1.4737,0.003787,inferred,Stations_USGS
OBS_374,Cittareale RI,13.16,42.617,macroseismic,581.57,5.0,0.3,0.8059,0.069717,0.875,5.305,1.0131,0.167805,1.0822,0.058757,1.4737,0.013047,inferred,Stations_USGS
OBS_770,Oriolo Romano VT,12.139,42.159,macroseismic,258.27,3.5,0.3,,,,,,,,,,,inferred,Stations_USGS
OBS_661,Farindola PE,13.824,42.441,macroseismic,607.06,4.0,0.3,0.8059,0.02337,0.875,1.8712,1.0131,0.034702,1.0822,0.019962,1.4737,0.003893,inferred,Stations_USGS
OBS_366,Castelnuovo di Farfa RI,12.744,42.231,macroseismic,533.23,5.0,0.3,0.8059,0.060056,0.875,5.305,1.0131,0.14237,1.0822,0.064382,1.4737,0.014455,inferred,Stations_USGS
OBS_486,Vallo di Nera PG,12.865,42.754,macroseismic,900.0,5.0,0.3,0.8059,0.081216,0.875,5.305,1.0131,0.181828,1.0822,0.053508,1.4737,0.011748,inferred,Stations_USGS
OBS_443,Poggio San Lorenzo RI,12.844,42.252,macroseismic,489.78,5.0,0.3,0.8059,0.060594,0.875,5.305,1.0131,0.144015,1.0822,0.064031,1.4737,0.014367,inferred,Stations_USGS
OBS_6,Isola PG,12.776,43.149,macroseismic,584.08,8.5,0.3,0.8059,0.963844,0.875,67.9639,1.0131,1.487929,1.0822,0.718798,1.4737,0.13949,inferred,Stations_USGS
OBS_324,Santa Vittoria in Matenano AP,13.496,43.018,macroseismic,563.63,5.5,0.3,0.8059,0.096696,0.875,7.6368,1.0131,0.223472,1.0822,0.086541,1.4737,0.018917,inferred,Stations_USGS
OBS_638,Capodimonte VT,11.912,42.55,macroseismic,333.05,4.0,0.3,0.8059,0.024641,0.875,1.8712,1.0131,0.035708,1.0822,0.019447,1.4737,0.003743,inferred,Stations_USGS
OBS_139,Castelbellino AN,13.145,43.486,macroseismic,574.47,6.0,0.3,0.8059,0.132412,0.875,10.9936,1.0131,0.295612,1.0822,0.128466,1.4737,0.027671,inferred,Stations_USGS
OBS_190,Passo di Treia MC,13.329,43.283,macroseismic,442.94,6.0,0.3,0.8059,0.135619,0.875,10.9936,1.0131,0.299354,1.0822,0.126595,1.4737,0.02722,inferred,Stations_USGS
OBS_439,Piandimeleto PU,12.414,43.724,macroseismic,410.38,5.0,0.3,0.8059,0.062997,0.875,5.305,1.0131,0.15141,1.0822,0.062523,1.4737,0.013988,inferred,Stations_USGS
OBS_284,Montecarotto AN,13.063,43.526,macroseismic,541.07,5.5,0.3,0.8059,0.096652,0.875,7.6368,1.0131,0.223417,1.0822,0.086565,1.4737,0.018923,inferred,Stations_USGS
OBS_41,Bagnara PG,12.853,43.111,macroseismic,335.97,7.0,0.3,0.8059,0.378967,0.875,22.7822,1.0131,0.646046,1.0822,0.218457,1.4737,0.04428,inferred,Stations_USGS
OBS_558,Montecchio TR,12.286,42.662,macroseismic,594.52,4.5,0.3,0.8059,0.048633,0.875,3.6852,1.0131,0.081958,1.0822,0.036358,1.4737,0.008155,inferred,Stations_USGS
OBS_491,Arsita TE,13.784,42.502,macroseismic,569.5,4.5,0.3,0.8059,0.043194,0.875,3.6852,1.0131,0.070348,1.0822,0.041805,1.4737,0.009986,inferred,Stations_USGS
OBS_117,Varano AN,12.854,43.325,macroseismic,608.94,6.5,0.3,0.8059,0.224381,0.875,15.8259,1.0131,0.437393,1.0822,0.167353,1.4737,0.034964,inferred,Stations_USGS
OBS_562,Montegridolfo RN,12.69,43.858,macroseismic,699.67,4.5,0.3,0.8059,0.044875,0.875,3.6852,1.0131,0.073895,1.0822,0.039967,1.4737,0.0094,inferred,Stations_USGS
OBS_783,San Vito Romano RM,12.98,41.881,macroseismic,760.0,3.5,0.3,,,,,,,,,,,inferred,Stations_USGS
OBS_725,Vasanello VT,12.346,42.416,macroseismic,329.9,4.0,0.3,0.8059,0.027506,0.875,1.8712,1.0131,0.037891,1.0822,0.01842,1.4737,0.00345,inferred,Stations_USGS
OBS_751,Castel Viscardo TR,12.002,42.755,macroseismic,767.89,3.5,0.3,,,,,,,,,,,inferred,Stations_USGS
OBS_362,Cartoceto PU,12.883,43.765,macroseismic,471.48,5.0,0.3,0.8059,0.063708,0.875,5.305,1.0131,0.153617,1.0822,0.062094,1.4737,0.01388,inferred,Stations_USGS
OBS_159,Gubbio PG,12.577,43.351,macroseismic,646.31,6.0,0.3,0.8059,0.148594,0.875,10.9936,1.0131,0.314085,1.0822,0.1197,1.4737,0.025564,inferred,Stations_USGS
OBS_48,Collattoni MC,12.964,42.98,macroseismic,546.18,7.0,0.3,0.8059,0.378967,0.875,22.7822,1.0131,0.646046,1.0822,0.218457,1.4737,0.04428,inferred,Stations_USGS
OBS_204,San Giustino PG,12.175,43.549,macroseismic,472.48,6.0,0.3,0.8059,0.119412,0.875,10.9936,1.0131,0.27998,1.0822,0.136866,1.4737,0.029707,inferred,Stations_USGS
OBS_111,Serrone PG,12.844,42.971,macroseismic,468.5,6.5,0.3,0.8059,0.27763,0.875,15.8259,1.0131,0.489204,1.0822,0.146876,1.4737,0.030206,inferred,Stations_USGS
OBS_115,Valfabbrica PG,12.602,43.158,macroseismic,523.29,6.5,0.3,0.8059,0.245728,0.875,15.8259,1.0131,0.458798,1.0822,0.158286,1.4737,0.032848,inferred,Stations_USGS
OBS_601,Servigliano AP,13.492,43.08,macroseismic,435.32,4.5,0.3,0.8059,0.051963,0.875,3.6852,1.0131,0.089256,1.0822,0.033631,1.4737,0.007254,inferred,Stations_USGS
OBS_549,Marano Equo RM,13.016,41.993,macroseismic,512.38,4.5,0.3,0.8059,0.040878,0.875,3.6852,1.0131,0.065528,1.0822,0.044607,1.4737,0.010371,inferred,Stations_USGS
OBS_82,Cessapalombo MC,13.258,43.108,macroseismic,565.7,6.5,0.3,0.8059,0.206101,0.875,15.8259,1.0131,0.418283,1.0822,0.176301,1.4737,0.037066,inferred,Stations_USGS
OBS_64,Roccanolfi PG,13.018,42.859,macroseismic,884.1,7.0,0.3,0.8059,0.305146,0.875,22.7822,1.0131,0.576496,1.0822,0.249481,1.4737,0.051385,inferred,Stations_USGS
OBS_103,Porziano PG,12.662,43.144,macroseismic,547.08,6.5,0.3,0.8059,0.270518,0.875,15.8259,1.0131,0.482576,1.0822,0.149231,1.4737,0.030749,inferred,Stations_USGS
OBS_525,Civitella in Val di Chiana AR,11.723,43.418,macroseismic,547.32,4.5,0.3,0.8059,0.04343,0.875,3.6852,1.0131,0.070844,1.0822,0.041538,1.4737,0.009949,inferred,Stations_USGS
OBS_763,Manziana RM,12.13,42.13,macroseismic,479.14,3.5,0.3,,,,,,,,,,,inferred,Stations_USGS
OBS_414,Mondaino RN,12.673,43.858,macroseismic,329.68,5.0,0.3,0.8059,0.061216,0.875,5.305,1.0131,0.145922,1.0822,0.063631,1.4737,0.014266,inferred,Stations_USGS
OBS_382,Crognaleto TE,13.49,42.587,macroseismic,443.18,5.0,0.3,0.8059,0.064004,0.875,5.305,1.0131,0.154535,1.0822,0.061918,1.4737,0.013836,inferred,Stations_USGS
OBS_846,Pratovecchio AR,11.722,43.788,macroseismic,603.82,3.0,0.3,,,,,,,,,,,inferred,Stations_USGS
OBS_93,Fondi PG,12.821,43.04,macroseismic,625.43,6.5,0.3,0.8059,0.27763,0.875,15.8259,1.0131,0.489204,1.0822,0.146876,1.4737,0.030206,inferred,Stations_USGS
OBS_857,Sant'Eusanio Forconese AQ,13.525,42.288,macroseismic,370.59,3.0,0.3,,,,,,,,,,,inferred,Stations_USGS
OBS_543,Gatteo FC,12.386,44.109,macroseismic,275.64,4.5,0.3,0.8059,0.040884,0.875,3.6852,1.0131,0.065542,1.0822,0.044599,1.4737,0.01037,inferred,Stations_USGS
OBS_172,Piedelsasso MC,13.001,42.994,macroseismic,426.05,6.0,0.3,0.8059,0.203391,0.875,10.9936,1.0131,0.37044,1.0822,0.09875,1.4737,0.020605,inferred,Stations_USGS
OBS_290,Montefortino AP,13.342,42.942,macroseismic,567.59,5.5,0.3,0.8059,0.103834,0.875,7.6368,1.0131,0.231997,1.0822,0.082845,1.4737,0.018014,inferred,Stations_USGS
OBS_837,Montorio Romano RM,12.807,42.139,macroseismic,784.19,3.0,0.3,,,,,,,,,,,inferred,Stations_USGS
OBS_440,Pizzoli AQ,13.303,42.435,macroseismic,612.46,5.0,0.3,0.8059,0.062839,0.875,5.305,1.0131,0.150923,1.0822,0.062619,1.4737,0.014012,inferred,Stations_USGS
OBS_458,Rocca Santa Maria TE,13.528,42.686,macroseismic,590.82,5.0,0.3,0.8059,0.065378,0.875,5.305,1.0131,0.158821,1.0822,0.061117,1.4737,0.013636,inferred,Stations_USGS
OBS_545,Licenza RM,12.903,42.072,macroseismic,561.02,4.5,0.3,0.8059,0.041866,0.875,3.6852,1.0131,0.067575,1.0822,0.043371,1.4737,0.010203,inferred,Stations_USGS
OBS_217,Torgiano PG,12.436,43.025,macroseismic,269.81,6.0,0.3,0.8059,0.152262,0.875,10.9936,1.0131,0.318137,1.0822,0.117925,1.4737,0.025139,inferred,Stations_USGS
OBS_241,Canepina MC,13.059,43.165,macroseismic,321.39,5.5,0.3,0.8059,0.126628,0.875,7.6368,1.0131,0.257509,1.0822,0.073356,1.4737,0.015718,inferred,Stations_USGS
OBS_173,Monte Vidon Corrado AP,13.486,43.121,macroseismic,565.81,6.0,0.3,0.8059,0.13206,0.875,10.9936,1.0131,0.295199,1.0822,0.128675,1.4737,0.027722,inferred,Stations_USGS
OBS_425,Montelibretti RM,12.739,42.134,macroseismic,346.85,5.0,0.3,0.8059,0.058167,0.875,5.305,1.0131,0.13663,1.0822,0.065655,1.4737,0.014776,inferred,Stations_USGS
OBS_129,Bolognola MC,13.228,42.993,macroseismic,659.18,6.0,0.3,0.8059,0.155258,0.875,10.9936,1.0131,0.321412,1.0822,0.116525,1.4737,0.024805,inferred,Stations_USGS
OBS_24,Forfi PG,12.911,42.918,macroseismic,691.5,7.5,0.3,0.8059,0.485136,0.875,32.7961,1.0131,0.824865,1.0822,0.337958,1.4737,0.067837,inferred,Stations_USGS
OBS_170,Monsampietro Morico AP,13.556,43.067,macroseismic,480.05,6.0,0.3,0.8059,0.128515,0.875,10.9936,1.0131,0.291006,1.0822,0.13084,1.4737,0.028245,inferred,Stations_USGS
OBS_560,Monteflavio RM,12.831,42.108,macroseismic,702.79,4.5,0.3,0.8059,0.042324,0.875,3.6852,1.0131,0.06853,1.0822,0.042818,1.4737,0.010127,inferred,Stations_USGS
OBS_73,Assisi PG,12.616,43.07,macroseismic,729.94,6.5,0.3,0.8059,0.254218,0.875,15.8259,1.0131,0.467064,1.0822,0.155025,1.4737,0.03209,inferred,Stations_USGS
OBS_461,Rosora AN,13.069,43.482,macroseismic,607.7,5.0,0.3,0.8059,0.072603,0.875,5.305,1.0131,0.171421,1.0822,0.057314,1.4737,0.012689,inferred,Stations_USGS
OBS_243,Castel Colonna AN,13.107,43.679,macroseismic,484.91,5.5,0.3,0.8059,0.088893,0.875,7.6368,1.0131,0.213801,1.0822,0.091121,1.4737,0.020043,inferred,Stations_USGS
OBS_658,Fagnano Alto AQ,13.575,42.254,macroseismic,751.11,4.0,0.3,0.8059,0.022968,0.875,1.8712,1.0131,0.034379,1.0822,0.020133,1.4737,0.003943,inferred,Stations_USGS
OBS_357,Camerata Picena AN,13.353,43.578,macroseismic,444.0,5.0,0.3,0.8059,0.064924,0.875,5.305,1.0131,0.157401,1.0822,0.061379,1.4737,0.013701,inferred,Stations_USGS
OBS_39,Aschio MC,13.064,42.973,macroseismic,680.33,7.0,0.3,0.8059,0.340088,0.875,22.7822,1.0131,0.610309,1.0822,0.233442,1.4737,0.047698,inferred,Stations_USGS
OBS_57,Molini di Cammoro PG,12.859,42.916,macroseismic,536.21,7.0,0.3,0.8059,0.359512,0.875,22.7822,1.0131,0.628392,1.0822,0.225628,1.4737,0.045912,inferred,Stations_USGS
OBS_868,Vacri CH,14.231,42.296,macroseismic,438.55,3.0,0.3,,,,,,,,,,,inferred,Stations_USGS
OBS_422,Montecosaro MC,13.636,43.316,macroseismic,545.47,5.0,0.3,0.8059,0.064719,0.875,5.305,1.0131,0.156763,1.0822,0.061498,1.4737,0.013731,inferred,Stations_USGS
OBS_168,Mergnano San Savino MC,13.052,43.163,macroseismic,489.6,6.0,0.3,0.8059,0.174442,0.875,10.9936,1.0131,0.341714,1.0822,0.108494,1.4737,0.022897,inferred,Stations_USGS
OBS_452,Radicofani SI,11.769,42.896,macroseismic,469.58,5.0,0.3,0.8059,0.060627,0.875,5.305,1.0131,0.144116,1.0822,0.064009,1.4737,0.014361,inferred,Stations_USGS
OBS_83,Cingoli MC,13.216,43.375,macroseismic,645.01,null,null,0.8059,0.186777,0.875,15.8259,1.0131,0.397185,1.0822,0.187266,1.4737,0.039659,inferred,Stations_USGS
OBS_377,Colli sul Velino RI,12.779,42.498,macroseismic,462.83,5.0,0.3,0.8059,0.067339,0.875,5.305,1.0131,0.164771,1.0822,0.06002,1.4737,0.013362,inferred,Stations_USGS
OBS_494,Bellaria RN,12.456,44.151,macroseismic,203.38,4.5,0.3,0.8059,0.040601,0.875,3.6852,1.0131,0.064958,1.0822,0.045471,1.4737,0.01042,inferred,Stations_USGS
OBS_100,Ottaggi PG,12.912,42.906,macroseismic,532.36,6.5,0.3,0.8059,0.253812,0.875,15.8259,1.0131,0.466672,1.0822,0.155177,1.4737,0.032125,inferred,Stations_USGS
OBS_270,L'Aquila AQ,13.396,42.356,macroseismic,478.16,5.5,0.3,0.8059,0.082456,0.875,7.6368,1.0131,0.205517,1.0822,0.095417,1.4737,0.021105,inferred,Stations_USGS
OBS_8,San Martino MC,12.929,42.972,macroseismic,363.65,8.5,0.3,0.8059,0.963844,0.875,67.9639,1.0131,1.487929,1.0822,0.718798,1.4737,0.13949,inferred,Stations_USGS
OBS_541,Gagliano Aterno AQ,13.701,42.126,macroseismic,900.0,4.5,0.3,0.8059,0.040255,0.875,3.6852,1.0131,0.064246,1.0822,0.04571,1.4737,0.010481,inferred,Stations_USGS
OBS_390,Frasso Sabino RI,12.805,42.229,macroseismic,415.1,5.0,0.3,0.8059,0.060084,0.875,5.305,1.0131,0.142456,1.0822,0.064363,1.4737,0.01445,inferred,Stations_USGS
OBS_771,Orvinio RI,12.939,42.131,macroseismic,493.69,3.5,0.3,,,,,,,,,,,inferred,Stations_USGS
OBS_840,Pennapiedimonte CH,14.194,42.151,macroseismic,900.0,3.0,0.3,,,,,,,,,,,inferred,Stations_USGS
OBS_455,Riano RM,12.523,42.091,macroseismic,446.08,5.0,0.3,0.8059,0.056947,0.875,5.305,1.0131,0.13295,1.0822,0.066514,1.4737,0.014992,inferred,Stations_USGS
OBS_153,Ferentillo TR,12.791,42.62,macroseismic,816.38,6.0,0.3,0.8059,0.135028,0.875,10.9936,1.0131,0.298668,1.0822,0.126935,1.4737,0.027302,inferred,Stations_USGS
OBS_611,Torrita Tiberina RM,12.619,42.236,macroseismic,544.0,4.5,0.3,0.8059,0.043846,0.875,3.6852,1.0131,0.07172,1.0822,0.041074,1.4737,0.009793,inferred,Stations_USGS
OBS_51,Corone PG,13.01,42.882,macroseismic,389.59,7.0,0.3,0.8059,0.315612,0.875,22.7822,1.0131,0.586808,1.0822,0.244377,1.4737,0.050209,inferred,Stations_USGS
OBS_748,Castel di Ieri AQ,13.743,42.114,macroseismic,640.58,3.5,0.3,,,,,,,,,,,inferred,Stations_USGS
OBS_318,Ripe San Ginesio MC,13.367,43.142,macroseismic,549.06,5.5,0.3,0.8059,0.102372,0.875,7.6368,1.0131,0.230274,1.0822,0.083568,1.4737,0.018191,inferred,Stations_USGS
OBS_563,Montemarciano AN,13.31,43.639,macroseismic,391.38,4.5,0.3,0.8059,0.046953,0.875,3.6852,1.0131,0.07833,1.0822,0.037894,1.4737,0.008677,inferred,Stations_USGS
OBS_818,Fossa AQ,13.487,42.296,macroseismic,900.0,3.0,0.3,,,,,,,,,,,inferred,Stations_USGS
OBS_567,Montereale AQ,13.246,42.522,macroseismic,452.77,4.5,0.3,0.8059,0.048051,0.875,3.6852,1.0131,0.080698,1.0822,0.036877,1.4737,0.00833,inferred,Stations_USGS
OBS_359,Capitignano AQ,13.301,42.52,macroseismic,646.02,5.0,0.3,0.8059,0.064883,0.875,5.305,1.0131,0.157275,1.0822,0.061402,1.4737,0.013707,inferred,Stations_USGS
OBS_514,Celleno VT,12.134,42.558,macroseismic,492.44,4.5,0.3,0.8059,0.045448,0.875,3.6852,1.0131,0.075111,1.0822,0.039376,1.4737,0.009192,inferred,Stations_USGS
OBS_383,Cupra Marittima AP,13.86,43.024,macroseismic,540.9,5.0,0.3,0.8059,0.062049,0.875,5.305,1.0131,0.148484,1.0822,0.063106,1.4737,0.014134,inferred,Stations_USGS
OBS_94,Fossato di Vico PG,12.762,43.295,macroseismic,832.31,6.5,0.3,0.8059,0.233684,0.875,15.8259,1.0131,0.446835,1.0822,0.163238,1.4737,0.034002,inferred,Stations_USGS
OBS_459,Roccafluvione AP,13.475,42.861,macroseismic,556.36,5.0,0.3,0.8059,0.069887,0.875,5.305,1.0131,0.168019,1.0822,0.058669,1.4737,0.013025,inferred,Stations_USGS
OBS_842,Pian di Melosa FI,11.533,43.748,macroseismic,597.87,3.0,0.3,,,,,,,,,,,inferred,Stations_USGS
OBS_126,Bastia PG,12.552,43.065,macroseismic,290.05,6.0,0.3,0.8059,0.171418,0.875,10.9936,1.0131,0.338586,1.0822,0.109664,1.4737,0.023174,inferred,Stations_USGS
OBS_683,Montecompatri RM,12.736,41.807,macroseismic,760.0,4.0,0.3,0.8059,0.019294,0.875,1.8712,1.0131,0.031293,1.0822,0.02194,1.4737,0.004486,inferred,Stations_USGS
OBS_481,Todi PG,12.407,42.781,macroseismic,460.84,5.0,0.3,0.8059,0.072153,0.875,5.305,1.0131,0.170862,1.0822,0.057533,1.4737,0.012743,inferred,Stations_USGS
OBS_201,Rasiglia PG,12.861,42.959,macroseismic,401.12,6.0,0.3,0.8059,0.203391,0.875,10.9936,1.0131,0.37044,1.0822,0.09875,1.4737,0.020605,inferred,Stations_USGS
OBS_274,Maltignano AP,13.687,42.831,macroseismic,583.76,5.5,0.3,0.8059,0.087937,0.875,7.6368,1.0131,0.212589,1.0822,0.091727,1.4737,0.020192,inferred,Stations_USGS
OBS_13,Costa MC,12.924,42.993,macroseismic,900.0,8.0,0.3,0.8059,0.706109,0.875,47.2118,1.0131,1.126702,1.0822,0.483274,1.4737,0.095155,inferred,Stations_USGS
OBS_604,Tavoleto PU,12.594,43.843,macroseismic,500.62,4.5,0.3,0.8059,0.044917,0.875,3.6852,1.0131,0.073985,1.0822,0.039923,1.4737,0.009384,inferred,Stations_USGS
OBS_656,Corvara PE,13.874,42.275,macroseismic,888.17,4.0,0.3,0.8059,0.021213,0.875,1.8712,1.0131,0.032936,1.0822,0.020938,1.4737,0.004182,inferred,Stations_USGS
OBS_42,Biscina PG,12.847,42.93,macroseismic,735.51,7.0,0.3,0.8059,0.371361,0.875,22.7822,1.0131,0.639197,1.0822,0.221188,1.4737,0.044901,inferred,Stations_USGS
OBS_407,Maiolo PU,12.311,43.874,macroseismic,800.2,5.0,0.3,0.8059,0.059194,0.875,5.305,1.0131,0.139744,1.0822,0.064955,1.4737,0.014599,inferred,Stations_USGS
OBS_853,San Godenzo FI,11.618,43.926,macroseismic,517.78,3.0,0.3,,,,,,,,,,,inferred,Stations_USGS
OBS_717,Santarcangelo di Romagna RN,12.447,44.063,macroseismic,268.77,4.0,0.3,0.8059,0.022308,0.875,1.8712,1.0131,0.033842,1.0822,0.020425,1.4737,0.004029,inferred,Stations_USGS
OBS_498,Borgo Velino RI,13.059,42.405,macroseismic,533.06,4.5,0.3,0.8059,0.046821,0.875,3.6852,1.0131,0.078048,1.0822,0.038019,1.4737,0.008721,inferred,Stations_USGS
OBS_747,Casoli CH,14.291,42.117,macroseismic,682.28,3.5,0.3,,,,,,,,,,,inferred,Stations_USGS
OBS_20,Capodacqua PG,12.78,43.017,macroseismic,706.94,7.5,0.3,0.8059,0.517293,0.875,32.7961,1.0131,0.853171,1.0822,0.324922,1.4737,0.064911,inferred,Stations_USGS
OBS_433,Panicale PG,12.099,43.028,macroseismic,545.06,5.0,0.3,0.8059,0.068224,0.875,5.305,1.0131,0.165905,1.0822,0.059542,1.4737,0.013243,inferred,Stations_USGS
OBS_722,Tivoli RM,12.798,41.964,macroseismic,706.0,4.0,0.3,0.8059,0.021172,0.875,1.8712,1.0131,0.032901,1.0822,0.020958,1.4737,0.004188,inferred,Stations_USGS
OBS_196,Pioraco MC,12.986,43.178,macroseismic,493.96,6.0,0.3,0.8059,0.185078,0.875,10.9936,1.0131,0.352513,1.0822,0.104629,1.4737,0.021985,inferred,Stations_USGS
OBS_607,Torre de' Passeri PE,13.933,42.244,macroseismic,402.44,4.5,0.3,0.8059,0.040121,0.875,3.6852,1.0131,0.06397,1.0822,0.045804,1.4737,0.010505,inferred,Stations_USGS
OBS_678,Molina Aterno AQ,13.735,42.148,macroseismic,425.47,4.0,0.3,0.8059,0.020754,0.875,1.8712,1.0131,0.032549,1.0822,0.021165,1.4737,0.00425,inferred,Stations_USGS
OBS_639,Cappelle sul Tavo PE,14.104,42.464,macroseismic,511.82,4.0,0.3,0.8059,0.02112,0.875,1.8712,1.0131,0.032858,1.0822,0.020983,1.4737,0.004195,inferred,Stations_USGS
OBS_727,Vicovaro RM,12.896,42.017,macroseismic,509.09,4.0,0.3,0.8059,0.021909,0.875,1.8712,1.0131,0.033514,1.0822,0.020607,1.4737,0.004083,inferred,Stations_USGS
OBS_4,Camino PG,12.892,42.933,macroseismic,709.35,8.5,0.3,0.8059,0.944421,0.875,67.9639,1.0131,1.47209,1.0822,0.727823,1.4737,0.141454,inferred,Stations_USGS
OBS_306,Passignano sul Trasimeno PG,12.136,43.187,macroseismic,600.0,5.5,0.3,0.8059,0.094498,0.875,7.6368,1.0131,0.220786,1.0822,0.087769,1.4737,0.019219,inferred,Stations_USGS
OBS_730,Abbadia San Salvatore SI,11.678,42.88,macroseismic,667.89,3.5,0.3,,,,,,,,,,,inferred,Stations_USGS
OBS_179,Montemonaco AP,13.327,42.899,macroseismic,297.4,6.0,0.3,0.8059,0.141125,0.875,10.9936,1.0131,0.305683,1.0822,0.123545,1.4737,0.026486,inferred,Stations_USGS
OBS_52,Croce MC,13.03,42.924,macroseismic,900.0,7.0,0.3,0.8059,0.330745,0.875,22.7822,1.0131,0.601436,1.0822,0.237462,1.4737,0.048619,inferred,Stations_USGS
OBS_533,Faleria VT,12.443,42.226,macroseismic,378.58,4.5,0.3,0.8059,0.043156,0.875,3.6852,1.0131,0.070269,1.0822,0.041848,1.4737,0.009992,inferred,Stations_USGS
OBS_637,Canzano TE,13.804,42.646,macroseismic,468.09,4.0,0.3,0.8059,0.025989,0.875,1.8712,1.0131,0.036749,1.0822,0.018943,1.4737,0.003598,inferred,Stations_USGS
OBS_670,Labico RM,12.885,41.785,macroseismic,760.0,4.0,0.3,0.8059,0.019096,0.875,1.8712,1.0131,0.03112,1.0822,0.022052,1.4737,0.00452,inferred,Stations_USGS
OBS_368,Castiglione in Teverina VT,12.204,42.646,macroseismic,480.38,5.0,0.3,0.8059,0.064597,0.875,5.305,1.0131,0.156383,1.0822,0.061569,1.4737,0.013749,inferred,Stations_USGS
OBS_317,Ripatransone AP,13.762,42.999,macroseismic,684.1,5.5,0.3,0.8059,0.087221,0.875,7.6368,1.0131,0.211678,1.0822,0.092188,1.4737,0.020306,inferred,Stations_USGS
OBS_741,Canino VT,11.75,42.465,macroseismic,384.67,3.5,0.3,,,,,,,,,,,inferred,Stations_USGS
OBS_245,Castelfidardo AN,13.55,43.463,macroseismic,378.68,5.5,0.3,0.8059,0.087247,0.875,7.6368,1.0131,0.211711,1.0822,0.092171,1.4737,0.020302,inferred,Stations_USGS
OBS_616,Vignanello VT,12.279,42.384,macroseismic,427.06,4.5,0.3,0.8059,0.044433,0.875,3.6852,1.0131,0.07296,1.0822,0.040436,1.4737,0.009566,inferred,Stations_USGS
OBS_25,Fraia PG,12.89,42.997,macroseismic,557.61,7.5,0.3,0.8059,0.517293,0.875,32.7961,1.0131,0.853171,1.0822,0.324922,1.4737,0.064911,inferred,Stations_USGS
OBS_489,Ancona AN,13.507,43.603,macroseismic,421.79,4.5,0.3,0.8059,0.045633,0.875,3.6852,1.0131,0.075506,1.0822,0.039188,1.4737,0.009126,inferred,Stations_USGS
OBS_200,Pollenza MC,13.348,43.267,macroseismic,518.72,6.0,0.3,0.8059,0.135429,0.875,10.9936,1.0131,0.299133,1.0822,0.126704,1.4737,0.027246,inferred,Stations_USGS
OBS_29,Nocera Umbra PG,12.788,43.113,macroseismic,474.43,7.5,0.3,0.8059,0.517293,0.875,32.7961,1.0131,0.853171,1.0822,0.324922,1.4737,0.064911,inferred,Stations_USGS
OBS_671,Lanuvio RM,12.699,41.677,macroseismic,760.0,4.0,0.3,0.8059,0.018026,0.875,1.8712,1.0131,0.030166,1.0822,0.022688,1.4737,0.004718,inferred,Stations_USGS
OBS_372,Cetona SI,11.902,42.963,macroseismic,513.09,5.0,0.3,0.8059,0.063326,0.875,5.305,1.0131,0.152432,1.0822,0.062323,1.4737,0.013938,inferred,Stations_USGS
OBS_305,Ostra AN,13.158,43.612,macroseismic,425.26,5.5,0.3,0.8059,0.090913,0.875,7.6368,1.0131,0.216342,1.0822,0.089875,1.4737,0.019736,inferred,Stations_USGS
OBS_794,Vetralla VT,12.055,42.32,macroseismic,451.3,3.5,0.3,,,,,,,,,,,inferred,Stations_USGS
OBS_398,Jesi AN,13.245,43.522,macroseismic,426.6,5.0,0.3,0.8059,0.068068,0.875,5.305,1.0131,0.165706,1.0822,0.059625,1.4737,0.013263,inferred,Stations_USGS
OBS_99,Osteria del Gatto PG,12.749,43.291,macroseismic,526.59,6.5,0.3,0.8059,0.234165,0.875,15.8259,1.0131,0.447318,1.0822,0.163032,1.4737,0.033954,inferred,Stations_USGS
OBS_97,Laverino MC,12.885,43.133,macroseismic,791.66,6.5,0.3,0.8059,0.27763,0.875,15.8259,1.0131,0.489204,1.0822,0.146876,1.4737,0.030206,inferred,Stations_USGS
OBS_512,Castiglion Fiorentino AR,11.923,43.341,macroseismic,527.89,4.5,0.3,0.8059,0.046159,0.875,3.6852,1.0131,0.076629,1.0822,0.038662,1.4737,0.008943,inferred,Stations_USGS
OBS_232,Amatrice RI,13.29,42.628,macroseismic,374.63,5.5,0.3,0.8059,0.0929,0.875,7.6368,1.0131,0.218815,1.0822,0.088692,1.4737,0.019445,inferred,Stations_USGS
OBS_350,Belmonte Piceno AP,13.54,43.091,macroseismic,397.5,5.0,0.3,0.8059,0.069372,0.875,5.305,1.0131,0.167367,1.0822,0.058936,1.4737,0.013092,inferred,Stations_USGS
OBS_855,Sante Marie AQ,13.204,42.102,macroseismic,900.0,3.0,0.3,,,,,,,,,,,inferred,Stations_USGS
OBS_797,Affile RM,13.097,41.884,macroseismic,760.0,3.0,0.3,,,,,,,,,,,inferred,Stations_USGS
OBS_146,Costacciaro PG,12.712,43.358,macroseismic,582.96,6.0,0.3,0.8059,0.15539,0.875,10.9936,1.0131,0.321556,1.0822,0.116464,1.4737,0.024791,inferred,Stations_USGS
OBS_441,Poggio Mirteto RI,12.686,42.265,macroseismic,592.15,5.0,0.3,0.8059,0.060658,0.875,5.305,1.0131,0.144211,1.0822,0.063989,1.4737,0.014356,inferred,Stations_USGS
OBS_775,Roccamorice PE,14.026,42.211,macroseismic,519.12,3.5,0.3,,,,,,,,,,,inferred,Stations_USGS
OBS_471,Sant'Angelo in Lizzola PU,12.803,43.827,macroseismic,533.65,5.0,0.3,0.8059,0.062134,0.875,5.305,1.0131,0.148745,1.0822,0.063054,1.4737,0.014121,inferred,Stations_USGS
OBS_457,Rimini RN,12.567,44.059,macroseismic,230.92,5.0,0.3,0.8059,0.057093,0.875,5.305,1.0131,0.133389,1.0822,0.06641,1.4737,0.014966,inferred,Stations_USGS
OBS_186,Osteria di Morano PG,12.722,43.186,macroseismic,411.3,6.0,0.3,0.8059,0.203391,0.875,10.9936,1.0131,0.37044,1.0822,0.09875,1.4737,0.020605,inferred,Stations_USGS
OBS_705,Raiano AQ,13.813,42.102,macroseismic,468.07,4.0,0.3,0.8059,0.019904,0.875,1.8712,1.0131,0.031823,1.0822,0.021606,1.4737,0.004384,inferred,Stations_USGS
OBS_843,Piancastagnaio SI,11.688,42.85,macroseismic,577.22,3.0,0.3,,,,,,,,,,,inferred,Stations_USGS
OBS_693,Percile RM,12.91,42.094,macroseismic,320.94,4.0,0.3,0.8059,0.023089,0.875,1.8712,1.0131,0.034477,1.0822,0.020081,1.4737,0.003928,inferred,Stations_USGS
OBS_164,Maiolati Spontini AN,13.12,43.476,macroseismic,346.48,6.0,0.3,0.8059,0.134027,0.875,10.9936,1.0131,0.297502,1.0822,0.127515,1.4737,0.027441,inferred,Stations_USGS
OBS_622,Arsoli RM,13.019,42.04,macroseismic,855.88,4.0,0.3,0.8059,0.02214,0.875,1.8712,1.0131,0.033704,1.0822,0.020501,1.4737,0.004052,inferred,Stations_USGS
OBS_96,Gualdo Tadino PG,12.785,43.23,macroseismic,636.63,6.5,0.3,0.8059,0.268863,0.875,15.8259,1.0131,0.481022,1.0822,0.149793,1.4737,0.030879,inferred,Stations_USGS
OBS_500,Brittoli PE,13.861,42.316,macroseismic,646.34,4.5,0.3,0.8059,0.041066,0.875,3.6852,1.0131,0.065917,1.0822,0.044367,1.4737,0.010339,inferred,Stations_USGS
OBS_750,Castel Frentano CH,14.355,42.197,macroseismic,451.21,3.5,0.3,,,,,,,,,,,inferred,Stations_USGS
OBS_679,Mondavio PU,12.969,43.674,macroseismic,425.34,4.0,0.3,0.8059,0.03227,0.875,1.8712,1.0131,0.041301,1.0822,0.017025,1.4737,0.003065,inferred,Stations_USGS
OBS_76,Camporotondo di Fiastrone MC,13.265,43.131,macroseismic,386.38,6.5,0.3,0.8059,0.2037,0.875,15.8259,1.0131,0.415713,1.0822,0.177572,1.4737,0.037365,inferred,Stations_USGS
OBS_221,Troviggiano MC,13.258,43.375,macroseismic,555.15,6.0,0.3,0.8059,0.134533,0.875,10.9936,1.0131,0.298092,1.0822,0.127221,1.4737,0.027371,inferred,Stations_USGS
OBS_277,Mogliano MC,13.479,43.185,macroseismic,328.63,5.5,0.3,0.8059,0.096062,0.875,7.6368,1.0131,0.2227,1.0822,0.08689,1.4737,0.019003,inferred,Stations_USGS
OBS_516,Cepagatti PE,14.071,42.364,macroseismic,402.28,4.5,0.3,0.8059,0.040184,0.875,3.6852,1.0131,0.0641,1.0822,0.04576,1.4737,0.010494,inferred,Stations_USGS
OBS_388,Force AP,13.491,42.963,macroseismic,550.96,5.0,0.3,0.8059,0.070706,0.875,5.305,1.0131,0.169052,1.0822,0.058252,1.4737,0.012921,inferred,Stations_USGS
OBS_371,Cesenatico FC,12.405,44.197,macroseismic,226.01,5.0,0.3,0.8059,0.054661,0.875,5.305,1.0131,0.126117,1.0822,0.068205,1.4737,0.01542,inferred,Stations_USGS
OBS_56,Molinaccio PG,12.864,43.207,macroseismic,610.14,7.0,0.3,0.8059,0.378967,0.875,22.7822,1.0131,0.646046,1.0822,0.218457,1.4737,0.04428,inferred,Stations_USGS
OBS_316,Rieti RI,12.867,42.404,macroseismic,484.05,5.5,0.3,0.8059,0.087925,0.875,7.6368,1.0131,0.212575,1.0822,0.091734,1.4737,0.020194,inferred,Stations_USGS
OBS_609,Torriana RN,12.386,43.984,macroseismic,440.43,4.5,0.3,0.8059,0.042286,0.875,3.6852,1.0131,0.06845,1.0822,0.042864,1.4737,0.010133,inferred,Stations_USGS
OBS_389,Francavilla d'Ete AP,13.54,43.19,macroseismic,394.49,5.0,0.3,0.8059,0.068561,0.875,5.305,1.0131,0.166336,1.0822,0.059362,1.4737,0.013198,inferred,Stations_USGS
OBS_650,Collalto Sabino RI,13.048,42.135,macroseismic,505.49,4.0,0.3,0.8059,0.023601,0.875,1.8712,1.0131,0.034887,1.0822,0.019865,1.4737,0.003864,inferred,Stations_USGS
OBS_833,Lucoli AQ,13.339,42.291,macroseismic,688.04,3.0,0.3,,,,,,,,,,,inferred,Stations_USGS
OBS_502,Campli TE,13.686,42.726,macroseismic,422.01,4.5,0.3,0.8059,0.046309,0.875,3.6852,1.0131,0.076949,1.0822,0.038515,1.4737,0.008892,inferred,Stations_USGS
OBS_104,Rigali PG,12.789,43.207,macroseismic,897.2,6.5,0.3,0.8059,0.27763,0.875,15.8259,1.0131,0.489204,1.0822,0.146876,1.4737,0.030206,inferred,Stations_USGS
OBS_610,Torricella Sicura TE,13.656,42.658,macroseismic,344.18,4.5,0.3,0.8059,0.045974,0.875,3.6852,1.0131,0.076234,1.0822,0.038845,1.4737,0.009007,inferred,Stations_USGS
OBS_527,Colbordolo PU,12.723,43.82,macroseismic,740.05,4.5,0.3,0.8059,0.045585,0.875,3.6852,1.0131,0.075403,1.0822,0.039236,1.4737,0.009143,inferred,Stations_USGS
OBS_863,Tione degli Abruzzi AQ,13.636,42.204,macroseismic,900.0,3.0,0.3,,,,,,,,,,,inferred,Stations_USGS
OBS_212,Serradica AN,12.849,43.264,macroseismic,428.71,6.0,0.3,0.8059,0.182232,0.875,10.9936,1.0131,0.349654,1.0822,0.105628,1.4737,0.02222,inferred,Stations_USGS
OBS_538,Forlimpopoli FC,12.126,44.188,macroseismic,238.13,4.5,0.3,0.8059,0.039438,0.875,3.6852,1.0131,0.062571,1.0822,0.046288,1.4737,0.01063,inferred,Stations_USGS
OBS_311,Petritoli AP,13.656,43.067,macroseismic,410.34,5.5,0.3,0.8059,0.090507,0.875,7.6368,1.0131,0.215834,1.0822,0.090121,1.4737,0.019797,inferred,Stations_USGS
OBS_799,Ari CH,14.262,42.291,macroseismic,569.84,3.0,0.3,,,,,,,,,,,inferred,Stations_USGS
OBS_490,Arezzo AR,11.879,43.463,macroseismic,302.15,4.5,0.3,0.8059,0.044721,0.875,3.6852,1.0131,0.073569,1.0822,0.04013,1.4737,0.009457,inferred,Stations_USGS
OBS_247,Castignano AP,13.622,42.937,macroseismic,617.9,5.5,0.3,0.8059,0.091191,0.875,7.6368,1.0131,0.216689,1.0822,0.089707,1.4737,0.019695,inferred,Stations_USGS
OBS_412,Mercatello sul Metauro PU,12.337,43.647,macroseismic,472.92,5.0,0.3,0.8059,0.064035,0.875,5.305,1.0131,0.154631,1.0822,0.0619,1.4737,0.013832,inferred,Stations_USGS
OBS_513,Catignano PE,13.951,42.346,macroseismic,426.37,4.5,0.3,0.8059,0.04077,0.875,3.6852,1.0131,0.065307,1.0822,0.045355,1.4737,0.01039,inferred,Stations_USGS
OBS_31,Preci PG,13.039,42.878,macroseismic,646.58,7.5,0.3,0.8059,0.421512,0.875,32.7961,1.0131,0.766101,1.0822,0.368369,1.4737,0.074714,inferred,Stations_USGS
OBS_466,San Gemini TR,12.547,42.613,macroseismic,446.38,5.0,0.3,0.8059,0.069588,0.875,5.305,1.0131,0.167641,1.0822,0.058824,1.4737,0.013064,inferred,Stations_USGS
OBS_550,Marcetelli RI,13.046,42.226,macroseismic,666.77,4.5,0.3,0.8059,0.043789,0.875,3.6852,1.0131,0.071599,1.0822,0.041137,1.4737,0.009893,inferred,Stations_USGS
OBS_257,Configni RI,12.643,42.423,macroseismic,900.0,5.5,0.3,0.8059,0.087889,0.875,7.6368,1.0131,0.212528,1.0822,0.091758,1.4737,0.0202,inferred,Stations_USGS
OBS_785,Selci RI,12.623,42.319,macroseismic,382.62,3.5,0.3,,,,,,,,,,,inferred,Stations_USGS
OBS_682,Monte San Savino AR,11.725,43.331,macroseismic,484.4,4.0,0.3,0.8059,0.025432,0.875,1.8712,1.0131,0.036322,1.0822,0.019146,1.4737,0.003656,inferred,Stations_USGS
OBS_345,Amelia TR,12.413,42.558,macroseismic,410.6,5.0,0.3,0.8059,0.065952,0.875,5.305,1.0131,0.16062,1.0822,0.06079,1.4737,0.013554,inferred,Stations_USGS
OBS_136,Campello sul Clitunno PG,12.777,42.82,macroseismic,573.84,6.0,0.3,0.8059,0.161802,0.875,10.9936,1.0131,0.328465,1.0822,0.113613,1.4737,0.024111,inferred,Stations_USGS
OBS_456,Riccione RN,12.659,44.001,macroseismic,338.75,5.0,0.3,0.8059,0.058283,0.875,5.305,1.0131,0.136981,1.0822,0.065575,1.4737,0.014755,inferred,Stations_USGS
OBS_406,Magliano Sabina RI,12.482,42.361,macroseismic,496.79,5.0,0.3,0.8059,0.061828,0.875,5.305,1.0131,0.147801,1.0822,0.063245,1.4737,0.014169,inferred,Stations_USGS
OBS_68,Sorifa MC,12.849,43.14,macroseismic,667.16,7.0,0.3,0.8059,0.378967,0.875,22.7822,1.0131,0.646046,1.0822,0.218457,1.4737,0.04428,inferred,Stations_USGS
OBS_163,Loro Piceno MC,13.416,43.166,macroseismic,409.54,6.0,0.3,0.8059,0.135509,0.875,10.9936,1.0131,0.299227,1.0822,0.126658,1.4737,0.027235,inferred,Stations_USGS
OBS_687,Monterotondo RM,12.623,42.054,macroseismic,365.17,4.0,0.3,0.8059,0.02224,0.875,1.8712,1.0131,0.033787,1.0822,0.020455,1.4737,0.004038,inferred,Stations_USGS
OBS_646,Cellere VT,11.771,42.509,macroseismic,486.07,4.0,0.3,0.8059,0.022744,0.875,1.8712,1.0131,0.034197,1.0822,0.020231,1.4737,0.003972,inferred,Stations_USGS
OBS_12,Casenove PG,12.842,42.976,macroseismic,468.5,8.0,0.3,0.8059,0.706109,0.875,47.2118,1.0131,1.126702,1.0822,0.483274,1.4737,0.095155,inferred,Stations_USGS
OBS_448,Porano TR,12.102,42.686,macroseismic,493.13,5.0,0.3,0.8059,0.06356,0.875,5.305,1.0131,0.153155,1.0822,0.062183,1.4737,0.013903,inferred,Stations_USGS
OBS_432,Orciano di Pesaro PU,12.966,43.688,macroseismic,456.63,5.0,0.3,0.8059,0.065742,0.875,5.305,1.0131,0.159962,1.0822,0.060909,1.4737,0.013584,inferred,Stations_USGS
OBS_699,Pietranico PE,13.911,42.276,macroseismic,545.06,4.0,0.3,0.8059,0.020976,0.875,1.8712,1.0131,0.032736,1.0822,0.021054,1.4737,0.004217,inferred,Stations_USGS
OBS_566,Monterchi AR,12.111,43.485,macroseismic,352.58,4.5,0.3,0.8059,0.047129,0.875,3.6852,1.0131,0.078709,1.0822,0.037727,1.4737,0.00862,inferred,Stations_USGS
OBS_341,Valcarecce MC,13.175,43.399,macroseismic,653.1,5.5,0.3,0.8059,0.100666,0.875,7.6368,1.0131,0.228249,1.0822,0.084433,1.4737,0.018402,inferred,Stations_USGS
OBS_663,Francavilla al Mare CH,14.301,42.412,macroseismic,483.61,4.0,0.3,0.8059,0.01934,0.875,1.8712,1.0131,0.031333,1.0822,0.021914,1.4737,0.004478,inferred,Stations_USGS
OBS_342,Venarotta AP,13.493,42.881,macroseismic,586.29,5.5,0.3,0.8059,0.095123,0.875,7.6368,1.0131,0.221553,1.0822,0.087415,1.4737,0.019132,inferred,Stations_USGS
OBS_142,Castelsantangelo sul Nera MC,13.153,42.895,macroseismic,900.0,6.0,0.3,0.8059,0.156709,0.875,10.9936,1.0131,0.322989,1.0822,0.115862,1.4737,0.024647,inferred,Stations_USGS
OBS_95,Gagliole MC,13.067,43.237,macroseismic,585.33,6.5,0.3,0.8059,0.220021,0.875,15.8259,1.0131,0.432904,1.0822,0.169378,1.4737,0.035438,inferred,Stations_USGS
OBS_59,Poggio Sorifa MC,12.855,43.144,macroseismic,660.66,7.0,0.3,0.8059,0.378967,0.875,22.7822,1.0131,0.646046,1.0822,0.218457,1.4737,0.04428,inferred,Stations_USGS
OBS_344,Alba Adriatica TE,13.93,42.827,macroseismic,319.26,5.0,0.3,0.8059,0.060175,0.875,5.305,1.0131,0.142732,1.0822,0.064304,1.4737,0.014435,inferred,Stations_USGS
OBS_219,Trebbio PG,13.087,43.172,macroseismic,479.94,6.0,0.3,0.8059,0.167225,0.875,10.9936,1.0131,0.334207,1.0822,0.111341,1.4737,0.023572,inferred,Stations_USGS
OBS_462,Rotella AP,13.561,42.954,macroseismic,659.59,5.0,0.3,0.8059,0.068532,0.875,5.305,1.0131,0.166298,1.0822,0.059378,1.4737,0.013202,inferred,Stations_USGS
OBS_391,Frontino PU,12.377,43.764,macroseismic,508.33,5.0,0.3,0.8059,0.061796,0.875,5.305,1.0131,0.147704,1.0822,0.063265,1.4737,0.014174,inferred,Stations_USGS
OBS_62,Rasenna MC,12.957,42.935,macroseismic,583.15,7.0,0.3,0.8059,0.358298,0.875,22.7822,1.0131,0.627276,1.0822,0.226097,1.4737,0.046019,inferred,Stations_USGS
OBS_230,Alviano TR,12.297,42.59,macroseismic,861.97,5.5,0.3,0.8059,0.088738,0.875,7.6368,1.0131,0.213606,1.0822,0.091218,1.4737,0.020067,inferred,Stations_USGS
OBS_36,Triponzo PG,12.937,42.827,macroseismic,389.4,7.5,0.3,0.8059,0.414181,0.875,32.7961,1.0131,0.759067,1.0822,0.372352,1.4737,0.07562,inferred,Stations_USGS
OBS_826,Introdacqua AQ,13.898,42.007,macroseismic,720.06,3.0,0.3,,,,,,,,,,,inferred,Stations_USGS
OBS_628,Basciano TE,13.74,42.595,macroseismic,502.4,4.0,0.3,0.8059,0.026235,0.875,1.8712,1.0131,0.036936,1.0822,0.018855,1.4737,0.003573,inferred,Stations_USGS
OBS_218,Torrone MC,13.102,43.157,macroseismic,532.47,6.0,0.3,0.8059,0.16719,0.875,10.9936,1.0131,0.33417,1.0822,0.111355,1.4737,0.023575,inferred,Stations_USGS
OBS_554,Mercatino Conca PU,12.493,43.87,macroseismic,492.25,4.5,0.3,0.8059,0.044174,0.875,3.6852,1.0131,0.072412,1.0822,0.040715,1.4737,0.009665,inferred,Stations_USGS
OBS_463,Salisano RI,12.746,42.257,macroseismic,575.33,5.0,0.3,0.8059,0.060614,0.875,5.305,1.0131,0.144076,1.0822,0.064018,1.4737,0.014363,inferred,Stations_USGS
OBS_17,Voltellina MC,12.932,42.965,macroseismic,858.15,8.0,0.3,0.8059,0.706109,0.875,47.2118,1.0131,1.126702,1.0822,0.483274,1.4737,0.095155,inferred,Stations_USGS
OBS_194,Pievebovigliana MC,13.085,43.062,macroseismic,495.94,6.0,0.3,0.8059,0.183158,0.875,10.9936,1.0131,0.350586,1.0822,0.1053,1.4737,0.022143,inferred,Stations_USGS
OBS_515,Cellino Attanasio TE,13.859,42.586,macroseismic,477.48,4.5,0.3,0.8059,0.043277,0.875,3.6852,1.0131,0.070522,1.0822,0.041711,1.4737,0.009973,inferred,Stations_USGS
OBS_415,Monte Giberto AP,13.631,43.091,macroseismic,364.88,5.0,0.3,0.8059,0.066872,0.875,5.305,1.0131,0.163511,1.0822,0.060276,1.4737,0.013426,inferred,Stations_USGS
OBS_416,Monte San Giovanni in Sabina RI,12.777,42.328,macroseismic,425.81,5.0,0.3,0.8059,0.062314,0.875,5.305,1.0131,0.149301,1.0822,0.062942,1.4737,0.014093,inferred,Stations_USGS
OBS_532,Fabrica di Roma VT,12.295,42.334,macroseismic,476.2,4.5,0.3,0.8059,0.043873,0.875,3.6852,1.0131,0.071777,1.0822,0.041044,1.4737,0.009783,inferred,Stations_USGS
OBS_789,Sutri VT,12.223,42.242,macroseismic,370.97,3.5,0.3,,,,,,,,,,,inferred,Stations_USGS
OBS_866,Torrita di Siena SI,11.773,43.166,macroseismic,422.66,3.0,0.3,,,,,,,,,,,inferred,Stations_USGS
OBS_367,Castiglione del Lago PG,12.051,43.126,macroseismic,263.92,5.0,0.3,0.8059,0.067146,0.875,5.305,1.0131,0.164522,1.0822,0.060126,1.4737,0.013388,inferred,Stations_USGS
OBS_766,Montefiascone VT,12.03,42.537,macroseismic,509.35,3.5,0.3,,,,,,,,,,,inferred,Stations_USGS
OBS_349,Baschi TR,12.216,42.669,macroseismic,270.05,5.0,0.3,0.8059,0.065226,0.875,5.305,1.0131,0.158345,1.0822,0.061204,1.4737,0.013658,inferred,Stations_USGS
OBS_744,Carpineto della Nora PE,13.86,42.333,macroseismic,581.2,3.5,0.3,,,,,,,,,,,inferred,Stations_USGS
OBS_337,Tuoro sul Trasimeno PG,12.072,43.208,macroseismic,488.4,5.5,0.3,0.8059,0.091915,0.875,7.6368,1.0131,0.217593,1.0822,0.089273,1.4737,0.019588,inferred,Stations_USGS
OBS_600,Serrungarina PU,12.875,43.746,macroseismic,521.27,4.5,0.3,0.8059,0.047073,0.875,3.6852,1.0131,0.078588,1.0822,0.03778,1.4737,0.008638,inferred,Stations_USGS
OBS_249,Citerna PG,12.116,43.498,macroseismic,357.17,5.5,0.3,0.8059,0.087603,0.875,7.6368,1.0131,0.212165,1.0822,0.091941,1.4737,0.020245,inferred,Stations_USGS
OBS_365,Castellalto TE,13.818,42.677,macroseismic,619.0,5.0,0.3,0.8059,0.060581,0.875,5.305,1.0131,0.143974,1.0822,0.06404,1.4737,0.014369,inferred,Stations_USGS
OBS_409,Massa d'Albe AQ,13.393,42.107,macroseismic,555.31,5.0,0.3,0.8059,0.056364,0.875,5.305,1.0131,0.131199,1.0822,0.066935,1.4737,0.015099,inferred,Stations_USGS
OBS_852,San Giovanni d'Asso SI,11.591,43.152,macroseismic,375.94,3.0,0.3,,,,,,,,,,,inferred,Stations_USGS
OBS_246,Castelplanio AN,13.082,43.493,macroseismic,688.92,5.5,0.3,0.8059,0.098147,0.875,7.6368,1.0131,0.225228,1.0822,0.085754,1.4737,0.018725,inferred,Stations_USGS
OBS_582,Pieve Santo Stefano AR,12.041,43.67,macroseismic,557.3,4.5,0.3,0.8059,0.044166,0.875,3.6852,1.0131,0.072394,1.0822,0.040724,1.4737,0.009669,inferred,Stations_USGS
OBS_125,Arrone TR,12.768,42.583,macroseismic,560.68,6.0,0.3,0.8059,0.131626,0.875,10.9936,1.0131,0.294688,1.0822,0.128935,1.4737,0.027784,inferred,Stations_USGS
OBS_565,Montepulciano SI,11.785,43.097,macroseismic,491.71,4.5,0.3,0.8059,0.045108,0.875,3.6852,1.0131,0.074389,1.0822,0.039725,1.4737,0.009314,inferred,Stations_USGS
OBS_492,Attigliano TR,12.294,42.515,macroseismic,423.24,4.5,0.3,0.8059,0.046424,0.875,3.6852,1.0131,0.077196,1.0822,0.038402,1.4737,0.008853,inferred,Stations_USGS
OBS_58,Pantaneto MC,12.994,42.981,macroseismic,875.16,7.0,0.3,0.8059,0.378967,0.875,22.7822,1.0131,0.646046,1.0822,0.218457,1.4737,0.04428,inferred,Stations_USGS
OBS_378,Contigliano RI,12.769,42.411,macroseismic,691.13,5.0,0.3,0.8059,0.064527,0.875,5.305,1.0131,0.156165,1.0822,0.06161,1.4737,0.013759,inferred,Stations_USGS
OBS_734,Barbarano Romano VT,12.066,42.251,macroseismic,325.19,3.5,0.3,,,,,,,,,,,inferred,Stations_USGS
OBS_824,Grottaferrata RM,12.677,41.787,macroseismic,760.0,3.0,0.3,,,,,,,,,,,inferred,Stations_USGS
OBS_133,Buggiano PG,12.911,42.848,macroseismic,900.0,6.0,0.3,0.8059,0.168797,0.875,10.9936,1.0131,0.335855,1.0822,0.110704,1.4737,0.023421,inferred,Stations_USGS
OBS_300,Offida AP,13.691,42.935,macroseismic,546.66,5.5,0.3,0.8059,0.088964,0.875,7.6368,1.0131,0.213892,1.0822,0.091076,1.4737,0.020032,inferred,Stations_USGS
OBS_788,Subbiano AR,11.87,43.575,macroseismic,453.63,3.5,0.3,,,,,,,,,,,inferred,Stations_USGS
OBS_242,Cascia PG,13.013,42.718,macroseismic,616.78,5.5,0.3,0.8059,0.104975,0.875,7.6368,1.0131,0.233334,1.0822,0.082291,1.4737,0.017879,inferred,Stations_USGS
OBS_123,Apiro MC,13.132,43.391,macroseismic,549.96,6.0,0.3,0.8059,0.140312,0.875,10.9936,1.0131,0.304756,1.0822,0.123983,1.4737,0.026591,inferred,Stations_USGS
OBS_178,Montelparo AP,13.536,43.018,macroseismic,517.95,6.0,0.3,0.8059,0.129625,0.875,10.9936,1.0131,0.292324,1.0822,0.130152,1.4737,0.028078,inferred,Stations_USGS
OBS_423,Montelabbate PU,12.789,43.849,macroseismic,557.08,5.0,0.3,0.8059,0.061597,0.875,5.305,1.0131,0.147092,1.0822,0.06339,1.4737,0.014205,inferred,Stations_USGS
OBS_669,Isola del Gran Sasso d'Italia TE,13.661,42.501,macroseismic,626.67,4.0,0.3,0.8059,0.025866,0.875,1.8712,1.0131,0.036655,1.0822,0.018987,1.4737,0.003611,inferred,Stations_USGS
OBS_210,Scheggia PG,12.668,43.402,macroseismic,566.67,6.0,0.3,0.8059,0.147116,0.875,10.9936,1.0131,0.312438,1.0822,0.120436,1.4737,0.02574,inferred,Stations_USGS
OBS_752,Castelnuovo Berardenga SI,11.503,43.345,macroseismic,411.59,3.5,0.3,,,,,,,,,,,inferred,Stations_USGS
OBS_530,Corchiano VT,12.357,42.346,macroseismic,328.69,4.5,0.3,0.8059,0.044393,0.875,3.6852,1.0131,0.072874,1.0822,0.040479,1.4737,0.009581,inferred,Stations_USGS
OBS_26,Franca PG,12.83,42.997,macroseismic,549.54,7.5,0.3,0.8059,0.517293,0.875,32.7961,1.0131,0.853171,1.0822,0.324922,1.4737,0.064911,inferred,Stations_USGS
OBS_742,Canosa Sannita CH,14.304,42.294,macroseismic,546.22,3.5,0.3,,,,,,,,,,,inferred,Stations_USGS
OBS_74,Belforte del Chienti MC,13.238,43.163,macroseismic,518.13,6.5,0.3,0.8059,0.204905,0.875,15.8259,1.0131,0.417005,1.0822,0.176931,1.4737,0.037214,inferred,Stations_USGS
OBS_22,Crescenti PG,12.878,43.514,macroseismic,516.93,null,null,0.8059,0.346644,0.875,32.7961,1.0131,0.691256,1.0822,0.415276,1.4737,0.085456,inferred,Stations_USGS
OBS_338,Umbertide PG,12.331,43.305,macroseismic,390.01,5.5,0.3,0.8059,0.100268,0.875,7.6368,1.0131,0.227774,1.0822,0.084638,1.4737,0.018452,inferred,Stations_USGS
OBS_235,Apecchio PU,12.42,43.559,macroseismic,450.71,5.5,0.3,0.8059,0.092052,0.875,7.6368,1.0131,0.217763,1.0822,0.089191,1.4737,0.019568,inferred,Stations_USGS
OBS_436,Penna in Teverina TR,12.355,42.493,macroseismic,536.48,5.0,0.3,0.8059,0.063637,0.875,5.305,1.0131,0.153394,1.0822,0.062137,1.4737,0.013891,inferred,Stations_USGS
OBS_263,Fermo AP,13.716,43.16,macroseismic,509.74,5.5,0.3,0.8059,0.088166,0.875,7.6368,1.0131,0.212881,1.0822,0.091581,1.4737,0.020156,inferred,Stations_USGS
OBS_831,Longiano FC,12.325,44.072,macroseismic,481.45,3.0,0.3,,,,,,,,,,,inferred,Stations_USGS
OBS_479,Stroncone TR,12.662,42.498,macroseismic,618.52,5.0,0.3,0.8059,0.06678,0.875,5.305,1.0131,0.16322,1.0822,0.060328,1.4737,0.013439,inferred,Stations_USGS
OBS_11,Casale delle Macchie PG,12.905,43.164,macroseismic,766.83,8.0,0.3,0.8059,0.706109,0.875,47.2118,1.0131,1.126702,1.0822,0.483274,1.4737,0.095155,inferred,Stations_USGS
OBS_314,Poggio Catino RI,12.692,42.295,macroseismic,900.0,5.5,0.3,0.8059,0.083733,0.875,7.6368,1.0131,0.207184,1.0822,0.094523,1.4737,0.020884,inferred,Stations_USGS
OBS_75,Camerino MC,13.068,43.135,macroseismic,395.9,6.5,0.3,0.8059,0.24107,0.875,15.8259,1.0131,0.454205,1.0822,0.160154,1.4737,0.033283,inferred,Stations_USGS
OBS_182,Muccia MC,13.043,43.081,macroseismic,668.06,6.0,0.3,0.8059,0.193953,0.875,10.9936,1.0131,0.361301,1.0822,0.101668,1.4737,0.021289,inferred,Stations_USGS
OBS_310,Petriano PU,12.734,43.78,macroseismic,473.97,5.5,0.3,0.8059,0.086364,0.875,7.6368,1.0131,0.210582,1.0822,0.092747,1.4737,0.020444,inferred,Stations_USGS
OBS_429,Moresco AP,13.732,43.085,macroseismic,762.43,5.0,0.3,0.8059,0.064536,0.875,5.305,1.0131,0.156191,1.0822,0.061605,1.4737,0.013758,inferred,Stations_USGS
OBS_239,Avigliano Umbro TR,12.428,42.651,macroseismic,390.86,5.5,0.3,0.8059,0.093918,0.875,7.6368,1.0131,0.220073,1.0822,0.088101,1.4737,0.0193,inferred,Stations_USGS
OBS_523,Civitella d'Agliano VT,12.188,42.605,macroseismic,466.95,4.5,0.3,0.8059,0.046599,0.875,3.6852,1.0131,0.07757,1.0822,0.038233,1.4737,0.008794,inferred,Stations_USGS
OBS_430,Nepi VT,12.345,42.241,macroseismic,284.87,5.0,0.3,0.8059,0.058621,0.875,5.305,1.0131,0.138005,1.0822,0.065343,1.4737,0.014697,inferred,Stations_USGS
OBS_193,Pieve Torina MC,13.049,43.042,macroseismic,472.8,6.0,0.3,0.8059,0.195653,0.875,10.9936,1.0131,0.362963,1.0822,0.101126,1.4737,0.021162,inferred,Stations_USGS
OBS_171,Montappone AP,13.47,43.137,macroseismic,358.32,6.0,0.3,0.8059,0.132764,0.875,10.9936,1.0131,0.296024,1.0822,0.128257,1.4737,0.027621,inferred,Stations_USGS
OBS_296,Montone PG,12.327,43.363,macroseismic,403.24,5.5,0.3,0.8059,0.097789,0.875,7.6368,1.0131,0.224795,1.0822,0.085947,1.4737,0.018772,inferred,Stations_USGS
OBS_477,Sogliano al Rubicone FC,12.3,44.005,macroseismic,617.85,5.0,0.3,0.8059,0.056994,0.875,5.305,1.0131,0.13309,1.0822,0.066481,1.4737,0.014984,inferred,Stations_USGS
OBS_191,Pescia PG,13.157,42.685,macroseismic,510.87,6.0,0.3,0.8059,0.134972,0.875,10.9936,1.0131,0.298603,1.0822,0.126966,1.4737,0.027309,inferred,Stations_USGS
OBS_667,Goriano Sicoli AQ,13.775,42.08,macroseismic,632.36,4.0,0.3,0.8059,0.019883,0.875,1.8712,1.0131,0.031805,1.0822,0.021618,1.4737,0.004387,inferred,Stations_USGS
OBS_293,Montegranaro AP,13.633,43.233,macroseismic,337.73,5.5,0.3,0.8059,0.089818,0.875,7.6368,1.0131,0.214968,1.0822,0.090545,1.4737,0.019901,inferred,Stations_USGS
OBS_800,Arlena di Castro VT,11.823,42.464,macroseismic,459.61,3.0,0.3,,,,,,,,,,,inferred,Stations_USGS
OBS_773,Penne PE,13.928,42.457,macroseismic,381.02,3.5,0.3,,,,,,,,,,,inferred,Stations_USGS
OBS_14,Cupigliolo PG,12.862,42.999,macroseismic,535.97,8.0,0.3,0.8059,0.706109,0.875,47.2118,1.0131,1.126702,1.0822,0.483274,1.4737,0.095155,inferred,Stations_USGS
OBS_132,Borgo Sant'Antonio MC,13.084,42.943,macroseismic,443.19,6.0,0.3,0.8059,0.172892,0.875,10.9936,1.0131,0.340115,1.0822,0.109089,1.4737,0.023038,inferred,Stations_USGS
OBS_356,Camerano AN,13.551,43.53,macroseismic,465.52,5.0,0.3,0.8059,0.062848,0.875,5.305,1.0131,0.150951,1.0822,0.062613,1.4737,0.014011,inferred,Stations_USGS
OBS_759,Foiano della Chiana AR,11.819,43.252,macroseismic,358.05,3.5,0.3,,,,,,,,,,,inferred,Stations_USGS
OBS_851,Roma RM,12.482,41.895,macroseismic,760.0,3.0,0.3,,,,,,,,,,,inferred,Stations_USGS
OBS_511,Castelnuovo di Porto RM,12.497,42.128,macroseismic,473.22,4.5,0.3,0.8059,0.042093,0.875,3.6852,1.0131,0.068049,1.0822,0.043095,1.4737,0.010165,inferred,Stations_USGS
OBS_861,Stia AR,11.708,43.8,macroseismic,358.68,3.0,0.3,,,,,,,,,,,inferred,Stations_USGS
OBS_177,Montegallo AN,13.478,43.525,macroseismic,332.64,6.0,0.3,0.8059,0.119384,0.875,10.9936,1.0131,0.279946,1.0822,0.136885,1.4737,0.029711,inferred,Stations_USGS
OBS_135,Caldarola MC,13.226,43.137,macroseismic,474.28,6.0,0.3,0.8059,0.153115,0.875,10.9936,1.0131,0.319072,1.0822,0.117522,1.4737,0.025043,inferred,Stations_USGS
OBS_745,Casalincontrada CH,14.135,42.29,macroseismic,297.29,3.5,0.3,,,,,,,,,,,inferred,Stations_USGS
OBS_803,Campo di Giove AQ,14.044,42.011,macroseismic,369.24,3.0,0.3,,,,,,,,,,,inferred,Stations_USGS
OBS_769,Nespolo RI,13.071,42.155,macroseismic,762.89,3.5,0.3,,,,,,,,,,,inferred,Stations_USGS
OBS_402,Longone Sabino RI,12.966,42.272,macroseismic,408.79,5.0,0.3,0.8059,0.060934,0.875,5.305,1.0131,0.145056,1.0822,0.063812,1.4737,0.014311,inferred,Stations_USGS
OBS_548,Mandela RM,12.922,42.027,macroseismic,530.79,4.5,0.3,0.8059,0.041324,0.875,3.6852,1.0131,0.066453,1.0822,0.04404,1.4737,0.010294,inferred,Stations_USGS
OBS_854,San Quirico d'Orcia SI,11.606,43.058,macroseismic,491.62,3.0,0.3,,,,,,,,,,,inferred,Stations_USGS
OBS_234,Antrodoco RI,13.076,42.415,macroseismic,461.24,5.5,0.3,0.8059,0.087489,0.875,7.6368,1.0131,0.21202,1.0822,0.092014,1.4737,0.020263,inferred,Stations_USGS
OBS_777,Roseto degli Abruzzi TE,14.016,42.675,macroseismic,472.52,3.5,0.3,,,,,,,,,,,inferred,Stations_USGS
OBS_165,Massa Fermana AP,13.476,43.149,macroseismic,459.0,6.0,0.3,0.8059,0.132156,0.875,10.9936,1.0131,0.295311,1.0822,0.128618,1.4737,0.027708,inferred,Stations_USGS
OBS_55,Forcella MC,12.944,42.956,macroseismic,900.0,7.0,0.3,0.8059,0.378967,0.875,22.7822,1.0131,0.646046,1.0822,0.218457,1.4737,0.04428,inferred,Stations_USGS
OBS_807,Castelvecchio Calvisio AQ,13.688,42.31,macroseismic,661.09,3.0,0.3,,,,,,,,,,,inferred,Stations_USGS
OBS_410,Massa Martana PG,12.525,42.775,macroseismic,501.28,5.0,0.3,0.8059,0.075561,0.875,5.305,1.0131,0.175057,1.0822,0.055928,1.4737,0.012345,inferred,Stations_USGS
OBS_181,Moregnano AP,13.657,43.083,macroseismic,554.22,6.0,0.3,0.8059,0.123441,0.875,10.9936,1.0131,0.284908,1.0822,0.13411,1.4737,0.029037,inferred,Stations_USGS
OBS_768,Morro d'Oro TE,13.92,42.663,macroseismic,479.46,3.5,0.3,,,,,,,,,,,inferred,Stations_USGS
OBS_321,San Paolo di Jesi AN,13.174,43.454,macroseismic,644.9,5.5,0.3,0.8059,0.097843,0.875,7.6368,1.0131,0.22486,1.0822,0.085918,1.4737,0.018765,inferred,Stations_USGS
OBS_553,Meldola FC,12.061,44.127,macroseismic,502.6,4.5,0.3,0.8059,0.039746,0.875,3.6852,1.0131,0.063202,1.0822,0.046068,1.4737,0.010573,inferred,Stations_USGS
OBS_411,Mentana RM,12.638,42.036,macroseismic,374.94,5.0,0.3,0.8059,0.056368,0.875,5.305,1.0131,0.131212,1.0822,0.066932,1.4737,0.015098,inferred,Stations_USGS
OBS_737,Bussi sul Tirino PE,13.826,42.21,macroseismic,734.72,3.5,0.3,,,,,,,,,,,inferred,Stations_USGS
OBS_641,Carsoli AQ,13.084,42.098,macroseismic,357.85,4.0,0.3,0.8059,0.022912,0.875,1.8712,1.0131,0.034334,1.0822,0.020157,1.4737,0.00395,inferred,Stations_USGS
OBS_203,San Ginesio MC,13.319,43.108,macroseismic,480.23,6.0,0.3,0.8059,0.144803,0.875,10.9936,1.0131,0.309847,1.0822,0.121612,1.4737,0.026022,inferred,Stations_USGS
OBS_122,Ancarano PG,13.108,42.84,macroseismic,900.0,6.0,0.3,0.8059,0.153636,0.875,10.9936,1.0131,0.319642,1.0822,0.117278,1.4737,0.024985,inferred,Stations_USGS
OBS_786,Sinalunga SI,11.741,43.214,macroseismic,570.08,3.5,0.3,,,,,,,,,,,inferred,Stations_USGS
OBS_176,Montefalcone Appennino AP,13.46,42.987,macroseismic,845.19,6.0,0.3,0.8059,0.134027,0.875,10.9936,1.0131,0.297502,1.0822,0.127515,1.4737,0.027441,inferred,Stations_USGS
OBS_723,Tocco da Casauria PE,13.914,42.214,macroseismic,552.55,4.0,0.3,0.8059,0.020386,0.875,1.8712,1.0131,0.032237,1.0822,0.021352,1.4737,0.004307,inferred,Stations_USGS
OBS_259,Corinaldo AN,13.048,43.649,macroseismic,453.14,5.5,0.3,0.8059,0.090763,0.875,7.6368,1.0131,0.216155,1.0822,0.089966,1.4737,0.019758,inferred,Stations_USGS
OBS_81,Castel Sant'Angelo MC,13.183,43.342,macroseismic,532.17,6.5,0.3,0.8059,0.192524,0.875,15.8259,1.0131,0.403563,1.0822,0.18382,1.4737,0.038842,inferred,Stations_USGS
OBS_557,Monte Porzio PU,13.046,43.69,macroseismic,440.98,4.5,0.3,0.8059,0.047797,0.875,3.6852,1.0131,0.08015,1.0822,0.037107,1.4737,0.008408,inferred,Stations_USGS
OBS_396,Grotte di Castro VT,11.873,42.674,macroseismic,479.46,5.0,0.3,0.8059,0.060111,0.875,5.305,1.0131,0.142538,1.0822,0.064346,1.4737,0.014446,inferred,Stations_USGS
OBS_119,Acquacanina MC,13.175,43.029,macroseismic,656.51,6.0,0.3,0.8059,0.164049,0.875,10.9936,1.0131,0.330855,1.0822,0.112657,1.4737,0.023884,inferred,Stations_USGS
OBS_556,Monsampolo del Tronto AP,13.794,42.897,macroseismic,339.82,4.5,0.3,0.8059,0.046052,0.875,3.6852,1.0131,0.076401,1.0822,0.038768,1.4737,0.00898,inferred,Stations_USGS
OBS_764,Mondolfo PU,13.096,43.751,macroseismic,425.96,3.5,0.3,,,,,,,,,,,inferred,Stations_USGS
OBS_105,Saccovescio PG,13.034,42.898,macroseismic,812.22,6.5,0.3,0.8059,0.232834,0.875,15.8259,1.0131,0.44598,1.0822,0.163603,1.4737,0.034087,inferred,Stations_USGS
OBS_546,Loreto AN,13.61,43.44,macroseismic,536.33,4.5,0.3,0.8059,0.046377,0.875,3.6852,1.0131,0.077095,1.0822,0.038448,1.4737,0.008869,inferred,Stations_USGS
OBS_535,Fano Adriano TE,13.538,42.552,macroseismic,900.0,4.5,0.3,0.8059,0.045908,0.875,3.6852,1.0131,0.076092,1.0822,0.038912,1.4737,0.00903,inferred,Stations_USGS
OBS_809,Cerchio AQ,13.601,42.064,macroseismic,607.89,3.0,0.3,,,,,,,,,,,inferred,Stations_USGS
OBS_507,Castel Giorgio TR,11.979,42.708,macroseismic,233.39,4.5,0.3,0.8059,0.045427,0.875,3.6852,1.0131,0.075068,1.0822,0.039396,1.4737,0.009199,inferred,Stations_USGS
OBS_531,Cugnoli PE,13.933,42.308,macroseismic,467.16,4.5,0.3,0.8059,0.040594,0.875,3.6852,1.0131,0.064943,1.0822,0.045476,1.4737,0.010421,inferred,Stations_USGS
OBS_1,Collecurti MC,12.934,42.963,macroseismic,858.15,9.0,0.3,0.8059,1.315654,0.875,97.8377,1.0131,1.964966,1.0822,1.069106,1.4737,0.204483,inferred,Stations_USGS
OBS_188,Otricoli TR,12.478,42.422,macroseismic,522.59,6.0,0.3,0.8059,0.117769,0.875,10.9936,1.0131,0.277949,1.0822,0.138033,1.4737,0.029991,inferred,Stations_USGS
OBS_53,Foligno PG,12.704,42.955,macroseismic,289.58,7.0,0.3,0.8059,0.340744,0.875,22.7822,1.0131,0.610927,1.0822,0.233166,1.4737,0.047635,inferred,Stations_USGS
OBS_331,Serra San Quirico AN,13.015,43.447,macroseismic,834.92,5.5,0.3,0.8059,0.102769,0.875,7.6368,1.0131,0.230743,1.0822,0.08337,1.4737,0.018142,inferred,Stations_USGS
OBS_696,Petrella Salto RI,13.068,42.294,macroseismic,900.0,4.0,0.3,0.8059,0.026722,0.875,1.8712,1.0131,0.037304,1.0822,0.018685,1.4737,0.003525,inferred,Stations_USGS
OBS_209,Sassoferrato AN,12.858,43.434,macroseismic,357.96,6.0,0.3,0.8059,0.145488,0.875,10.9936,1.0131,0.310616,1.0822,0.12126,1.4737,0.025938,inferred,Stations_USGS
OBS_229,Allerona TR,11.974,42.812,macroseismic,498.19,5.5,0.3,0.8059,0.086389,0.875,7.6368,1.0131,0.210614,1.0822,0.092731,1.4737,0.02044,inferred,Stations_USGS
OBS_240,Barbara AN,13.025,43.579,macroseismic,424.27,5.5,0.3,0.8059,0.094372,0.875,7.6368,1.0131,0.220631,1.0822,0.087841,1.4737,0.019236,inferred,Stations_USGS
OBS_261,Deruta PG,12.419,42.982,macroseismic,464.63,5.5,0.3,0.8059,0.108506,0.875,7.6368,1.0131,0.237428,1.0822,0.080639,1.4737,0.017478,inferred,Stations_USGS
OBS_28,Nocera Scalo PG,12.767,43.1,macroseismic,377.8,7.5,0.3,0.8059,0.517293,0.875,32.7961,1.0131,0.853171,1.0822,0.324922,1.4737,0.064911,inferred,Stations_USGS
OBS_23,Croce di Verchiano PG,12.879,42.953,macroseismic,531.87,7.5,0.3,0.8059,0.517293,0.875,32.7961,1.0131,0.853171,1.0822,0.324922,1.4737,0.064911,inferred,Stations_USGS
OBS_844,Pitigliano GR,11.668,42.634,macroseismic,365.97,3.0,0.3,,,,,,,,,,,inferred,Stations_USGS
OBS_704,Pratola Peligna AQ,13.875,42.098,macroseismic,423.78,4.0,0.3,0.8059,0.019566,0.875,1.8712,1.0131,0.031531,1.0822,0.021789,1.4737,0.00444,inferred,Stations_USGS
OBS_587,Proceno VT,11.83,42.757,macroseismic,506.29,4.5,0.3,0.8059,0.044264,0.875,3.6852,1.0131,0.072602,1.0822,0.040618,1.4737,0.009631,inferred,Stations_USGS
OBS_80,Casebianche AP,13.481,42.832,macroseismic,644.56,null,null,0.8059,0.176027,0.875,15.8259,1.0131,0.384997,1.0822,0.194196,1.4737,0.041307,inferred,Stations_USGS
OBS_273,Magliano di Tenna AP,13.586,43.138,macroseismic,483.4,5.5,0.3,0.8059,0.092557,0.875,7.6368,1.0131,0.218391,1.0822,0.088893,1.4737,0.019494,inferred,Stations_USGS
OBS_574,Nereto TE,13.817,42.819,macroseismic,460.44,4.5,0.3,0.8059,0.045363,0.875,3.6852,1.0131,0.074931,1.0822,0.039462,1.4737,0.009222,inferred,Stations_USGS
OBS_608,Torri in Sabina RI,12.638,42.352,macroseismic,440.91,4.5,0.3,0.8059,0.045789,0.875,3.6852,1.0131,0.075838,1.0822,0.03903,1.4737,0.009071,inferred,Stations_USGS
OBS_37,Valtopina PG,12.754,43.056,macroseismic,664.9,7.5,0.3,0.8059,0.517293,0.875,32.7961,1.0131,0.853171,1.0822,0.324922,1.4737,0.064911,inferred,Stations_USGS
OBS_187,Ostra Vetere AN,13.059,43.603,macroseismic,416.56,6.0,0.3,0.8059,0.126585,0.875,10.9936,1.0131,0.2887,1.0822,0.132059,1.4737,0.02854,inferred,Stations_USGS
OBS_292,Montegiorgio AP,13.537,43.13,macroseismic,475.15,5.5,0.3,0.8059,0.0945,0.875,7.6368,1.0131,0.220788,1.0822,0.087768,1.4737,0.019218,inferred,Stations_USGS
OBS_642,Castel del Monte AQ,13.727,42.364,macroseismic,799.38,4.0,0.3,0.8059,0.023302,0.875,1.8712,1.0131,0.034647,1.0822,0.019991,1.4737,0.003901,inferred,Stations_USGS
OBS_92,Fiuminata MC,12.932,43.188,macroseismic,568.13,6.5,0.3,0.8059,0.269226,0.875,15.8259,1.0131,0.481363,1.0822,0.14967,1.4737,0.03085,inferred,Stations_USGS
OBS_244,Castel Ritaldi PG,12.673,42.822,macroseismic,440.21,5.5,0.3,0.8059,0.114093,0.875,7.6368,1.0131,0.243777,1.0822,0.078196,1.4737,0.016885,inferred,Stations_USGS
OBS_302,Ortezzano AP,13.609,43.031,macroseismic,571.2,5.5,0.3,0.8059,0.092157,0.875,7.6368,1.0131,0.217894,1.0822,0.089129,1.4737,0.019553,inferred,Stations_USGS
OBS_636,Campotosto AQ,13.369,42.558,macroseismic,538.85,4.0,0.3,0.8059,0.030916,0.875,1.8712,1.0131,0.040357,1.0822,0.017389,1.4737,0.003164,inferred,Stations_USGS
OBS_672,Lettomanoppello PE,14.038,42.241,macroseismic,782.33,4.0,0.3,0.8059,0.01987,0.875,1.8712,1.0131,0.031794,1.0822,0.021624,1.4737,0.004389,inferred,Stations_USGS
OBS_343,Acquaviva Picena AP,13.814,42.944,macroseismic,283.75,5.0,0.3,0.8059,0.062714,0.875,5.305,1.0131,0.150535,1.0822,0.062696,1.4737,0.014031,inferred,Stations_USGS
OBS_468,Sansepolcro AR,12.141,43.57,macroseismic,403.69,5.0,0.3,0.8059,0.063202,0.875,5.305,1.0131,0.152046,1.0822,0.062398,1.4737,0.013957,inferred,Stations_USGS
OBS_711,Rocca Sinibalda RI,12.927,42.275,macroseismic,302.92,4.0,0.3,0.8059,0.026635,0.875,1.8712,1.0131,0.037239,1.0822,0.018715,1.4737,0.003533,inferred,Stations_USGS
OBS_46,Colbassano PG,12.729,43.292,macroseismic,395.42,7.0,0.3,0.8059,0.316584,0.875,22.7822,1.0131,0.587758,1.0822,0.243917,1.4737,0.050103,inferred,Stations_USGS
OBS_225,Valle Vegenana MC,13.078,43.174,macroseismic,608.42,6.0,0.3,0.8059,0.16829,0.875,10.9936,1.0131,0.335325,1.0822,0.110908,1.4737,0.023469,inferred,Stations_USGS
OBS_821,Genazzano RM,12.973,41.833,macroseismic,760.0,3.0,0.3,,,,,,,,,,,inferred,Stations_USGS
OBS_258,Corciano PG,12.287,43.128,macroseismic,584.83,5.5,0.3,0.8059,0.102199,0.875,7.6368,1.0131,0.230069,1.0822,0.083654,1.4737,0.018212,inferred,Stations_USGS
OBS_475,Serramonacesca PE,14.094,42.248,macroseismic,507.35,5.0,0.3,0.8059,0.053686,0.875,5.305,1.0131,0.123226,1.0822,0.068962,1.4737,0.015612,inferred,Stations_USGS
OBS_841,Pescocostanzo AQ,14.065,41.889,macroseismic,760.0,3.0,0.3,,,,,,,,,,,inferred,Stations_USGS
OBS_828,Lanciano CH,14.39,42.23,macroseismic,482.23,3.0,0.3,,,,,,,,,,,inferred,Stations_USGS
OBS_326,Sant'Angelo in Vado PU,12.411,43.664,macroseismic,432.05,5.5,0.3,0.8059,0.087955,0.875,7.6368,1.0131,0.212612,1.0822,0.091716,1.4737,0.02019,inferred,Stations_USGS
OBS_681,Monte Castello di Vibio PG,12.352,42.84,macroseismic,441.53,4.0,0.3,0.8059,0.038783,0.875,1.8712,1.0131,0.046259,1.0822,0.015349,1.4737,0.002624,inferred,Stations_USGS
OBS_294,Monteleone di Spoleto PG,12.953,42.652,macroseismic,557.77,5.5,0.3,0.8059,0.100852,0.875,7.6368,1.0131,0.22847,1.0822,0.084337,1.4737,0.018378,inferred,Stations_USGS
OBS_18,Acquapagana MC,12.929,42.985,macroseismic,544.57,7.5,0.3,0.8059,0.517293,0.875,32.7961,1.0131,0.853171,1.0822,0.324922,1.4737,0.064911,inferred,Stations_USGS
OBS_860,Scurcola Marsicana AQ,13.342,42.064,macroseismic,607.73,3.0,0.3,,,,,,,,,,,inferred,Stations_USGS
OBS_435,Pedaso AP,13.841,43.097,macroseismic,365.62,5.0,0.3,0.8059,0.062353,0.875,5.305,1.0131,0.14942,1.0822,0.062918,1.4737,0.014087,inferred,Stations_USGS
OBS_134,Cagli PU,12.651,43.546,macroseismic,390.44,6.0,0.3,0.8059,0.132025,0.875,10.9936,1.0131,0.295157,1.0822,0.128697,1.4737,0.027727,inferred,Stations_USGS
OBS_810,Cerveteri RM,12.099,41.997,macroseismic,431.21,3.0,0.3,,,,,,,,,,,inferred,Stations_USGS
OBS_220,Trevi PG,12.747,42.877,macroseismic,858.29,6.0,0.3,0.8059,0.172371,0.875,10.9936,1.0131,0.339575,1.0822,0.109291,1.4737,0.023086,inferred,Stations_USGS
OBS_454,Recanati MC,13.55,43.403,macroseismic,434.88,5.0,0.3,0.8059,0.06493,0.875,5.305,1.0131,0.157422,1.0822,0.061375,1.4737,0.0137,inferred,Stations_USGS
OBS_836,Monterosi VT,12.309,42.196,macroseismic,400.17,3.0,0.3,,,,,,,,,,,inferred,Stations_USGS
OBS_649,Civitaquana PE,13.899,42.325,macroseismic,417.16,4.0,0.3,0.8059,0.021528,0.875,1.8712,1.0131,0.033198,1.0822,0.020787,1.4737,0.004137,inferred,Stations_USGS
OBS_248,Cerreto di Camerino PG,13.085,43.172,macroseismic,479.94,5.5,0.3,0.8059,0.122728,0.875,7.6368,1.0131,0.253309,1.0822,0.074776,1.4737,0.01606,inferred,Stations_USGS
OBS_820,Gallicano nel Lazio RM,12.819,41.871,macroseismic,760.0,3.0,0.3,,,,,,,,,,,inferred,Stations_USGS
OBS_291,Montefranco TR,12.766,42.597,macroseismic,781.01,5.5,0.3,0.8059,0.097269,0.875,7.6368,1.0131,0.224167,1.0822,0.086228,1.4737,0.018841,inferred,Stations_USGS
OBS_124,Arcevia AN,12.94,43.499,macroseismic,599.39,6.0,0.3,0.8059,0.136971,0.875,10.9936,1.0131,0.30092,1.0822,0.125828,1.4737,0.027035,inferred,Stations_USGS
OBS_480,Tavullia PU,12.754,43.898,macroseismic,479.7,5.0,0.3,0.8059,0.060461,0.875,5.305,1.0131,0.143608,1.0822,0.064117,1.4737,0.014388,inferred,Stations_USGS
OBS_780,San Gregorio da Sassola RM,12.871,41.918,macroseismic,760.0,3.5,0.3,,,,,,,,,,,inferred,Stations_USGS
OBS_521,Cineto Romano RM,12.962,42.049,macroseismic,867.12,4.5,0.3,0.8059,0.041557,0.875,3.6852,1.0131,0.066935,1.0822,0.04375,1.4737,0.010255,inferred,Stations_USGS
OBS_348,Barete AQ,13.283,42.45,macroseismic,900.0,5.0,0.3,0.8059,0.063376,0.875,5.305,1.0131,0.152586,1.0822,0.062293,1.4737,0.01393,inferred,Stations_USGS
OBS_832,Loro Ciuffenna AR,11.632,43.592,macroseismic,542.73,3.0,0.3,,,,,,,,,,,inferred,Stations_USGS
OBS_130,Borgiano MC,13.197,43.149,macroseismic,727.44,6.0,0.3,0.8059,0.155603,0.875,10.9936,1.0131,0.321788,1.0822,0.116367,1.4737,0.024767,inferred,Stations_USGS
OBS_267,Gemmano RN,12.583,43.904,macroseismic,615.2,5.5,0.3,0.8059,0.081853,0.875,7.6368,1.0131,0.204725,1.0822,0.095848,1.4737,0.021212,inferred,Stations_USGS
OBS_421,Montecalvo in Foglia PU,12.632,43.811,macroseismic,396.72,5.0,0.3,0.8059,0.062201,0.875,5.305,1.0131,0.148951,1.0822,0.063012,1.4737,0.014111,inferred,Stations_USGS
OBS_208,Sant'Angelo in Pontano MC,13.398,43.099,macroseismic,593.64,6.0,0.3,0.8059,0.138381,0.875,10.9936,1.0131,0.302544,1.0822,0.12504,1.4737,0.026845,inferred,Stations_USGS
OBS_816,Dovadola FC,11.887,44.122,macroseismic,725.03,3.0,0.3,,,,,,,,,,,inferred,Stations_USGS
OBS_265,Forano RI,12.595,42.297,macroseismic,380.69,5.5,0.3,0.8059,0.083322,0.875,7.6368,1.0131,0.20665,1.0822,0.094808,1.4737,0.020954,inferred,Stations_USGS
OBS_654,Collepietro AQ,13.78,42.221,macroseismic,452.06,4.0,0.3,0.8059,0.021265,0.875,1.8712,1.0131,0.032979,1.0822,0.020913,1.4737,0.004174,inferred,Stations_USGS
OBS_334,Tarano RI,12.596,42.355,macroseismic,446.6,5.5,0.3,0.8059,0.085144,0.875,7.6368,1.0131,0.209012,1.0822,0.09356,1.4737,0.020645,inferred,Stations_USGS
OBS_236,Appignano MC,13.347,43.364,macroseismic,345.45,5.5,0.3,0.8059,0.095651,0.875,7.6368,1.0131,0.222198,1.0822,0.087119,1.4737,0.019059,inferred,Stations_USGS
OBS_536,Fiamignano RI,13.125,42.265,macroseismic,900.0,4.5,0.3,0.8059,0.044177,0.875,3.6852,1.0131,0.072418,1.0822,0.040712,1.4737,0.009664,inferred,Stations_USGS
OBS_487,Acciano AQ,13.717,42.176,macroseismic,493.81,4.5,0.3,0.8059,0.040615,0.875,3.6852,1.0131,0.064987,1.0822,0.045461,1.4737,0.010417,inferred,Stations_USGS
OBS_676,Marta VT,11.925,42.535,macroseismic,385.49,4.0,0.3,0.8059,0.024618,0.875,1.8712,1.0131,0.03569,1.0822,0.019456,1.4737,0.003746,inferred,Stations_USGS
OBS_19,Belvedere AN,12.86,43.237,macroseismic,650.95,7.5,0.3,0.8059,0.489987,0.875,32.7961,1.0131,0.829191,1.0822,0.335904,1.4737,0.067375,inferred,Stations_USGS
OBS_754,Cave RM,12.931,41.818,macroseismic,760.0,3.5,0.3,,,,,,,,,,,inferred,Stations_USGS
OBS_158,Gualdo Cattaneo PG,12.556,42.911,macroseismic,606.23,6.0,0.3,0.8059,0.154988,0.875,10.9936,1.0131,0.321118,1.0822,0.116649,1.4737,0.024835,inferred,Stations_USGS
OBS_657,Elice PE,13.968,42.518,macroseismic,534.43,4.0,0.3,0.8059,0.022768,0.875,1.8712,1.0131,0.034217,1.0822,0.02022,1.4737,0.003969,inferred,Stations_USGS
OBS_280,Monte Roberto AN,13.139,43.481,macroseismic,574.47,5.5,0.3,0.8059,0.097421,0.875,7.6368,1.0131,0.224351,1.0822,0.086146,1.4737,0.018821,inferred,Stations_USGS
OBS_591,Sambuci RM,12.937,41.987,macroseismic,605.03,4.5,0.3,0.8059,0.040869,0.875,3.6852,1.0131,0.065511,1.0822,0.044618,1.4737,0.010373,inferred,Stations_USGS
OBS_680,Montasola RI,12.681,42.385,macroseismic,648.51,4.0,0.3,0.8059,0.029272,0.875,1.8712,1.0131,0.039185,1.0822,0.017864,1.4737,0.003295,inferred,Stations_USGS
OBS_598,Scandriglia RI,12.842,42.165,macroseismic,653.71,4.5,0.3,0.8059,0.04309,0.875,3.6852,1.0131,0.070131,1.0822,0.041924,1.4737,0.010003,inferred,Stations_USGS
OBS_781,San Pio delle Camere AQ,13.656,42.286,macroseismic,821.07,3.5,0.3,,,,,,,,,,,inferred,Stations_USGS
OBS_397,Guardea TR,12.298,42.622,macroseismic,626.53,5.0,0.3,0.8059,0.065727,0.875,5.305,1.0131,0.159913,1.0822,0.060918,1.4737,0.013586,inferred,Stations_USGS
OBS_589,Rocca Priora RM,12.755,41.79,macroseismic,760.0,4.5,0.3,0.8059,0.038941,0.875,3.6852,1.0131,0.061557,1.0822,0.046649,1.4737,0.010723,inferred,Stations_USGS
OBS_404,Lunano PU,12.44,43.728,macroseismic,587.06,5.0,0.3,0.8059,0.063118,0.875,5.305,1.0131,0.151785,1.0822,0.062449,1.4737,0.013969,inferred,Stations_USGS
OBS_473,Sant'Ippolito PU,12.872,43.684,macroseismic,456.87,5.0,0.3,0.8059,0.066164,0.875,5.305,1.0131,0.161283,1.0822,0.060671,1.4737,0.013524,inferred,Stations_USGS
OBS_555,Mombaroccio PU,12.855,43.795,macroseismic,528.85,4.5,0.3,0.8059,0.046106,0.875,3.6852,1.0131,0.076515,1.0822,0.038715,1.4737,0.008961,inferred,Stations_USGS
OBS_184,Nemi MC,13.095,43.023,macroseismic,560.25,6.0,0.3,0.8059,0.180611,0.875,10.9936,1.0131,0.348015,1.0822,0.106208,1.4737,0.022357,inferred,Stations_USGS
OBS_648,Civita Castellana VT,12.413,42.293,macroseismic,479.87,4.0,0.3,0.8059,0.025518,0.875,1.8712,1.0131,0.036388,1.0822,0.019115,1.4737,0.003647,inferred,Stations_USGS
OBS_617,Viterbo VT,12.11,42.421,macroseismic,413.58,4.5,0.3,0.8059,0.043683,0.875,3.6852,1.0131,0.071376,1.0822,0.041255,1.4737,0.009909,inferred,Stations_USGS
OBS_684,Montefiore dell'Aso AP,13.751,43.051,macroseismic,573.35,4.0,0.3,0.8059,0.029987,0.875,1.8712,1.0131,0.039698,1.0822,0.017652,1.4737,0.003237,inferred,Stations_USGS
OBS_823,Giuliano Teatino CH,14.278,42.305,macroseismic,528.87,3.0,0.3,,,,,,,,,,,inferred,Stations_USGS
OBS_686,Monteprandone AP,13.835,42.919,macroseismic,440.05,4.0,0.3,0.8059,0.027861,0.875,1.8712,1.0131,0.038154,1.0822,0.018304,1.4737,0.003418,inferred,Stations_USGS
OBS_16,Sorifa PG,12.822,43.078,macroseismic,569.65,8.0,0.3,0.8059,0.706109,0.875,47.2118,1.0131,1.126702,1.0822,0.483274,1.4737,0.095155,inferred,Stations_USGS
OBS_308,Penna San Giovanni MC,13.426,43.056,macroseismic,462.1,5.5,0.3,0.8059,0.10016,0.875,7.6368,1.0131,0.227645,1.0822,0.084694,1.4737,0.018465,inferred,Stations_USGS
OBS_319,Rivodutri RI,12.856,42.515,macroseismic,900.0,5.5,0.3,0.8059,0.092908,0.875,7.6368,1.0131,0.218825,1.0822,0.088687,1.4737,0.019444,inferred,Stations_USGS
OBS_307,Peglio PU,12.496,43.695,macroseismic,563.48,5.5,0.3,0.8059,0.087923,0.875,7.6368,1.0131,0.212572,1.0822,0.091736,1.4737,0.020195,inferred,Stations_USGS
OBS_418,Monte Urano AP,13.673,43.202,macroseismic,528.04,5.0,0.3,0.8059,0.065219,0.875,5.305,1.0131,0.158325,1.0822,0.061208,1.4737,0.013659,inferred,Stations_USGS
OBS_386,Firenze FI,11.249,43.777,macroseismic,760.0,5.0,0.3,0.8059,0.052356,0.875,5.305,1.0131,0.11931,1.0822,0.07003,1.4737,0.015883,inferred,Stations_USGS
OBS_776,Ronciglione VT,12.217,42.291,macroseismic,494.81,3.5,0.3,,,,,,,,,,,inferred,Stations_USGS
OBS_715,San Benedetto in Perillis AQ,13.771,42.184,macroseismic,586.68,4.0,0.3,0.8059,0.02093,0.875,1.8712,1.0131,0.032698,1.0822,0.021077,1.4737,0.004224,inferred,Stations_USGS
OBS_202,Rocchetta PG,12.937,42.771,macroseismic,900.0,6.0,0.3,0.8059,0.152813,0.875,10.9936,1.0131,0.318742,1.0822,0.117664,1.4737,0.025077,inferred,Stations_USGS
OBS_444,Polino TR,12.844,42.585,macroseismic,900.0,5.0,0.3,0.8059,0.070934,0.875,5.305,1.0131,0.169337,1.0822,0.058137,1.4737,0.012893,inferred,Stations_USGS
OBS_285,Montecassiano MC,13.436,43.363,macroseismic,452.86,5.5,0.3,0.8059,0.092795,0.875,7.6368,1.0131,0.218685,1.0822,0.088753,1.4737,0.01946,inferred,Stations_USGS
OBS_340,Urbisaglia MC,13.377,43.196,macroseismic,399.54,5.5,0.3,0.8059,0.1004,0.875,7.6368,1.0131,0.227931,1.0822,0.08457,1.4737,0.018435,inferred,Stations_USGS
OBS_796,Vivaro Romano RM,13.007,42.1,macroseismic,900.0,3.5,0.3,,,,,,,,,,,inferred,Stations_USGS
OBS_351,Bisenti TE,13.802,42.528,macroseismic,494.01,5.0,0.3,0.8059,0.059078,0.875,5.305,1.0131,0.139391,1.0822,0.065033,1.4737,0.014619,inferred,Stations_USGS
OBS_287,Monteciccardo PU,12.809,43.819,macroseismic,437.46,5.5,0.3,0.8059,0.085086,0.875,7.6368,1.0131,0.208938,1.0822,0.093598,1.4737,0.020655,inferred,Stations_USGS
OBS_175,Montefalco PG,12.652,42.893,macroseismic,333.5,6.0,0.3,0.8059,0.164028,0.875,10.9936,1.0131,0.330833,1.0822,0.112666,1.4737,0.023886,inferred,Stations_USGS
OBS_401,Lisciano RI,12.918,42.448,macroseismic,819.61,5.0,0.3,0.8059,0.065689,0.875,5.305,1.0131,0.159795,1.0822,0.06094,1.4737,0.013591,inferred,Stations_USGS
OBS_850,Rocca di Cave RM,12.945,41.846,macroseismic,760.0,3.0,0.3,,,,,,,,,,,inferred,Stations_USGS
OBS_322,San Severino Marche MC,13.177,43.229,macroseismic,603.8,5.5,0.3,0.8059,0.110093,0.875,7.6368,1.0131,0.239247,1.0822,0.079925,1.4737,0.017304,inferred,Stations_USGS
OBS_701,Poggio Berni RN,12.407,44.027,macroseismic,406.86,4.0,0.3,0.8059,0.022706,0.875,1.8712,1.0131,0.034167,1.0822,0.020247,1.4737,0.003977,inferred,Stations_USGS
OBS_88,Copogna MC,12.95,43.098,macroseismic,602.76,6.5,0.3,0.8059,0.27763,0.875,15.8259,1.0131,0.489204,1.0822,0.146876,1.4737,0.030206,inferred,Stations_USGS
OBS_278,Monsano AN,13.25,43.563,macroseismic,450.83,5.5,0.3,0.8059,0.091207,0.875,7.6368,1.0131,0.21671,1.0822,0.089697,1.4737,0.019692,inferred,Stations_USGS
