STATION_ID,STATION_NAME,LONGITUDE,LATITUDE,STATION_TYPE,VS30,MMI_VALUE,MMI_STDDEV,PGA_LN_SIGMA,PGA_VALUE,PGV_LN_SIGMA,PGV_VALUE,SA(0.3)_LN_SIGMA,SA(0.3)_VALUE,SA(1.0)_LN_SIGMA,SA(1.0)_VALUE,SA(3.0)_LN_SIGMA,SA(3.0)_VALUE,VS30_TYPE,REFERENCES
KTHA,KTHA,23.0621,36.2566,seismic,494.38,3.7,0.63,0.0,0.001441,0.0,1.4543,0.0,0.001931,0.0,0.003008,0.0,0.001526,inferred,Stations_USGS
LTRS,LTRS,22.9765,37.97528,seismic,900.0,4.0,0.63,0.0,0.009631,0.0,2.4104,0.0,0.012476,0.0,0.034704,0.0,0.004274,inferred,Stations_USGS
XLKS,XLKS,22.6361,38.0772,seismic,600.0,3.8,0.63,0.0,0.005964,0.0,1.5523,0.0,0.007129,0.0,0.014671,0.0,0.00619,inferred,Stations_USGS
ABEA,ABEA,24.0113,35.5163,seismic,290.57,3.8,0.63,0.0,0.007695,0.0,1.9402,0.0,0.012446,0.0,0.018297,0.0,0.011094,inferred,Stations_USGS
ATEI,ATEI,24.0432,35.5193,seismic,618.5,3.8,0.63,0.0,0.007828,0.0,1.7991,0.0,0.017069,0.0,0.013416,0.0,0.007723,inferred,Stations_USGS
DEYA,DEYA,24.014,35.4825,seismic,514.28,4.0,0.63,0.0,0.007881,0.0,2.3134,0.0,0.011331,0.0,0.037484,0.0,0.00719,inferred,Stations_USGS
LENT,LENT,24.0402,35.5074,seismic,330.36,3.9,0.63,0.0,0.007864,0.0,1.4219,0.0,0.011379,0.0,0.027402,0.0,0.005865,inferred,Stations_USGS
MULT,MULT,24.0118,35.5091,seismic,290.57,3.5,0.63,0.0,0.004564,0.0,1.1875,0.0,0.006595,0.0,0.009787,0.0,0.006234,inferred,Stations_USGS
NERO,NERO,24.0423,35.474,seismic,870.11,4.0,0.63,0.0,0.006276,0.0,2.4146,0.0,0.009966,0.0,0.015155,0.0,0.004508,inferred,Stations_USGS
POLY,POLY,24.0602,35.5226,seismic,379.24,3.8,0.63,0.0,0.005227,0.0,1.723,0.0,0.009956,0.0,0.01099,0.0,0.006599,inferred,Stations_USGS
ARS1,ARS1,22.729242,37.634811,seismic,292.0,3.8,0.63,0.0,0.004043,0.0,0.8343,0.0,0.007153,0.0,0.009687,0.0,0.0029,inferred,Stations_USGS
ATH5,ATH5,23.737098,37.975421,seismic,471.38,3.6,0.63,0.0,0.003956,0.0,1.3038,0.0,0.012185,0.0,0.004824,0.0,0.002154,inferred,Stations_USGS
CH01,CH01,24.020798,35.516961,seismic,290.57,3.6,0.63,0.0,0.006256,0.0,0.9534,0.0,0.012848,0.0,0.01207,0.0,0.003704,inferred,Stations_USGS
KLV1,KLV1,22.10797,38.03256,seismic,305.93,3.2,0.63,0.0,0.000927,0.0,0.4604,0.0,0.002411,0.0,0.001954,0.0,0.001425,inferred,Stations_USGS
LMN1,LMN1,25.06861,39.87515,seismic,422.75,3.2,0.63,0.0,0.002961,0.0,0.6236,0.0,0.009688,0.0,0.002778,0.0,0.001999,inferred,Stations_USGS
MYT1,MYT1,26.5694,39.085,seismic,674.64,3.9,0.63,0.0,0.018909,0.0,2.186,0.0,0.042634,0.0,0.02815,0.0,0.006564,inferred,Stations_USGS
NAX1,NAX1,25.374103,37.101394,seismic,600.0,4.1,0.63,0.0,0.030922,0.0,3.1206,0.0,0.081166,0.0,0.021636,0.0,0.004884,inferred,Stations_USGS
NPS1,NPS1,23.06248,36.51263,seismic,498.65,3.6,0.63,0.0,0.00287,0.0,1.2516,0.0,0.004029,0.0,0.007616,0.0,0.003696,inferred,Stations_USGS
SFL1,SFL1,26.30427,41.19001,seismic,424.29,3.2,0.63,0.0,0.005826,0.0,0.6276,0.0,0.010349,0.0,0.008647,0.0,0.001428,inferred,Stations_USGS
SIT2,SIT2,26.10709,35.20586,seismic,468.75,3.4,0.63,0.0,0.004003,0.0,0.6048,0.0,0.009001,0.0,0.003877,0.0,0.001092,inferred,Stations_USGS
SKY1,SKY1,24.564571,38.904483,seismic,556.27,3.7,0.63,0.0,0.002333,0.0,1.4386,0.0,0.00606,0.0,0.004917,0.0,0.002174,inferred,Stations_USGS
ANKY,ANKY,23.30117,35.86704,seismic,619.57,3.6,0.63,0.0,0.001729,0.0,1.3575,0.0,0.003095,0.0,0.005325,0.0,0.002459,inferred,Stations_USGS
ASTA,ASTA,26.3528,36.54543,seismic,455.78,3.9,0.63,0.0,0.004789,0.0,1.5032,0.0,0.014655,0.0,0.006593,0.0,0.003771,inferred,Stations_USGS
ATHP,ATHP,23.773487,38.000799,seismic,484.43,3.6,0.63,0.0,0.004818,0.0,1.11,0.0,0.008795,0.0,0.007282,0.0,0.002143,inferred,Stations_USGS
EFSA,EFSA,24.98864,39.54015,seismic,514.75,3.6,0.63,0.0,0.002431,0.0,0.7398,0.0,0.004986,0.0,0.007192,0.0,0.001814,inferred,Stations_USGS
IACM,IACM,25.0709,35.3058,seismic,422.48,3.9,0.63,0.0,0.008242,0.0,2.1638,0.0,0.016042,0.0,0.027783,0.0,0.003067,inferred,Stations_USGS
ITM,ITM,21.92522,37.17872,seismic,900.0,3.5,0.63,0.0,0.000952,0.0,1.1315,0.0,0.000982,0.0,0.001195,0.0,0.001966,inferred,Stations_USGS
KLNA,KLNA,26.97276,36.95708,seismic,612.98,3.8,0.63,0.0,0.025667,0.0,1.8313,0.0,0.083969,0.0,0.015893,0.0,0.004148,inferred,Stations_USGS
KTHA,KTHA,23.0621,36.2566,seismic,494.38,3.6,0.63,0.0,0.008314,0.0,1.3592,0.0,0.015495,0.0,0.017483,0.0,0.002404,inferred,Stations_USGS
LIA,LIA,25.18055,39.89725,seismic,464.17,3.2,0.63,0.0,0.001909,0.0,0.6989,0.0,0.003289,0.0,0.003225,0.0,0.001886,inferred,Stations_USGS
MNVA,MNVA,23.03734,36.68709,seismic,883.64,3.5,0.63,0.0,0.001311,0.0,1.0554,0.0,0.00149,0.0,0.002773,0.0,0.001596,inferred,Stations_USGS
NISR,NISR,27.1309,36.6106,seismic,600.0,3.8,0.63,0.0,0.009417,0.0,1.5886,0.0,0.017701,0.0,0.009861,0.0,0.005132,inferred,Stations_USGS
NOAC,NOAC,23.71767,37.97384,seismic,408.16,3.7,0.63,0.0,0.004162,0.0,1.5709,0.0,0.012988,0.0,0.007593,0.0,0.00241,inferred,Stations_USGS
PRK,PRK,26.26499,39.24565,seismic,375.13,4.1,0.63,0.0,0.028436,0.0,3.0344,0.0,0.055514,0.0,0.049713,0.0,0.003226,inferred,Stations_USGS
SIVA,SIVA,24.80996,35.01746,seismic,454.41,3.4,0.63,0.0,0.002949,0.0,1.0224,0.0,0.005806,0.0,0.006597,0.0,0.001702,inferred,Stations_USGS
THRA,THRA,25.43244,36.41502,seismic,578.77,5.1,0.63,0.0,0.039693,0.0,6.2877,0.0,0.079549,0.0,0.076857,0.0,0.028258,inferred,Stations_USGS
TNSA,TNSA,25.1631,37.53942,seismic,374.97,4.2,0.63,0.0,0.025691,0.0,2.4182,0.0,0.094846,0.0,0.026114,0.0,0.006457,inferred,Stations_USGS
YDRA,YDRA,23.46529,37.34947,seismic,693.52,3.8,0.63,0.0,0.004776,0.0,1.8824,0.0,0.007186,0.0,0.012,0.0,0.002603,inferred,Stations_USGS
ANX,ANX,21.9209,38.5933,seismic,847.19,3.4,0.63,0.0,0.001094,0.0,0.9175,0.0,0.003863,0.0,0.002721,0.0,0.001726,inferred,Stations_USGS
GUR,GUR,22.3423,37.9363,seismic,900.0,3.0,0.63,0.0,0.001138,0.0,0.4942,0.0,0.002225,0.0,0.002303,0.0,0.000943,inferred,Stations_USGS
LTK,LTK,22.9673,38.0228,seismic,900.0,3.7,0.63,0.0,0.002886,0.0,1.0182,0.0,0.004739,0.0,0.006134,0.0,0.002861,inferred,Stations_USGS
AKS,AKS,27.8129,38.8785,seismic,793.77,3.8,0.63,0.0,0.01198,0.0,1.5773,0.0,0.026697,0.0,0.014959,0.0,0.005019,inferred,Stations_USGS
BIGA,BIGA,27.150483,40.281348,seismic,364.4,3.0,0.63,0.0,0.003954,0.0,0.5141,0.0,0.011813,0.0,0.005287,0.0,0.001502,inferred,Stations_USGS
BOTS,BOTS,27.981,40.9902,seismic,600.0,3.1,0.63,0.0,0.002869,0.0,0.6215,0.0,0.006492,0.0,0.007904,0.0,0.004765,inferred,Stations_USGS
CAME,CAME,29.3023,37.919364,seismic,567.96,3.3,0.63,0.0,0.00149,0.0,0.879,0.0,0.003645,0.0,0.002929,0.0,0.002359,inferred,Stations_USGS
CANM,CANM,27.0529,40.0114,seismic,503.74,3.5,0.63,0.0,0.008361,0.0,1.1309,0.0,0.017998,0.0,0.028601,0.0,0.003052,inferred,Stations_USGS
CESE,CESE,26.2997,38.3306,seismic,409.53,4.7,0.63,0.0,0.062294,0.0,4.9891,0.0,0.117655,0.0,0.061036,0.0,0.00779,inferred,Stations_USGS
DIDI,DIDI,27.2398,37.3767,seismic,379.83,5.3,0.63,0.0,0.060984,0.0,7.5379,0.0,0.178948,0.0,0.10131,0.0,0.02037,inferred,Stations_USGS
DST,DST,28.6267,39.6041,seismic,371.54,3.0,0.63,0.0,0.003167,0.0,0.5328,0.0,0.006677,0.0,0.006809,0.0,0.001467,inferred,Stations_USGS
EDC,EDC,27.8618,40.3465,seismic,673.81,3.2,0.63,0.0,0.002901,0.0,0.5473,0.0,0.008482,0.0,0.007556,0.0,0.003014,inferred,Stations_USGS
ENZZ,ENZZ,26.1406,40.607,seismic,380.79,3.7,0.63,0.0,0.011729,0.0,1.5786,0.0,0.017212,0.0,0.036008,0.0,0.004581,inferred,Stations_USGS
EZNE,EZNE,26.3655,39.756,seismic,269.84,3.3,0.63,0.0,0.005753,0.0,0.7802,0.0,0.017347,0.0,0.011683,0.0,0.002662,inferred,Stations_USGS
FOCM,FOCM,26.7309,38.7131,seismic,553.33,4.7,0.63,0.0,0.058737,0.0,4.8491,0.0,0.087171,0.0,0.102814,0.0,0.006414,inferred,Stations_USGS
GMLD,GMLD,26.8747,38.0764,seismic,482.11,6.6,0.63,0.0,0.216563,0.0,20.001,0.0,0.675487,0.0,0.253995,0.0,0.016332,inferred,Stations_USGS
GOMA,GOMA,27.9175,38.7077,seismic,588.6,3.9,0.63,0.0,0.018919,0.0,1.9855,0.0,0.07815,0.0,0.015258,0.0,0.004888,inferred,Stations_USGS
GONE,GONE,27.686,40.0466,seismic,440.14,3.5,0.63,0.0,0.005481,0.0,1.1704,0.0,0.00742,0.0,0.014522,0.0,0.004763,inferred,Stations_USGS
GPA,GPA,30.3167,40.285,seismic,571.34,2.8,0.63,0.0,0.00081,0.0,0.3646,0.0,0.001321,0.0,0.001685,0.0,0.000919,inferred,Stations_USGS
HYBA,HYBA,29.0941,40.878,seismic,600.0,2.6,0.63,0.0,0.001432,0.0,0.2725,0.0,0.002374,0.0,0.003021,0.0,0.001181,inferred,Stations_USGS
KCTX,KCTX,28.3353,40.2626,seismic,492.26,2.8,0.63,0.0,0.002627,0.0,0.3596,0.0,0.003734,0.0,0.004779,0.0,0.001594,inferred,Stations_USGS
KRBG,KRBG,27.2977,40.3932,seismic,399.62,2.9,0.63,0.0,0.002515,0.0,0.4099,0.0,0.004163,0.0,0.005077,0.0,0.001759,inferred,Stations_USGS
KUSD,KUSD,27.2815,37.86,seismic,740.53,4.4,0.63,0.0,0.04584,0.0,3.5259,0.0,0.064108,0.0,0.097646,0.0,0.009498,inferred,Stations_USGS
NAZL,NAZL,28.2922,37.9641,seismic,583.57,3.8,0.63,0.0,0.021578,0.0,1.8054,0.0,0.075739,0.0,0.017816,0.0,0.002823,inferred,Stations_USGS
ORLT,ORLT,28.8914,40.0452,seismic,551.09,3.2,0.63,0.0,0.003159,0.0,0.7077,0.0,0.010447,0.0,0.00543,0.0,0.002355,inferred,Stations_USGS
OSMT,OSMT,29.7,40.601,seismic,875.61,2.8,0.63,0.0,0.00115,0.0,0.397,0.0,0.001682,0.0,0.001867,0.0,0.00187,inferred,Stations_USGS
SHAP,SHAP,29.222,39.0231,seismic,512.59,3.0,0.63,0.0,0.001951,0.0,0.5079,0.0,0.003248,0.0,0.004339,0.0,0.002377,inferred,Stations_USGS
SINB,SINB,28.5392,40.9998,seismic,424.22,3.1,0.63,0.0,0.003001,0.0,0.6145,0.0,0.004517,0.0,0.005673,0.0,0.003072,inferred,Stations_USGS
SMAA,SMAA,28.9805,39.1005,seismic,274.72,4.0,0.63,0.0,0.012138,0.0,2.6379,0.0,0.023325,0.0,0.034224,0.0,0.009501,inferred,Stations_USGS
SOMA,SOMA,27.5341,39.1564,seismic,900.0,3.7,0.63,0.0,0.013581,0.0,1.2674,0.0,0.036765,0.0,0.018861,0.0,0.006303,inferred,Stations_USGS
SUSR,SUSR,28.0835,39.9627,seismic,743.5,3.0,0.63,0.0,0.002502,0.0,0.5028,0.0,0.005904,0.0,0.004914,0.0,0.001315,inferred,Stations_USGS
UKOP,UKOP,26.6322,41.1288,seismic,352.06,3.4,0.63,0.0,0.005381,0.0,1.0098,0.0,0.007074,0.0,0.010394,0.0,0.002959,inferred,Stations_USGS
YENI,YENI,27.2416,39.9364,seismic,383.33,3.4,0.63,0.0,0.006772,0.0,0.7683,0.0,0.016939,0.0,0.013245,0.0,0.001956,inferred,Stations_USGS
YKAV,YKAV,27.2801,37.1246,seismic,600.0,4.5,0.63,0.0,0.018192,0.0,4.1235,0.0,0.044218,0.0,0.030616,0.0,0.006311,inferred,Stations_USGS
YKBL,YKBL,28.6675,40.9908,seismic,418.93,3.4,0.63,0.0,0.003337,0.0,0.6601,0.0,0.004835,0.0,0.008118,0.0,0.005045,inferred,Stations_USGS
YLVH,YLVH,29.3703,40.6953,seismic,600.0,3.8,0.63,0.0,0.00615,0.0,1.6736,0.0,0.009311,0.0,0.014815,0.0,0.014447,inferred,Stations_USGS
MALA,Malamata,21.8726,38.3934,seismic,352.81,3.1,0.63,0.0,0.002041,0.0,0.6541,0.0,0.002211,0.0,0.004664,0.0,0.00217,inferred,Stations_USGS
ROD3,Rodini,21.892,38.3081,seismic,610.48,2.4,0.63,0.0,0.001074,0.0,0.1771,0.0,0.002497,0.0,0.003304,0.0,0.000563,inferred,Stations_USGS
DION,"Dionisos, Attiki, Greece",23.9331,38.0779,seismic,547.58,3.0,0.63,0.0,0.010011,0.0,0.5287,0.0,0.010566,0.0,0.005829,0.0,0.002794,inferred,Stations_USGS
DLFA,"Delfoi, Greece",22.4958,38.4784,seismic,900.0,2.6,0.63,0.0,0.00082,0.0,0.2992,0.0,0.001184,0.0,0.001903,0.0,0.000973,inferred,Stations_USGS
KARP,"NOA/RUB/GEOFON Karpathos,Greece",27.1611,35.5471,seismic,900.0,2.6,0.63,0.0,0.00094,0.0,0.2949,0.0,0.00165,0.0,0.002756,0.0,0.001181,inferred,Stations_USGS
KYMI,"Kymi, Euboea Island",24.1001,38.6331,seismic,703.93,3.0,0.63,0.0,0.001101,0.0,0.422,0.0,0.002006,0.0,0.002305,0.0,0.001491,inferred,Stations_USGS
PATC,"Patra,Greece",21.76,38.2693,seismic,498.44,3.1,0.63,0.0,0.001647,0.0,0.5876,0.0,0.001756,0.0,0.002989,0.0,0.004821,inferred,Stations_USGS
PATG,"Patra,Greece",21.7266,38.2386,seismic,339.62,3.4,0.63,0.0,0.001946,0.0,0.9401,0.0,0.002067,0.0,0.004157,0.0,0.004785,inferred,Stations_USGS
PLG,"Poligiros,Chalkidiki,Greece",23.4444,40.3733,seismic,502.23,null,null,,,,,,,,,,,inferred,Stations_USGS
RDO,"Gratini, Thrace, Greece",25.5355,41.145,seismic,560.66,null,null,0.0,1e-06,null,null,null,,null,,null,,inferred,Stations_USGS
RIOA,"Rio,Greece",21.7912,38.2959,seismic,407.32,3.0,0.63,0.0,0.001011,0.0,0.4954,0.0,0.001241,0.0,0.002872,0.0,0.001751,inferred,Stations_USGS
RODB,"Rodos,Rodos Island,Greece",28.2212,36.4471,seismic,397.04,3.9,0.63,0.0,0.005631,0.0,2.0156,0.0,0.008949,0.0,0.01809,0.0,0.012891,inferred,Stations_USGS
SMTH,"Samothraki Island, Greece",25.5304,40.4709,seismic,900.0,2.3,0.63,0.0,0.000901,0.0,0.17,0.0,0.001782,0.0,0.002308,0.0,0.000658,inferred,Stations_USGS
ALAN,Alanya-ANTALYA,32.0327,36.557,seismic,587.78,2.6,0.63,0.0,0.000989,0.0,0.2378,0.0,0.00212,0.0,0.001931,0.0,0.001472,inferred,Stations_USGS
ALT,ALTINTAS-KUTAHYA,30.1103,39.0552,seismic,488.02,3.4,0.63,0.0,0.001869,0.0,0.9137,0.0,0.002928,0.0,0.003709,0.0,0.003318,inferred,Stations_USGS
AVCI,AVCILAR-ISTANBUL-UNI,28.7225,40.9958,seismic,521.51,4.0,0.63,0.0,0.007649,0.0,2.4992,0.0,0.009297,0.0,0.018887,0.0,0.016475,inferred,Stations_USGS
BASM,Basmakci-Afyon,30.035,37.9194,seismic,394.6,3.6,0.63,0.0,0.005925,0.0,1.3324,0.0,0.007297,0.0,0.024503,0.0,0.004226,inferred,Stations_USGS
BRGA,Burgazada-ISTANBUL,29.0688,40.8799,seismic,600.0,2.5,0.63,0.0,0.001322,0.0,0.2519,0.0,0.002019,0.0,0.00359,0.0,0.000705,inferred,Stations_USGS
DATC,Datca-MUGLA,27.6602,36.7584,seismic,442.4,5.6,0.63,0.0,0.060951,0.0,9.4145,0.0,0.11318,0.0,0.117675,0.0,0.045756,inferred,Stations_USGS
DEMR,Demre ANTALYA,29.9056,36.2365,seismic,880.07,2.9,0.63,0.0,0.001157,0.0,0.418,0.0,0.001212,0.0,0.002219,0.0,0.002061,inferred,Stations_USGS
ESKT,ESKISEHIR,30.8492,39.5212,seismic,486.89,2.1,0.63,0.0,0.000419,0.0,0.0994,0.0,0.000907,0.0,0.000859,0.0,0.000746,inferred,Stations_USGS
FETI,Fethiye-MUGLA,29.0968,36.6903,seismic,353.76,3.8,0.63,0.0,0.006578,0.0,1.7125,0.0,0.009469,0.0,0.011734,0.0,0.006321,inferred,Stations_USGS
GORD,Gordes MANISA,28.1769,38.9088,seismic,519.93,4.9,0.63,0.0,0.044001,0.0,5.7037,0.0,0.07748,0.0,0.077593,0.0,0.014146,inferred,Stations_USGS
HVHR,Havaharbokulu-ISTANBUL,28.6678,40.9908,seismic,418.93,3.3,0.63,0.0,0.005393,0.0,0.8262,0.0,0.007601,0.0,0.005668,0.0,0.002507,inferred,Stations_USGS
IZI,Iznik-BURSA,29.4728,40.3368,seismic,749.31,3.7,0.63,0.0,0.005995,0.0,0.9805,0.0,0.008496,0.0,0.011748,0.0,0.002734,inferred,Stations_USGS
KAVV,Kav Binasi-Kandilli-ISTANBUL,29.0608,41.0628,seismic,472.71,3.1,0.63,0.0,0.00348,0.0,0.4314,0.0,0.009412,0.0,0.004542,0.0,0.002181,inferred,Stations_USGS
KEMT,Kemer-ANTALYA,30.5559,36.6037,seismic,418.46,2.4,0.63,0.0,0.000567,0.0,0.185,0.0,0.001475,0.0,0.001033,0.0,0.001015,inferred,Stations_USGS
KHL,Karahalli-USAK,29.5286,38.3232,seismic,491.91,3.6,0.63,0.0,0.003518,0.0,1.2487,0.0,0.009469,0.0,0.005286,0.0,0.006154,inferred,Stations_USGS
KRBN,Karaburun-IZMIR,26.5537,38.5936,seismic,644.1,7.0,0.63,0.0,0.266877,0.0,20.9633,0.0,0.600593,0.0,0.3463,0.0,0.032014,inferred,Stations_USGS
LAFA,Lafarge-ISTANBUL,29.3554,40.7598,seismic,393.52,2.5,0.63,0.0,0.000871,0.0,0.2265,0.0,0.001684,0.0,0.001383,0.0,0.001143,inferred,Stations_USGS
MNVG,Manavgat-ANTALYA,31.4161,36.7935,seismic,371.73,3.6,0.63,0.0,0.002657,0.0,1.3022,0.0,0.00376,0.0,0.004584,0.0,0.00644,inferred,Stations_USGS
SEYD,Seydisehir-KONYA,31.838,37.4057,seismic,867.7,2.9,0.63,0.0,0.00079,0.0,0.3465,0.0,0.000995,0.0,0.001993,0.0,0.00237,inferred,Stations_USGS
TKR,TEKIRDAG,27.5357,40.9902,seismic,564.09,3.9,0.63,0.0,0.016656,0.0,2.2144,0.0,0.038229,0.0,0.022068,0.0,0.007547,inferred,Stations_USGS
TUZL,Tuzla-ISTANBUL,29.2657,40.8128,seismic,225.68,2.1,0.66,0.0,0.001026,0.0,0.1201,0.0,0.0015,0.0,0.001821,0.0,0.000886,inferred,Stations_USGS
EMSC.UTM:(229000 3933000 35 S),,24.0175,35.5083,macroseismic,286.88,3.7,0.3,,,,,,,,,,,inferred,Stations_USGS
EMSC.UTM:(229000 3934000 35 S),,24.0172,35.5173,macroseismic,290.57,3.4,0.3,,,,,,,,,,,inferred,Stations_USGS
EMSC.UTM:(230000 3932000 35 S),,24.0289,35.4995,macroseismic,330.36,3.5,0.3,,,,,,,,,,,inferred,Stations_USGS
EMSC.UTM:(230000 3933000 35 S),,24.0286,35.5085,macroseismic,386.04,3.6,0.3,,,,,,,,,,,inferred,Stations_USGS
EMSC.UTM:(270000 3916000 35 S),,24.474,35.3654,macroseismic,494.77,3.2,0.3,,,,,,,,,,,inferred,Stations_USGS
EMSC.UTM:(280000 4513000 36 T),,30.4003,40.7432,macroseismic,305.4,2.0,0.3,,,,,,,,,,,inferred,Stations_USGS
EMSC.UTM:(314000 4668000 35 T),,24.755,42.1467,macroseismic,243.84,2.7,0.3,,,,,,,,,,,inferred,Stations_USGS
EMSC.UTM:(324000 3908000 35 S),,25.0697,35.3043,macroseismic,422.48,3.5,0.3,,,,,,,,,,,inferred,Stations_USGS
EMSC.UTM:(328000 3911000 35 S),,25.113,35.332,macroseismic,415.4,3.2,0.3,,,,,,,,,,,inferred,Stations_USGS
EMSC.UTM:(329000 3910000 35 S),,25.1242,35.3232,macroseismic,384.27,3.2,0.3,,,,,,,,,,,inferred,Stations_USGS
EMSC.UTM:(329000 3911000 35 S),,25.124,35.3322,macroseismic,415.4,2.8,0.3,,,,,,,,,,,inferred,Stations_USGS
EMSC.UTM:(329000 3912000 35 S),,25.1238,35.3412,macroseismic,415.4,3.0,0.3,,,,,,,,,,,inferred,Stations_USGS
EMSC.UTM:(330000 3910000 35 S),,25.1352,35.3234,macroseismic,383.45,4.5,0.3,0.8059,0.030754,0.875,4.2016,1.0131,0.046488,1.0822,0.067124,1.4737,0.014626,inferred,Stations_USGS
EMSC.UTM:(330000 3911000 35 S),,25.135,35.3324,macroseismic,412.55,3.9,0.3,,,,,,,,,,,inferred,Stations_USGS
EMSC.UTM:(330000 3912000 35 S),,25.1348,35.3414,macroseismic,412.55,3.3,0.3,,,,,,,,,,,inferred,Stations_USGS
EMSC.UTM:(331000 3909000 35 S),,25.1464,35.3145,macroseismic,388.4,4.1,0.3,0.8059,0.016976,0.875,2.9012,1.0131,0.026956,1.0822,0.048859,1.4737,0.010771,inferred,Stations_USGS
EMSC.UTM:(337000 4156000 35 S),,25.1606,37.5412,macroseismic,374.97,3.7,0.3,,,,,,,,,,,inferred,Stations_USGS
EMSC.UTM:(341000 3910000 35 S),,25.2562,35.3252,macroseismic,600.0,3.6,0.3,,,,,,,,,,,inferred,Stations_USGS
EMSC.UTM:(359000 4031000 35 S),,25.4328,36.4184,macroseismic,578.77,4.5,0.3,0.8059,0.039407,0.875,4.2016,1.0131,0.054547,1.0822,0.062207,1.4737,0.013431,inferred,Stations_USGS
EMSC.UTM:(403000 4579000 34 T),,19.8463,41.3612,macroseismic,760.0,1.7,0.3,,,,,,,,,,,inferred,Stations_USGS
EMSC.UTM:(405000 4522000 35 T),,25.8789,40.8481,macroseismic,301.06,3.2,0.3,,,,,,,,,,,inferred,Stations_USGS
EMSC.UTM:(424000 4246000 35 S),,26.1358,38.3635,macroseismic,421.55,7.1,0.3,0.8059,0.270235,0.875,27.9385,1.0131,0.523417,1.0822,0.406057,1.4737,0.07947,inferred,Stations_USGS
EMSC.UTM:(424000 4247000 35 S),,26.1357,38.3725,macroseismic,421.55,7.8,0.3,0.8059,0.416389,0.875,46.5288,1.0131,0.771219,1.0822,0.709322,1.4737,0.136065,inferred,Stations_USGS
EMSC.UTM:(445000 4237000 35 S),,26.3768,38.2839,macroseismic,337.49,7.4,0.3,0.8059,0.35784,0.875,34.7648,1.0131,0.649824,1.0822,0.486393,1.4737,0.093713,inferred,Stations_USGS
EMSC.UTM:(449000 4444000 35 T),,26.4071,40.1493,macroseismic,277.99,3.7,0.3,,,,,,,,,,,inferred,Stations_USGS
EMSC.UTM:(450000 4445000 35 T),,26.4188,40.1584,macroseismic,234.0,4.2,0.3,0.8059,0.022394,0.875,3.3766,1.0131,0.033107,1.0822,0.051181,1.4737,0.011205,inferred,Stations_USGS
EMSC.UTM:(461000 4328000 35 S),,26.5547,39.1048,macroseismic,553.22,4.6,0.3,0.8059,0.046645,0.875,4.5192,1.0131,0.071688,1.0822,0.063096,1.4737,0.013477,inferred,Stations_USGS
EMSC.UTM:(463000 4325000 35 S),,26.578,39.0778,macroseismic,600.0,3.6,0.3,,,,,,,,,,,inferred,Stations_USGS
EMSC.UTM:(473000 4352000 35 S),,26.6926,39.3215,macroseismic,425.04,3.5,0.3,,,,,,,,,,,inferred,Stations_USGS
EMSC.UTM:(487000 4366000 35 S),,26.8547,39.448,macroseismic,600.0,5.8,0.3,0.8059,0.091588,0.875,10.8345,1.0131,0.220046,1.0822,0.170991,1.4737,0.035461,inferred,Stations_USGS
EMSC.UTM:(490000 4324000 35 S),,26.8902,39.0695,macroseismic,600.0,4.2,0.3,0.8059,0.034621,0.875,3.3766,1.0131,0.041879,1.0822,0.045764,1.4737,0.009795,inferred,Stations_USGS
EMSC.UTM:(498000 4089000 35 S),,26.9832,36.9516,macroseismic,549.8,5.8,0.3,0.8059,0.104666,0.875,10.8345,1.0131,0.236041,1.0822,0.15756,1.4737,0.032354,inferred,Stations_USGS
EMSC.UTM:(500000 4249000 35 S),,27.0057,38.3937,macroseismic,466.35,7.1,0.3,0.8059,0.279298,0.875,27.9385,1.0131,0.532574,1.0822,0.397929,1.4737,0.077689,inferred,Stations_USGS
EMSC.UTM:(501000 4382000 35 S),,27.0175,39.5922,macroseismic,549.31,5.2,0.3,0.8059,0.061424,0.875,6.9974,1.0131,0.143079,1.0822,0.107901,1.4737,0.022814,inferred,Stations_USGS
EMSC.UTM:(504000 4260000 35 S),,27.0516,38.4928,macroseismic,392.74,6.6,0.3,0.8059,0.194421,0.875,19.4077,1.0131,0.392591,1.0822,0.276053,1.4737,0.05489,inferred,Stations_USGS
EMSC.UTM:(506000 4249000 35 S),,27.0744,38.3937,macroseismic,375.79,5.8,0.3,0.8059,0.123194,0.875,10.8345,1.0131,0.257158,1.0822,0.142581,1.4737,0.028927,inferred,Stations_USGS
EMSC.UTM:(506000 4258000 35 S),,27.0745,38.4748,macroseismic,225.01,7.1,0.3,0.8059,0.266745,0.875,27.9385,1.0131,0.519853,1.0822,0.409304,1.4737,0.080183,inferred,Stations_USGS
EMSC.UTM:(506000 4259000 35 S),,27.0745,38.4838,macroseismic,277.28,7.1,0.3,0.8059,0.265728,0.875,27.9385,1.0131,0.51881,1.0822,0.410264,1.4737,0.080393,inferred,Stations_USGS
EMSC.UTM:(507000 4072000 35 S),,27.0841,36.7983,macroseismic,351.85,4.3,0.3,0.8059,0.039412,0.875,3.6318,1.0131,0.048764,1.0822,0.049171,1.4737,0.01058,inferred,Stations_USGS
EMSC.UTM:(507000 4249000 35 S),,27.0859,38.3937,macroseismic,600.0,7.7,0.3,0.8059,0.401154,0.875,43.2589,1.0131,0.739131,1.0822,0.645234,1.4737,0.123902,inferred,Stations_USGS
EMSC.UTM:(507000 4257000 35 S),,27.086,38.4658,macroseismic,232.86,6.7,0.3,0.8059,0.208469,0.875,20.8747,1.0131,0.416693,1.0822,0.297488,1.4737,0.058948,inferred,Stations_USGS
EMSC.UTM:(507000 4258000 35 S),,27.086,38.4748,macroseismic,232.86,7.1,0.3,0.8059,0.266373,0.875,27.9385,1.0131,0.519471,1.0822,0.409655,1.4737,0.08026,inferred,Stations_USGS
EMSC.UTM:(508000 4249000 35 S),,27.0973,38.3937,macroseismic,553.31,6.8,0.3,0.8059,0.228697,0.875,22.4526,1.0131,0.447616,1.0822,0.316131,1.4737,0.06232,inferred,Stations_USGS
EMSC.UTM:(508000 4250000 35 S),,27.0973,38.4027,macroseismic,553.31,7.1,0.3,0.8059,0.274505,0.875,27.9385,1.0131,0.527749,1.0822,0.402174,1.4737,0.078619,inferred,Stations_USGS
EMSC.UTM:(508000 4256000 35 S),,27.0974,38.4568,macroseismic,600.0,7.1,0.3,0.8059,0.268023,0.875,27.9385,1.0131,0.52116,1.0822,0.408108,1.4737,0.07992,inferred,Stations_USGS
EMSC.UTM:(508000 4257000 35 S),,27.0974,38.4658,macroseismic,256.39,6.9,0.3,0.8059,0.235753,0.875,24.1497,1.0131,0.46536,1.0822,0.349002,1.4737,0.068763,inferred,Stations_USGS
EMSC.UTM:(508000 4258000 35 S),,27.0974,38.4748,macroseismic,256.39,6.8,0.3,0.8059,0.220692,0.875,22.4526,1.0131,0.439309,1.0822,0.323111,1.4737,0.063864,inferred,Stations_USGS
EMSC.UTM:(509000 4250000 35 S),,27.1088,38.4027,macroseismic,501.3,5.8,0.3,0.8059,0.122007,0.875,10.8345,1.0131,0.255852,1.0822,0.143429,1.4737,0.02912,inferred,Stations_USGS
EMSC.UTM:(509000 4255000 35 S),,27.1089,38.4477,macroseismic,600.0,7.9,0.3,0.8059,0.441957,0.875,50.0457,1.0131,0.814197,1.0822,0.769181,1.4737,0.147148,inferred,Stations_USGS
EMSC.UTM:(509000 4256000 35 S),,27.1089,38.4567,macroseismic,600.0,6.9,0.3,0.8059,0.236293,0.875,24.1497,1.0131,0.46592,1.0822,0.348513,1.4737,0.068655,inferred,Stations_USGS
EMSC.UTM:(509000 4257000 35 S),,27.1089,38.4658,macroseismic,284.28,7.3,0.3,0.8059,0.301924,0.875,32.3217,1.0131,0.58084,1.0822,0.479918,1.4737,0.093476,inferred,Stations_USGS
EMSC.UTM:(510000 4256000 35 S),,27.1203,38.4567,macroseismic,600.0,6.9,0.3,0.8059,0.235912,0.875,24.1497,1.0131,0.465525,1.0822,0.348857,1.4737,0.068731,inferred,Stations_USGS
EMSC.UTM:(510000 4257000 35 S),,27.1204,38.4658,macroseismic,284.28,6.8,0.3,0.8059,0.220839,0.875,22.4526,1.0131,0.439463,1.0822,0.322979,1.4737,0.063835,inferred,Stations_USGS
EMSC.UTM:(510000 4258000 35 S),,27.1204,38.4748,macroseismic,284.28,7.3,0.3,0.8059,0.300334,0.875,32.3217,1.0131,0.57923,1.0822,0.481474,1.4737,0.093816,inferred,Stations_USGS
EMSC.UTM:(511000 4240000 35 S),,27.1315,38.3125,macroseismic,419.01,7.8,0.3,0.8059,0.439723,0.875,46.5288,1.0131,0.793646,1.0822,0.686009,1.4737,0.131062,inferred,Stations_USGS
EMSC.UTM:(511000 4247000 35 S),,27.1317,38.3756,macroseismic,402.83,6.6,0.3,0.8059,0.202362,0.875,19.4077,1.0131,0.400942,1.0822,0.269362,1.4737,0.053401,inferred,Stations_USGS
EMSC.UTM:(511000 4249000 35 S),,27.1317,38.3936,macroseismic,429.39,8.4,0.3,0.8059,0.615366,0.875,72.0435,1.0131,1.086509,1.0822,1.130213,1.4737,0.212788,inferred,Stations_USGS
EMSC.UTM:(511000 4257000 35 S),,27.1318,38.4657,macroseismic,448.22,null,null,,,,,,,,,,,inferred,Stations_USGS
EMSC.UTM:(511000 4260000 35 S),,27.1319,38.4928,macroseismic,521.29,5.4,0.3,0.8059,0.091258,0.875,8.0952,1.0131,0.200404,1.0822,0.107088,1.4737,0.022063,inferred,Stations_USGS
EMSC.UTM:(512000 4070000 35 S),,27.1401,36.7802,macroseismic,460.7,4.9,0.3,0.8059,0.056879,0.875,5.6234,1.0131,0.109517,1.0822,0.079496,1.4737,0.016818,inferred,Stations_USGS
EMSC.UTM:(512000 4243000 35 S),,27.143,38.3396,macroseismic,422.28,6.2,0.3,0.8059,0.159999,0.875,14.5008,1.0131,0.323346,1.0822,0.194388,1.4737,0.038947,inferred,Stations_USGS
EMSC.UTM:(512000 4251000 35 S),,27.1432,38.4117,macroseismic,495.85,6.8,0.3,0.8059,0.225118,0.875,22.4526,1.0131,0.443919,1.0822,0.319203,1.4737,0.062999,inferred,Stations_USGS
EMSC.UTM:(512000 4253000 35 S),,27.1432,38.4297,macroseismic,249.31,7.6,0.3,0.8059,0.367553,0.875,40.2189,1.0131,0.689926,1.0822,0.605278,1.4737,0.116785,inferred,Stations_USGS
EMSC.UTM:(512000 4254000 35 S),,27.1432,38.4387,macroseismic,249.31,7.2,0.3,0.8059,0.285484,0.875,30.0503,1.0131,0.551223,1.0822,0.441594,1.4737,0.086222,inferred,Stations_USGS
EMSC.UTM:(514000 4249000 35 S),,27.166,38.3936,macroseismic,479.52,5.6,0.3,0.8059,0.107058,0.875,9.3652,1.0131,0.228168,1.0822,0.122838,1.4737,0.025096,inferred,Stations_USGS
EMSC.UTM:(514000 4257000 35 S),,27.1662,38.4657,macroseismic,564.19,6.8,0.3,0.8059,0.219367,0.875,22.4526,1.0131,0.43792,1.0822,0.324306,1.4737,0.064129,inferred,Stations_USGS
EMSC.UTM:(516000 4256000 35 S),,27.1891,38.4566,macroseismic,261.17,7.1,0.3,0.8059,0.264369,0.875,27.9385,1.0131,0.517413,1.0822,0.411556,1.4737,0.080677,inferred,Stations_USGS
EMSC.UTM:(517000 4256000 35 S),,27.2006,38.4566,macroseismic,268.8,8.2,0.3,0.8059,0.523215,0.875,62.2736,1.0131,0.953021,1.0822,0.986839,1.4737,0.187399,inferred,Stations_USGS
EMSC.UTM:(519000 4257000 35 S),,27.2235,38.4656,macroseismic,485.39,5.2,0.3,0.8059,0.080304,0.875,6.9974,1.0131,0.178985,1.0822,0.091555,1.4737,0.018978,inferred,Stations_USGS
EMSC.UTM:(521000 4189000 35 S),,27.2444,37.8527,macroseismic,441.02,5.5,0.3,0.8059,0.112865,0.875,8.7071,1.0131,0.229282,1.0822,0.105736,1.4737,0.021481,inferred,Stations_USGS
EMSC.UTM:(522000 4136000 35 S),,27.2541,37.375,macroseismic,341.8,6.4,0.3,0.8059,0.169566,0.875,16.7758,1.0131,0.348996,1.0822,0.237304,1.4737,0.047503,inferred,Stations_USGS
EMSC.UTM:(522000 4189000 35 S),,27.2558,37.8527,macroseismic,441.02,7.9,0.3,0.8059,0.499495,0.875,50.0457,1.0131,0.868305,1.0822,0.713595,1.4737,0.135283,inferred,Stations_USGS
EMSC.UTM:(522000 4190000 35 S),,27.2558,37.8617,macroseismic,600.0,7.9,0.3,0.8059,0.500162,0.875,50.0457,1.0131,0.868914,1.0822,0.713012,1.4737,0.135159,inferred,Stations_USGS
EMSC.UTM:(523000 4094000 35 S),,27.2641,36.9963,macroseismic,678.4,4.5,0.3,0.8059,0.046417,0.875,4.2016,1.0131,0.06735,1.0822,0.056268,1.4737,0.012002,inferred,Stations_USGS
EMSC.UTM:(523000 4096000 35 S),,27.2642,37.0144,macroseismic,386.31,4.5,0.3,0.8059,0.046636,0.875,4.2016,1.0131,0.067759,1.0822,0.056105,1.4737,0.011963,inferred,Stations_USGS
EMSC.UTM:(523000 4190000 35 S),,27.2672,37.8617,macroseismic,535.77,5.8,0.3,0.8059,0.134551,0.875,10.8345,1.0131,0.269361,1.0822,0.135079,1.4737,0.027227,inferred,Stations_USGS
EMSC.UTM:(524000 4082000 35 S),,27.275,36.8882,macroseismic,483.69,5.5,0.3,0.8059,0.084122,0.875,8.7071,1.0131,0.196454,1.0822,0.126609,1.4737,0.026288,inferred,Stations_USGS
EMSC.UTM:(524000 4083000 35 S),,27.275,36.8972,macroseismic,289.43,4.5,0.3,0.8059,0.045245,0.875,4.2016,1.0131,0.065168,1.0822,0.057156,1.4737,0.012215,inferred,Stations_USGS
EMSC.UTM:(524000 4095000 35 S),,27.2754,37.0053,macroseismic,711.71,4.5,0.3,0.8059,0.04648,0.875,4.2016,1.0131,0.067468,1.0822,0.056221,1.4737,0.011991,inferred,Stations_USGS
EMSC.UTM:(525000 4082000 35 S),,27.2862,36.8881,macroseismic,398.59,3.6,0.3,,,,,,,,,,,inferred,Stations_USGS
EMSC.UTM:(525000 4083000 35 S),,27.2862,36.8971,macroseismic,274.32,4.8,0.3,0.8059,0.054487,0.875,5.2282,1.0131,0.097969,1.0822,0.072566,1.4737,0.015374,inferred,Stations_USGS
EMSC.UTM:(525000 4091000 35 S),,27.2865,36.9693,macroseismic,476.42,4.1,0.3,0.8059,0.033051,0.875,2.9012,1.0131,0.038615,1.0822,0.037166,1.4737,0.00746,inferred,Stations_USGS
EMSC.UTM:(525000 4106000 35 S),,27.287,37.1045,macroseismic,481.82,null,null,,,,,,,,,,,inferred,Stations_USGS
EMSC.UTM:(526000 4081000 35 S),,27.2974,36.8791,macroseismic,372.04,5.4,0.3,0.8059,0.078751,0.875,8.0952,1.0131,0.18546,1.0822,0.117214,1.4737,0.024414,inferred,Stations_USGS
EMSC.UTM:(526000 4082000 35 S),,27.2974,36.8881,macroseismic,372.04,4.1,0.3,0.8059,0.031465,0.875,2.9012,1.0131,0.037604,1.0822,0.038078,1.4737,0.007736,inferred,Stations_USGS
EMSC.UTM:(526000 4106000 35 S),,27.2982,37.1044,macroseismic,448.83,5.0,0.3,0.8059,0.064995,0.875,6.0485,1.0131,0.137546,1.0822,0.082393,1.4737,0.017289,inferred,Stations_USGS
EMSC.UTM:(527000 4092000 35 S),,27.309,36.9782,macroseismic,519.02,4.1,0.3,0.8059,0.033076,0.875,2.9012,1.0131,0.038631,1.0822,0.037152,1.4737,0.007456,inferred,Stations_USGS
EMSC.UTM:(530000 4100000 35 S),,27.343,37.0502,macroseismic,494.97,3.6,0.3,,,,,,,,,,,inferred,Stations_USGS
EMSC.UTM:(530000 4109000 35 S),,27.3434,37.1314,macroseismic,513.97,3.6,0.3,,,,,,,,,,,inferred,Stations_USGS
EMSC.UTM:(531000 4101000 35 S),,27.3543,37.0592,macroseismic,892.04,3.9,0.3,,,,,,,,,,,inferred,Stations_USGS
EMSC.UTM:(533000 4098000 35 S),,27.3767,37.0321,macroseismic,255.21,4.9,0.3,0.8059,0.059444,0.875,5.6234,1.0131,0.115918,1.0822,0.077376,1.4737,0.016316,inferred,Stations_USGS
EMSC.UTM:(533000 4099000 35 S),,27.3767,37.0411,macroseismic,255.21,4.8,0.3,0.8059,0.055981,0.875,5.2282,1.0131,0.101442,1.0822,0.071373,1.4737,0.015091,inferred,Stations_USGS
EMSC.UTM:(534000 4100000 35 S),,27.388,37.0501,macroseismic,523.64,4.5,0.3,0.8059,0.046494,0.875,4.2016,1.0131,0.067494,1.0822,0.05621,1.4737,0.011988,inferred,Stations_USGS
EMSC.UTM:(534000 4552000 35 T),,27.411,41.1231,macroseismic,324.8,4.1,0.3,0.8059,0.016976,0.875,2.9012,1.0131,0.026956,1.0822,0.048859,1.4737,0.010771,inferred,Stations_USGS
EMSC.UTM:(535000 4098000 35 S),,27.3991,37.032,macroseismic,397.23,3.2,0.3,,,,,,,,,,,inferred,Stations_USGS
EMSC.UTM:(535000 4099000 35 S),,27.3992,37.041,macroseismic,397.23,2.6,0.3,,,,,,,,,,,inferred,Stations_USGS
EMSC.UTM:(535000 4100000 35 S),,27.3992,37.0501,macroseismic,527.22,3.2,0.3,,,,,,,,,,,inferred,Stations_USGS
EMSC.UTM:(535000 4101000 35 S),,27.3993,37.0591,macroseismic,755.27,3.6,0.3,,,,,,,,,,,inferred,Stations_USGS
EMSC.UTM:(536000 4099000 35 S),,27.4104,37.041,macroseismic,395.76,3.9,0.3,,,,,,,,,,,inferred,Stations_USGS
EMSC.UTM:(536000 4179000 35 S),,27.4144,37.7621,macroseismic,547.14,6.8,0.3,0.8059,0.230656,0.875,22.4526,1.0131,0.449627,1.0822,0.314483,1.4737,0.061956,inferred,Stations_USGS
EMSC.UTM:(537000 4274000 35 S),,27.4308,38.6182,macroseismic,514.23,6.0,0.3,0.8059,0.121977,0.875,12.5343,1.0131,0.267809,1.0822,0.181468,1.4737,0.036969,inferred,Stations_USGS
EMSC.UTM:(538000 4098000 35 S),,27.4329,37.0319,macroseismic,600.0,3.2,0.3,,,,,,,,,,,inferred,Stations_USGS
EMSC.UTM:(538000 4099000 35 S),,27.4329,37.0409,macroseismic,600.0,3.1,0.3,,,,,,,,,,,inferred,Stations_USGS
EMSC.UTM:(538000 4706000 35 T),,27.4686,42.5099,macroseismic,760.0,3.6,0.3,,,,,,,,,,,inferred,Stations_USGS
EMSC.UTM:(539000 4098000 35 S),,27.4441,37.0319,macroseismic,895.85,3.9,0.3,,,,,,,,,,,inferred,Stations_USGS
EMSC.UTM:(543000 4102000 35 S),,27.4893,37.0677,macroseismic,882.32,3.5,0.3,,,,,,,,,,,inferred,Stations_USGS
EMSC.UTM:(546000 4537000 35 T),,27.5528,40.9874,macroseismic,516.73,3.5,0.3,,,,,,,,,,,inferred,Stations_USGS
EMSC.UTM:(555000 4440000 35 T),,27.6513,40.113,macroseismic,241.61,4.5,0.3,0.8059,0.034431,0.875,4.2016,1.0131,0.049409,1.0822,0.065206,1.4737,0.014158,inferred,Stations_USGS
EMSC.UTM:(563000 4232000 34 S),,21.7256,38.2383,macroseismic,339.62,2.9,0.3,,,,,,,,,,,inferred,Stations_USGS
EMSC.UTM:(564000 4215000 35 S),,27.7355,38.085,macroseismic,700.23,null,null,,,,,,,,,,,inferred,Stations_USGS
EMSC.UTM:(564000 4233000 34 S),,21.7371,38.2472,macroseismic,399.64,3.2,0.3,,,,,,,,,,,inferred,Stations_USGS
EMSC.UTM:(568000 4555000 35 T),,27.8163,41.1479,macroseismic,411.64,3.7,0.3,,,,,,,,,,,inferred,Stations_USGS
EMSC.UTM:(573000 4188000 35 S),,27.8353,37.841,macroseismic,277.29,5.9,0.3,0.8059,0.115894,0.875,11.6535,1.0131,0.254801,1.0822,0.166482,1.4737,0.033987,inferred,Stations_USGS
EMSC.UTM:(575000 4388000 35 S),,27.8799,39.643,macroseismic,382.91,2.8,0.3,,,,,,,,,,,inferred,Stations_USGS
EMSC.UTM:(576000 4387000 35 S),,27.8915,39.6339,macroseismic,439.81,5.2,0.3,0.8059,0.059314,0.875,6.9974,1.0131,0.13678,1.0822,0.110238,1.4737,0.023368,inferred,Stations_USGS
EMSC.UTM:(582000 4003000 35 S),,27.9174,36.1728,macroseismic,487.76,2.9,0.3,,,,,,,,,,,inferred,Stations_USGS
EMSC.UTM:(587000 4377000 35 S),,28.0183,39.5427,macroseismic,494.97,4.0,0.3,0.8059,0.018681,0.875,2.4806,1.0131,0.026836,1.0822,0.039291,1.4737,0.008374,inferred,Stations_USGS
EMSC.UTM:(600000 4030000 35 S),,28.121,36.4144,macroseismic,289.84,3.6,0.3,,,,,,,,,,,inferred,Stations_USGS
EMSC.UTM:(603000 4030000 35 S),,28.1544,36.4141,macroseismic,335.09,4.1,0.3,0.8059,0.022202,0.875,2.9012,1.0131,0.031155,1.0822,0.045606,1.4737,0.00997,inferred,Stations_USGS
EMSC.UTM:(609000 4032000 35 S),,28.2216,36.4315,macroseismic,368.35,3.7,0.3,,,,,,,,,,,inferred,Stations_USGS
EMSC.UTM:(609000 4033000 35 S),,28.2217,36.4405,macroseismic,368.35,3.3,0.3,,,,,,,,,,,inferred,Stations_USGS
EMSC.UTM:(609000 4034000 35 S),,28.2219,36.4495,macroseismic,397.04,3.2,0.3,,,,,,,,,,,inferred,Stations_USGS
EMSC.UTM:(612000 4113000 35 S),,28.267,37.1611,macroseismic,695.9,3.2,0.3,,,,,,,,,,,inferred,Stations_USGS
EMSC.UTM:(616000 4197000 35 S),,28.3254,37.9176,macroseismic,335.83,4.1,0.3,0.8059,0.029116,0.875,2.9012,1.0131,0.036063,1.0822,0.039563,1.4737,0.008194,inferred,Stations_USGS
EMSC.UTM:(620000 4119000 35 S),,28.3581,37.2142,macroseismic,571.91,4.1,0.3,0.8059,0.026274,0.875,2.9012,1.0131,0.034119,1.0822,0.041619,1.4737,0.008841,inferred,Stations_USGS
EMSC.UTM:(636000 4539000 35 T),,28.6229,40.9953,macroseismic,492.94,2.5,0.3,,,,,,,,,,,inferred,Stations_USGS
EMSC.UTM:(636000 4540000 35 T),,28.6231,41.0043,macroseismic,492.94,3.4,0.3,,,,,,,,,,,inferred,Stations_USGS
EMSC.UTM:(636000 4541000 35 T),,28.6233,41.0133,macroseismic,593.78,3.4,0.3,,,,,,,,,,,inferred,Stations_USGS
EMSC.UTM:(637000 4539000 35 T),,28.6348,40.9951,macroseismic,406.0,2.1,0.3,,,,,,,,,,,inferred,Stations_USGS
EMSC.UTM:(637000 4540000 35 T),,28.635,41.0041,macroseismic,406.0,3.5,0.3,,,,,,,,,,,inferred,Stations_USGS
EMSC.UTM:(637000 4541000 35 T),,28.6352,41.0131,macroseismic,263.62,3.5,0.3,,,,,,,,,,,inferred,Stations_USGS
EMSC.UTM:(638000 4538000 35 T),,28.6464,40.9859,macroseismic,439.91,2.5,0.3,,,,,,,,,,,inferred,Stations_USGS
EMSC.UTM:(638000 4540000 35 T),,28.6469,41.0039,macroseismic,419.96,3.4,0.3,,,,,,,,,,,inferred,Stations_USGS
EMSC.UTM:(638000 4541000 35 T),,28.6471,41.0129,macroseismic,493.28,3.2,0.3,,,,,,,,,,,inferred,Stations_USGS
EMSC.UTM:(638000 4542000 35 T),,28.6473,41.0219,macroseismic,493.28,3.5,0.3,,,,,,,,,,,inferred,Stations_USGS
EMSC.UTM:(639000 4540000 35 T),,28.6588,41.0038,macroseismic,538.34,4.3,0.3,0.8059,0.022849,0.875,3.6318,1.0131,0.0354,1.0822,0.057268,1.4737,0.012551,inferred,Stations_USGS
EMSC.UTM:(639000 4541000 35 T),,28.659,41.0128,macroseismic,527.22,4.1,0.3,0.8059,0.016976,0.875,2.9012,1.0131,0.026956,1.0822,0.048859,1.4737,0.010771,inferred,Stations_USGS
EMSC.UTM:(639000 4542000 35 T),,28.6592,41.0218,macroseismic,527.22,3.8,0.3,,,,,,,,,,,inferred,Stations_USGS
EMSC.UTM:(639000 4544000 35 T),,28.6597,41.0398,macroseismic,451.98,3.2,0.3,,,,,,,,,,,inferred,Stations_USGS
EMSC.UTM:(639000 4548000 35 T),,28.6606,41.0758,macroseismic,553.18,3.3,0.3,,,,,,,,,,,inferred,Stations_USGS
EMSC.UTM:(640000 4538000 35 T),,28.6702,40.9856,macroseismic,418.93,3.2,0.3,,,,,,,,,,,inferred,Stations_USGS
EMSC.UTM:(640000 4539000 35 T),,28.6704,40.9946,macroseismic,538.34,4.1,0.3,0.8059,0.016976,0.875,2.9012,1.0131,0.026956,1.0822,0.048859,1.4737,0.010771,inferred,Stations_USGS
EMSC.UTM:(640000 4541000 35 T),,28.6709,41.0126,macroseismic,527.22,3.2,0.3,,,,,,,,,,,inferred,Stations_USGS
EMSC.UTM:(640000 4546000 35 T),,28.672,41.0576,macroseismic,390.07,3.9,0.3,,,,,,,,,,,inferred,Stations_USGS
EMSC.UTM:(640000 4547000 35 T),,28.6723,41.0666,macroseismic,239.17,3.2,0.3,,,,,,,,,,,inferred,Stations_USGS
EMSC.UTM:(641000 4540000 35 T),,28.6825,41.0034,macroseismic,366.16,4.5,0.3,0.8059,0.030754,0.875,4.2016,1.0131,0.046488,1.0822,0.067124,1.4737,0.014626,inferred,Stations_USGS
EMSC.UTM:(641000 4541000 35 T),,28.6828,41.0124,macroseismic,537.94,3.2,0.3,,,,,,,,,,,inferred,Stations_USGS
EMSC.UTM:(641000 4542000 35 T),,28.683,41.0214,macroseismic,537.94,3.6,0.3,,,,,,,,,,,inferred,Stations_USGS
EMSC.UTM:(641000 4543000 35 T),,28.6832,41.0304,macroseismic,353.67,4.2,0.3,0.8059,0.019695,0.875,3.3766,1.0131,0.030891,1.0822,0.052897,1.4737,0.011627,inferred,Stations_USGS
EMSC.UTM:(641000 4547000 35 T),,28.6841,41.0664,macroseismic,524.34,3.5,0.3,,,,,,,,,,,inferred,Stations_USGS
EMSC.UTM:(644000 4537000 35 T),,28.7175,40.9759,macroseismic,460.35,2.8,0.3,,,,,,,,,,,inferred,Stations_USGS
EMSC.UTM:(644000 4538000 35 T),,28.7177,40.9849,macroseismic,460.35,3.3,0.3,,,,,,,,,,,inferred,Stations_USGS
EMSC.UTM:(644000 4539000 35 T),,28.718,40.9939,macroseismic,521.51,3.2,0.3,,,,,,,,,,,inferred,Stations_USGS
EMSC.UTM:(644000 4546000 35 T),,28.7196,41.0569,macroseismic,385.9,3.6,0.3,,,,,,,,,,,inferred,Stations_USGS
EMSC.UTM:(645000 4537000 35 T),,28.7294,40.9757,macroseismic,490.34,3.0,0.3,,,,,,,,,,,inferred,Stations_USGS
EMSC.UTM:(646000 4077000 35 S),,28.6428,36.832,macroseismic,241.52,4.5,0.3,0.8059,0.03904,0.875,4.2016,1.0131,0.053893,1.0822,0.062565,1.4737,0.013517,inferred,Stations_USGS
EMSC.UTM:(646000 4537000 35 T),,28.7413,40.9755,macroseismic,490.34,3.3,0.3,,,,,,,,,,,inferred,Stations_USGS
EMSC.UTM:(646000 4538000 35 T),,28.7415,40.9845,macroseismic,490.34,3.2,0.3,,,,,,,,,,,inferred,Stations_USGS
EMSC.UTM:(648000 4544000 35 T),,28.7667,41.0382,macroseismic,345.49,3.0,0.3,,,,,,,,,,,inferred,Stations_USGS
EMSC.UTM:(649000 4540000 35 T),,28.7776,41.002,macroseismic,386.3,2.8,0.3,,,,,,,,,,,inferred,Stations_USGS
EMSC.UTM:(652000 4540000 35 T),,28.8133,41.0014,macroseismic,226.69,4.5,0.3,0.8059,0.030754,0.875,4.2016,1.0131,0.046488,1.0822,0.067124,1.4737,0.014626,inferred,Stations_USGS
EMSC.UTM:(653000 4208000 34 S),,22.7485,38.0112,macroseismic,600.0,4.1,0.3,0.8059,0.016976,0.875,2.9012,1.0131,0.026956,1.0822,0.048859,1.4737,0.010771,inferred,Stations_USGS
EMSC.UTM:(653000 4539000 35 T),,28.8249,40.9922,macroseismic,226.69,2.8,0.3,,,,,,,,,,,inferred,Stations_USGS
EMSC.UTM:(653000 4543000 35 T),,28.8259,41.0283,macroseismic,379.99,2.8,0.3,,,,,,,,,,,inferred,Stations_USGS
EMSC.UTM:(655000 4539000 35 T),,28.8487,40.9919,macroseismic,381.52,3.1,0.3,,,,,,,,,,,inferred,Stations_USGS
EMSC.UTM:(655000 4540000 35 T),,28.8489,41.0009,macroseismic,381.52,4.1,0.3,0.8059,0.016976,0.875,2.9012,1.0131,0.026956,1.0822,0.048859,1.4737,0.010771,inferred,Stations_USGS
EMSC.UTM:(656000 4540000 35 T),,28.8608,41.0007,macroseismic,375.84,2.8,0.3,,,,,,,,,,,inferred,Stations_USGS
EMSC.UTM:(656000 4544000 35 T),,28.8618,41.0367,macroseismic,373.09,3.2,0.3,,,,,,,,,,,inferred,Stations_USGS
EMSC.UTM:(657000 4537000 35 T),,28.8719,40.9735,macroseismic,245.73,3.6,0.3,,,,,,,,,,,inferred,Stations_USGS
EMSC.UTM:(657000 4538000 35 T),,28.8722,40.9825,macroseismic,375.73,3.2,0.3,,,,,,,,,,,inferred,Stations_USGS
EMSC.UTM:(657000 4539000 35 T),,28.8724,40.9915,macroseismic,375.73,3.2,0.3,,,,,,,,,,,inferred,Stations_USGS
EMSC.UTM:(657000 4543000 35 T),,28.8735,41.0275,macroseismic,373.09,2.8,0.3,,,,,,,,,,,inferred,Stations_USGS
EMSC.UTM:(657000 4546000 35 T),,28.8742,41.0545,macroseismic,296.9,4.1,0.3,0.8059,0.016976,0.875,2.9012,1.0131,0.026956,1.0822,0.048859,1.4737,0.010771,inferred,Stations_USGS
EMSC.UTM:(658000 4560000 35 T),,28.8897,41.1804,macroseismic,372.79,3.0,0.3,,,,,,,,,,,inferred,Stations_USGS
EMSC.UTM:(659000 4159000 34 S),,22.8061,37.5687,macroseismic,373.07,3.2,0.3,,,,,,,,,,,inferred,Stations_USGS
EMSC.UTM:(659000 4541000 35 T),,28.8967,41.0091,macroseismic,291.39,3.6,0.3,,,,,,,,,,,inferred,Stations_USGS
EMSC.UTM:(659000 4544000 35 T),,28.8975,41.0361,macroseismic,331.01,2.7,0.3,,,,,,,,,,,inferred,Stations_USGS
EMSC.UTM:(660000 4539000 35 T),,28.9081,40.9909,macroseismic,352.85,2.5,0.3,,,,,,,,,,,inferred,Stations_USGS
EMSC.UTM:(660000 4542000 35 T),,28.9089,41.0179,macroseismic,371.78,3.5,0.3,,,,,,,,,,,inferred,Stations_USGS
EMSC.UTM:(661000 4070000 35 S),,28.8095,36.7665,macroseismic,234.84,4.2,0.3,0.8059,0.024598,0.875,3.3766,1.0131,0.034827,1.0822,0.049962,1.4737,0.010906,inferred,Stations_USGS
EMSC.UTM:(662000 4542000 35 T),,28.9326,41.0175,macroseismic,296.55,2.7,0.3,,,,,,,,,,,inferred,Stations_USGS
EMSC.UTM:(663000 4541000 35 T),,28.9443,41.0083,macroseismic,297.59,2.4,0.3,,,,,,,,,,,inferred,Stations_USGS
EMSC.UTM:(665000 4541000 35 T),,28.968,41.0079,macroseismic,374.05,3.2,0.3,,,,,,,,,,,inferred,Stations_USGS
EMSC.UTM:(666000 4544000 35 T),,28.9807,41.0347,macroseismic,460.68,2.0,0.3,,,,,,,,,,,inferred,Stations_USGS
EMSC.UTM:(666000 4545000 35 T),,28.981,41.0437,macroseismic,372.76,2.1,0.3,,,,,,,,,,,inferred,Stations_USGS
EMSC.UTM:(666000 4546000 35 T),,28.9813,41.0527,macroseismic,372.76,2.0,0.3,,,,,,,,,,,inferred,Stations_USGS
EMSC.UTM:(666000 4548000 35 T),,28.9818,41.0707,macroseismic,332.31,3.2,0.3,,,,,,,,,,,inferred,Stations_USGS
EMSC.UTM:(667000 4453000 35 T),,28.9684,40.2152,macroseismic,438.87,3.5,0.3,,,,,,,,,,,inferred,Stations_USGS
EMSC.UTM:(667000 4546000 35 T),,28.9932,41.0525,macroseismic,461.98,2.7,0.3,,,,,,,,,,,inferred,Stations_USGS
EMSC.UTM:(667000 4547000 35 T),,28.9934,41.0615,macroseismic,292.53,2.4,0.3,,,,,,,,,,,inferred,Stations_USGS
EMSC.UTM:(668000 4547000 35 T),,29.0053,41.0613,macroseismic,292.53,2.4,0.3,,,,,,,,,,,inferred,Stations_USGS
EMSC.UTM:(669000 4200000 34 S),,22.9288,37.9363,macroseismic,383.69,3.2,0.3,,,,,,,,,,,inferred,Stations_USGS
EMSC.UTM:(672000 4541000 35 T),,29.0512,41.0065,macroseismic,403.08,3.4,0.3,,,,,,,,,,,inferred,Stations_USGS
EMSC.UTM:(673000 4069000 35 S),,28.9436,36.7554,macroseismic,597.29,3.9,0.3,,,,,,,,,,,inferred,Stations_USGS
EMSC.UTM:(673000 4204000 34 S),,22.9753,37.9716,macroseismic,440.75,3.2,0.3,,,,,,,,,,,inferred,Stations_USGS
EMSC.UTM:(673000 4537000 35 T),,29.062,40.9702,macroseismic,405.17,2.6,0.3,,,,,,,,,,,inferred,Stations_USGS
EMSC.UTM:(674000 4539000 35 T),,29.0744,40.988,macroseismic,242.61,2.8,0.3,,,,,,,,,,,inferred,Stations_USGS
EMSC.UTM:(674000 4546000 35 T),,29.0764,41.051,macroseismic,398.31,2.2,0.3,,,,,,,,,,,inferred,Stations_USGS
EMSC.UTM:(675000 4451000 35 T),,29.0618,40.1955,macroseismic,430.72,3.2,0.3,,,,,,,,,,,inferred,Stations_USGS
EMSC.UTM:(675000 4536000 35 T),,29.0855,40.9608,macroseismic,409.39,2.4,0.3,,,,,,,,,,,inferred,Stations_USGS
EMSC.UTM:(675000 4537000 35 T),,29.0857,40.9698,macroseismic,409.39,2.8,0.3,,,,,,,,,,,inferred,Stations_USGS
EMSC.UTM:(675000 4538000 35 T),,29.086,40.9788,macroseismic,375.73,3.2,0.3,,,,,,,,,,,inferred,Stations_USGS
EMSC.UTM:(676000 4450000 35 T),,29.0733,40.1863,macroseismic,608.15,3.2,0.3,,,,,,,,,,,inferred,Stations_USGS
EMSC.UTM:(678000 4538000 35 T),,29.1217,40.9782,macroseismic,407.09,1.7,0.3,,,,,,,,,,,inferred,Stations_USGS
EMSC.UTM:(678000 4539000 35 T),,29.122,40.9872,macroseismic,407.09,2.6,0.3,,,,,,,,,,,inferred,Stations_USGS
EMSC.UTM:(679000 4532000 35 T),,29.1318,40.9239,macroseismic,364.79,1.7,0.3,,,,,,,,,,,inferred,Stations_USGS
EMSC.UTM:(681000 4183000 35 S),,29.061,37.7808,macroseismic,421.65,4.5,0.3,0.8059,0.039067,0.875,4.2016,1.0131,0.053941,1.0822,0.062538,1.4737,0.013511,inferred,Stations_USGS
EMSC.UTM:(683000 4540000 35 T),,29.1817,40.9951,macroseismic,334.36,3.2,0.3,,,,,,,,,,,inferred,Stations_USGS
EMSC.UTM:(686000 4537000 35 T),,29.2164,40.9674,macroseismic,406.2,2.0,0.3,,,,,,,,,,,inferred,Stations_USGS
EMSC.UTM:(689000 4055000 35 S),,29.1193,36.6262,macroseismic,600.0,3.7,0.3,,,,,,,,,,,inferred,Stations_USGS
EMSC.UTM:(689000 4058000 35 S),,29.1201,36.6532,macroseismic,600.0,4.1,0.3,0.8059,0.019463,0.875,2.9012,1.0131,0.02902,1.0822,0.047174,1.4737,0.010355,inferred,Stations_USGS
EMSC.UTM:(689000 4059000 35 S),,29.1203,36.6623,macroseismic,329.8,3.0,0.3,,,,,,,,,,,inferred,Stations_USGS
EMSC.UTM:(690000 4500000 35 T),,29.2526,40.6334,macroseismic,433.23,3.2,0.3,,,,,,,,,,,inferred,Stations_USGS
EMSC.UTM:(690000 4502000 35 T),,29.2532,40.6514,macroseismic,408.64,2.9,0.3,,,,,,,,,,,inferred,Stations_USGS
EMSC.UTM:(690000 4729000 34 T),,23.3256,42.6944,macroseismic,760.0,2.4,0.3,,,,,,,,,,,inferred,Stations_USGS
EMSC.UTM:(691000 4502000 35 T),,29.265,40.6512,macroseismic,388.89,3.9,0.3,,,,,,,,,,,inferred,Stations_USGS
EMSC.UTM:(691000 4503000 35 T),,29.2653,40.6602,macroseismic,600.0,2.9,0.3,,,,,,,,,,,inferred,Stations_USGS
EMSC.UTM:(693000 4525000 35 T),,29.2958,40.8577,macroseismic,443.46,2.8,0.3,,,,,,,,,,,inferred,Stations_USGS
EMSC.UTM:(730000 4203000 34 S),,23.6234,37.9499,macroseismic,369.3,2.9,0.3,,,,,,,,,,,inferred,Stations_USGS
EMSC.UTM:(730000 4205000 34 S),,23.624,37.9679,macroseismic,527.29,3.2,0.3,,,,,,,,,,,inferred,Stations_USGS
EMSC.UTM:(731000 4204000 34 S),,23.635,37.9586,macroseismic,424.01,4.8,0.3,0.8059,0.043688,0.875,5.2282,1.0131,0.073714,1.0822,0.083086,1.4737,0.017893,inferred,Stations_USGS
EMSC.UTM:(732000 4202000 34 S),,23.6458,37.9404,macroseismic,371.07,4.4,0.3,0.8059,0.029273,0.875,3.9064,1.0131,0.042797,1.0822,0.060441,1.4737,0.013168,inferred,Stations_USGS
EMSC.UTM:(732000 4205000 34 S),,23.6467,37.9674,macroseismic,421.83,3.6,0.3,,,,,,,,,,,inferred,Stations_USGS
EMSC.UTM:(732000 4210000 34 S),,23.6484,38.0124,macroseismic,558.82,3.2,0.3,,,,,,,,,,,inferred,Stations_USGS
EMSC.UTM:(732000 4211000 34 S),,23.6487,38.0214,macroseismic,558.82,4.1,0.3,0.8059,0.018758,0.875,2.9012,1.0131,0.028447,1.0822,0.047623,1.4737,0.010466,inferred,Stations_USGS
EMSC.UTM:(733000 4202000 34 S),,23.6571,37.9401,macroseismic,371.07,3.3,0.3,,,,,,,,,,,inferred,Stations_USGS
EMSC.UTM:(733000 4203000 34 S),,23.6575,37.9491,macroseismic,279.18,3.6,0.3,,,,,,,,,,,inferred,Stations_USGS
EMSC.UTM:(733000 4204000 34 S),,23.6578,37.9581,macroseismic,279.18,4.1,0.3,0.8059,0.018798,0.875,2.9012,1.0131,0.02848,1.0822,0.047597,1.4737,0.010459,inferred,Stations_USGS
EMSC.UTM:(734000 4203000 34 S),,23.6688,37.9489,macroseismic,257.07,4.8,0.3,0.8059,0.043827,0.875,5.2282,1.0131,0.074014,1.0822,0.082925,1.4737,0.017855,inferred,Stations_USGS
EMSC.UTM:(734000 4204000 34 S),,23.6692,37.9579,macroseismic,257.07,4.9,0.3,0.8059,0.046643,0.875,5.6234,1.0131,0.084823,1.0822,0.089775,1.4737,0.019273,inferred,Stations_USGS
EMSC.UTM:(734000 4211000 34 S),,23.6714,38.0209,macroseismic,462.74,2.8,0.3,,,,,,,,,,,inferred,Stations_USGS
EMSC.UTM:(734000 4552000 35 T),,29.7919,41.09,macroseismic,448.75,3.0,0.3,,,,,,,,,,,inferred,Stations_USGS
EMSC.UTM:(735000 4203000 34 S),,23.6802,37.9486,macroseismic,266.39,4.3,0.3,0.8059,0.025429,0.875,3.6318,1.0131,0.037502,1.0822,0.055717,1.4737,0.012171,inferred,Stations_USGS
EMSC.UTM:(736000 4201000 34 S),,23.6909,37.9303,macroseismic,600.0,4.0,0.3,0.8059,0.016323,0.875,2.4806,1.0131,0.024951,1.0822,0.041995,1.4737,0.009254,inferred,Stations_USGS
EMSC.UTM:(736000 4203000 34 S),,23.6916,37.9483,macroseismic,266.39,3.0,0.3,,,,,,,,,,,inferred,Stations_USGS
EMSC.UTM:(736000 4210000 34 S),,23.6939,38.0114,macroseismic,346.68,2.4,0.3,,,,,,,,,,,inferred,Stations_USGS
EMSC.UTM:(737000 4201000 34 S),,23.7023,37.9301,macroseismic,331.89,3.6,0.3,,,,,,,,,,,inferred,Stations_USGS
EMSC.UTM:(737000 4202000 34 S),,23.7026,37.9391,macroseismic,331.89,3.4,0.3,,,,,,,,,,,inferred,Stations_USGS
EMSC.UTM:(737000 4203000 34 S),,23.7029,37.9481,macroseismic,377.53,4.5,0.3,0.8059,0.034403,0.875,4.2016,1.0131,0.049387,1.0822,0.06522,1.4737,0.014162,inferred,Stations_USGS
EMSC.UTM:(737000 4204000 34 S),,23.7033,37.9571,macroseismic,377.53,4.1,0.3,0.8059,0.018992,0.875,2.9012,1.0131,0.028638,1.0822,0.047472,1.4737,0.010428,inferred,Stations_USGS
EMSC.UTM:(737000 4205000 34 S),,23.7036,37.9661,macroseismic,345.82,4.5,0.3,0.8059,0.03441,0.875,4.2016,1.0131,0.049392,1.0822,0.065216,1.4737,0.014161,inferred,Stations_USGS
EMSC.UTM:(737000 4206000 34 S),,23.7039,37.9751,macroseismic,293.76,2.4,0.3,,,,,,,,,,,inferred,Stations_USGS
EMSC.UTM:(737000 4208000 34 S),,23.7046,37.9931,macroseismic,281.15,3.2,0.3,,,,,,,,,,,inferred,Stations_USGS
EMSC.UTM:(737000 4212000 34 S),,23.7059,38.0291,macroseismic,382.06,3.7,0.3,,,,,,,,,,,inferred,Stations_USGS
EMSC.UTM:(738000 4200000 34 S),,23.7133,37.9208,macroseismic,423.81,3.9,0.3,,,,,,,,,,,inferred,Stations_USGS
EMSC.UTM:(738000 4201000 34 S),,23.7137,37.9298,macroseismic,393.97,2.8,0.3,,,,,,,,,,,inferred,Stations_USGS
EMSC.UTM:(738000 4202000 34 S),,23.714,37.9388,macroseismic,393.97,3.5,0.3,,,,,,,,,,,inferred,Stations_USGS
EMSC.UTM:(738000 4203000 34 S),,23.7143,37.9478,macroseismic,404.55,3.8,0.3,,,,,,,,,,,inferred,Stations_USGS
EMSC.UTM:(738000 4204000 34 S),,23.7146,37.9568,macroseismic,404.55,3.4,0.3,,,,,,,,,,,inferred,Stations_USGS
EMSC.UTM:(738000 4210000 34 S),,23.7166,38.0108,macroseismic,328.64,3.5,0.3,,,,,,,,,,,inferred,Stations_USGS
EMSC.UTM:(739000 4202000 34 S),,23.7253,37.9385,macroseismic,411.93,4.1,0.3,0.8059,0.019087,0.875,2.9012,1.0131,0.028715,1.0822,0.047411,1.4737,0.010413,inferred,Stations_USGS
EMSC.UTM:(739000 4204000 34 S),,23.726,37.9566,macroseismic,366.52,3.2,0.3,,,,,,,,,,,inferred,Stations_USGS
EMSC.UTM:(739000 4205000 34 S),,23.7263,37.9656,macroseismic,355.8,4.0,0.3,0.8059,0.016457,0.875,2.4806,1.0131,0.025062,1.0822,0.041825,1.4737,0.009198,inferred,Stations_USGS
EMSC.UTM:(739000 4206000 34 S),,23.7267,37.9746,macroseismic,355.8,3.5,0.3,,,,,,,,,,,inferred,Stations_USGS
EMSC.UTM:(739000 4207000 34 S),,23.727,37.9836,macroseismic,471.38,3.6,0.3,,,,,,,,,,,inferred,Stations_USGS
EMSC.UTM:(739000 4208000 34 S),,23.7273,37.9926,macroseismic,449.63,3.4,0.3,,,,,,,,,,,inferred,Stations_USGS
EMSC.UTM:(739000 4209000 34 S),,23.7277,38.0016,macroseismic,449.63,2.8,0.3,,,,,,,,,,,inferred,Stations_USGS
EMSC.UTM:(739000 4210000 34 S),,23.728,38.0106,macroseismic,444.6,3.6,0.3,,,,,,,,,,,inferred,Stations_USGS
EMSC.UTM:(739000 4211000 34 S),,23.7283,38.0196,macroseismic,444.6,4.2,0.3,0.8059,0.022158,0.875,3.3766,1.0131,0.032918,1.0822,0.05132,1.4737,0.011239,inferred,Stations_USGS
EMSC.UTM:(739000 4212000 34 S),,23.7287,38.0286,macroseismic,347.66,4.1,0.3,0.8059,0.0191,0.875,2.9012,1.0131,0.028726,1.0822,0.047403,1.4737,0.010411,inferred,Stations_USGS
EMSC.UTM:(740000 4202000 34 S),,23.7367,37.9383,macroseismic,411.93,2.5,0.3,,,,,,,,,,,inferred,Stations_USGS
EMSC.UTM:(740000 4203000 34 S),,23.7371,37.9473,macroseismic,366.52,3.6,0.3,,,,,,,,,,,inferred,Stations_USGS
EMSC.UTM:(740000 4204000 34 S),,23.7374,37.9563,macroseismic,366.52,2.4,0.3,,,,,,,,,,,inferred,Stations_USGS
EMSC.UTM:(740000 4206000 34 S),,23.7381,37.9743,macroseismic,355.8,3.2,0.3,,,,,,,,,,,inferred,Stations_USGS
EMSC.UTM:(740000 4207000 34 S),,23.7384,37.9833,macroseismic,471.38,3.1,0.3,,,,,,,,,,,inferred,Stations_USGS
EMSC.UTM:(740000 4208000 34 S),,23.7387,37.9923,macroseismic,449.63,3.1,0.3,,,,,,,,,,,inferred,Stations_USGS
EMSC.UTM:(740000 4209000 34 S),,23.7391,38.0013,macroseismic,449.63,4.3,0.3,0.8059,0.025773,0.875,3.6318,1.0131,0.037776,1.0822,0.055525,1.4737,0.012124,inferred,Stations_USGS
EMSC.UTM:(740000 4211000 34 S),,23.7397,38.0193,macroseismic,444.6,2.9,0.3,,,,,,,,,,,inferred,Stations_USGS
EMSC.UTM:(740000 4212000 34 S),,23.7401,38.0283,macroseismic,347.66,4.1,0.3,0.8059,0.01915,0.875,2.9012,1.0131,0.028767,1.0822,0.047371,1.4737,0.010403,inferred,Stations_USGS
EMSC.UTM:(740000 4214000 34 S),,23.7407,38.0463,macroseismic,353.68,4.1,0.3,0.8059,0.01915,0.875,2.9012,1.0131,0.028766,1.0822,0.047371,1.4737,0.010403,inferred,Stations_USGS
EMSC.UTM:(741000 4196000 34 S),,23.7461,37.884,macroseismic,430.57,3.2,0.3,,,,,,,,,,,inferred,Stations_USGS
EMSC.UTM:(741000 4197000 34 S),,23.7464,37.893,macroseismic,476.15,3.5,0.3,,,,,,,,,,,inferred,Stations_USGS
EMSC.UTM:(741000 4198000 34 S),,23.7467,37.902,macroseismic,476.15,3.5,0.3,,,,,,,,,,,inferred,Stations_USGS
EMSC.UTM:(741000 4199000 34 S),,23.7471,37.911,macroseismic,546.51,3.2,0.3,,,,,,,,,,,inferred,Stations_USGS
EMSC.UTM:(741000 4204000 34 S),,23.7488,37.956,macroseismic,478.86,3.6,0.3,,,,,,,,,,,inferred,Stations_USGS
EMSC.UTM:(741000 4205000 34 S),,23.7491,37.965,macroseismic,415.27,2.9,0.3,,,,,,,,,,,inferred,Stations_USGS
EMSC.UTM:(741000 4206000 34 S),,23.7494,37.974,macroseismic,415.27,3.0,0.3,,,,,,,,,,,inferred,Stations_USGS
EMSC.UTM:(741000 4210000 34 S),,23.7508,38.01,macroseismic,512.71,2.4,0.3,,,,,,,,,,,inferred,Stations_USGS
EMSC.UTM:(741000 4215000 34 S),,23.7525,38.055,macroseismic,393.27,2.9,0.3,,,,,,,,,,,inferred,Stations_USGS
EMSC.UTM:(742000 4192000 34 S),,23.7561,37.8477,macroseismic,308.76,2.8,0.3,,,,,,,,,,,inferred,Stations_USGS
EMSC.UTM:(742000 4194000 34 S),,23.7568,37.8657,macroseismic,389.87,3.5,0.3,,,,,,,,,,,inferred,Stations_USGS
EMSC.UTM:(742000 4196000 34 S),,23.7574,37.8837,macroseismic,430.57,3.6,0.3,,,,,,,,,,,inferred,Stations_USGS
EMSC.UTM:(742000 4197000 34 S),,23.7578,37.8927,macroseismic,476.15,3.2,0.3,,,,,,,,,,,inferred,Stations_USGS
EMSC.UTM:(742000 4200000 34 S),,23.7588,37.9197,macroseismic,900.0,3.2,0.3,,,,,,,,,,,inferred,Stations_USGS
EMSC.UTM:(742000 4202000 34 S),,23.7595,37.9377,macroseismic,900.0,2.1,0.3,,,,,,,,,,,inferred,Stations_USGS
EMSC.UTM:(742000 4205000 34 S),,23.7605,37.9648,macroseismic,500.02,3.2,0.3,,,,,,,,,,,inferred,Stations_USGS
EMSC.UTM:(742000 4206000 34 S),,23.7608,37.9738,macroseismic,500.02,3.2,0.3,,,,,,,,,,,inferred,Stations_USGS
EMSC.UTM:(742000 4207000 34 S),,23.7611,37.9828,macroseismic,368.56,3.0,0.3,,,,,,,,,,,inferred,Stations_USGS
EMSC.UTM:(742000 4208000 34 S),,23.7615,37.9918,macroseismic,484.43,3.5,0.3,,,,,,,,,,,inferred,Stations_USGS
EMSC.UTM:(742000 4214000 34 S),,23.7635,38.0458,macroseismic,403.73,3.3,0.3,,,,,,,,,,,inferred,Stations_USGS
EMSC.UTM:(742000 4216000 34 S),,23.7642,38.0638,macroseismic,434.11,3.2,0.3,,,,,,,,,,,inferred,Stations_USGS
EMSC.UTM:(742000 4221000 34 S),,23.7659,38.1088,macroseismic,471.03,3.6,0.3,,,,,,,,,,,inferred,Stations_USGS
EMSC.UTM:(743000 4197000 34 S),,23.7691,37.8925,macroseismic,556.92,3.5,0.3,,,,,,,,,,,inferred,Stations_USGS
EMSC.UTM:(743000 4206000 34 S),,23.7722,37.9735,macroseismic,500.02,2.5,0.3,,,,,,,,,,,inferred,Stations_USGS
EMSC.UTM:(743000 4208000 34 S),,23.7728,37.9915,macroseismic,368.56,3.6,0.3,,,,,,,,,,,inferred,Stations_USGS
EMSC.UTM:(743000 4214000 34 S),,23.7749,38.0455,macroseismic,403.73,3.2,0.3,,,,,,,,,,,inferred,Stations_USGS
EMSC.UTM:(743000 4215000 34 S),,23.7752,38.0545,macroseismic,471.21,3.2,0.3,,,,,,,,,,,inferred,Stations_USGS
EMSC.UTM:(744000 4189000 34 S),,23.7778,37.8202,macroseismic,454.04,3.7,0.3,,,,,,,,,,,inferred,Stations_USGS
EMSC.UTM:(744000 4209000 34 S),,23.7846,38.0002,macroseismic,301.66,3.9,0.3,,,,,,,,,,,inferred,Stations_USGS
EMSC.UTM:(744000 4210000 34 S),,23.7849,38.0092,macroseismic,372.05,3.2,0.3,,,,,,,,,,,inferred,Stations_USGS
EMSC.UTM:(744000 4212000 34 S),,23.7856,38.0272,macroseismic,315.22,3.2,0.3,,,,,,,,,,,inferred,Stations_USGS
EMSC.UTM:(744000 4214000 34 S),,23.7863,38.0452,macroseismic,471.21,2.9,0.3,,,,,,,,,,,inferred,Stations_USGS
EMSC.UTM:(744000 4215000 34 S),,23.7866,38.0542,macroseismic,471.21,3.5,0.3,,,,,,,,,,,inferred,Stations_USGS
EMSC.UTM:(745000 4188000 34 S),,23.7888,37.8109,macroseismic,454.04,4.2,0.3,0.8059,0.022435,0.875,3.3766,1.0131,0.03314,1.0822,0.051157,1.4737,0.011199,inferred,Stations_USGS
EMSC.UTM:(745000 4208000 34 S),,23.7956,37.991,macroseismic,571.43,2.7,0.3,,,,,,,,,,,inferred,Stations_USGS
EMSC.UTM:(745000 4209000 34 S),,23.7959,38.0,macroseismic,429.8,4.2,0.3,0.8059,0.022511,0.875,3.3766,1.0131,0.0332,1.0822,0.051113,1.4737,0.011188,inferred,Stations_USGS
EMSC.UTM:(745000 4210000 34 S),,23.7963,38.009,macroseismic,338.62,2.6,0.3,,,,,,,,,,,inferred,Stations_USGS
EMSC.UTM:(745000 4211000 34 S),,23.7966,38.018,macroseismic,338.62,4.3,0.3,0.8059,0.026118,0.875,3.6318,1.0131,0.038048,1.0822,0.055335,1.4737,0.012077,inferred,Stations_USGS
EMSC.UTM:(745000 4212000 34 S),,23.797,38.027,macroseismic,390.5,4.1,0.3,0.8059,0.019406,0.875,2.9012,1.0131,0.028973,1.0822,0.04721,1.4737,0.010364,inferred,Stations_USGS
EMSC.UTM:(745000 4213000 34 S),,23.7973,38.036,macroseismic,390.5,4.2,0.3,0.8059,0.022514,0.875,3.3766,1.0131,0.033202,1.0822,0.051111,1.4737,0.011188,inferred,Stations_USGS
EMSC.UTM:(745000 4216000 34 S),,23.7983,38.063,macroseismic,364.44,3.9,0.3,,,,,,,,,,,inferred,Stations_USGS
EMSC.UTM:(745000 4220000 34 S),,23.7997,38.099,macroseismic,365.27,3.2,0.3,,,,,,,,,,,inferred,Stations_USGS
EMSC.UTM:(746000 4190000 34 S),,23.8008,37.8286,macroseismic,455.15,2.8,0.3,,,,,,,,,,,inferred,Stations_USGS
EMSC.UTM:(746000 4210000 34 S),,23.8077,38.0087,macroseismic,338.62,2.6,0.3,,,,,,,,,,,inferred,Stations_USGS
EMSC.UTM:(746000 4213000 34 S),,23.8087,38.0357,macroseismic,325.38,4.5,0.3,0.8059,0.03525,0.875,4.2016,1.0131,0.050039,1.0822,0.064813,1.4737,0.014063,inferred,Stations_USGS
EMSC.UTM:(746000 4214000 34 S),,23.809,38.0447,macroseismic,419.79,4.1,0.3,0.8059,0.019458,0.875,2.9012,1.0131,0.029015,1.0822,0.047177,1.4737,0.010356,inferred,Stations_USGS
EMSC.UTM:(746000 4215000 34 S),,23.8094,38.0537,macroseismic,419.79,3.6,0.3,,,,,,,,,,,inferred,Stations_USGS
EMSC.UTM:(746000 4217000 34 S),,23.8101,38.0717,macroseismic,452.38,2.4,0.3,,,,,,,,,,,inferred,Stations_USGS
EMSC.UTM:(747000 4209000 34 S),,23.8187,37.9994,macroseismic,563.43,3.2,0.3,,,,,,,,,,,inferred,Stations_USGS
EMSC.UTM:(747000 4211000 34 S),,23.8194,38.0174,macroseismic,330.04,3.6,0.3,,,,,,,,,,,inferred,Stations_USGS
EMSC.UTM:(748000 4210000 34 S),,23.8304,38.0081,macroseismic,612.07,4.5,0.3,0.8059,0.035439,0.875,4.2016,1.0131,0.050183,1.0822,0.064725,1.4737,0.014041,inferred,Stations_USGS
EMSC.UTM:(748000 4213000 34 S),,23.8315,38.0352,macroseismic,366.07,3.9,0.3,,,,,,,,,,,inferred,Stations_USGS
EMSC.UTM:(748000 4523000 35 T),,29.9468,40.8249,macroseismic,636.07,3.2,0.3,,,,,,,,,,,inferred,Stations_USGS
EMSC.UTM:(749000 4211000 34 S),,23.8421,38.0169,macroseismic,297.76,3.2,0.3,,,,,,,,,,,inferred,Stations_USGS
EMSC.UTM:(749000 4214000 34 S),,23.8432,38.0439,macroseismic,550.63,1.7,0.3,,,,,,,,,,,inferred,Stations_USGS
EMSC.UTM:(750000 4209000 34 S),,23.8528,37.9986,macroseismic,536.73,3.2,0.3,,,,,,,,,,,inferred,Stations_USGS
EMSC.UTM:(752000 4210000 34 S),,23.8759,38.007,macroseismic,440.86,3.2,0.3,,,,,,,,,,,inferred,Stations_USGS
EMSC.UTM:(757000 4201000 34 S),,23.9296,37.9246,macroseismic,254.05,3.7,0.3,,,,,,,,,,,inferred,Stations_USGS
UTM:(34S 073 420 10000),,23.675,37.9622,macroseismic,284.22,3.2,0.0,,,,,,,,,,,inferred,Stations_USGS
UTM:(34S 073 421 10000),,23.6783,38.0522,macroseismic,711.39,3.4,0.0,,,,,,,,,,,inferred,Stations_USGS
UTM:(34S 074 419 10000),,23.7853,37.8695,macroseismic,834.87,3.9,0.0,,,,,,,,,,,inferred,Stations_USGS
UTM:(34S 074 420 10000),,23.7887,37.9596,macroseismic,536.12,3.4,0.0,,,,,,,,,,,inferred,Stations_USGS
UTM:(34S 074 421 10000),,23.7921,38.0496,macroseismic,422.82,2.8,0.0,,,,,,,,,,,inferred,Stations_USGS
UTM:(34S 075 420 10000),,23.9024,37.9568,macroseismic,368.61,3.3,0.0,,,,,,,,,,,inferred,Stations_USGS
UTM:(35S 022 393 10000),,23.9675,35.5205,macroseismic,600.0,2.8,0.0,,,,,,,,,,,inferred,Stations_USGS
UTM:(35S 023 393 10000),,24.0776,35.5232,macroseismic,536.61,2.7,0.0,,,,,,,,,,,inferred,Stations_USGS
UTM:(35S 029 409 10000),,24.6968,36.9788,macroseismic,672.42,3.8,0.0,,,,,,,,,,,inferred,Stations_USGS
UTM:(35S 033 391 10000),,25.1838,35.3647,macroseismic,600.0,3.7,0.0,,,,,,,,,,,inferred,Stations_USGS
UTM:(35S 035 403 10000),,25.382,36.4493,macroseismic,600.0,3.3,0.0,,,,,,,,,,,inferred,Stations_USGS
UTM:(35S 035 410 10000),,25.3687,37.0801,macroseismic,249.42,3.0,0.0,,,,,,,,,,,inferred,Stations_USGS
UTM:(35S 042 424 10000),,26.1417,38.35,macroseismic,600.0,5.8,0.0,0.8059,0.121105,0.875,10.8345,1.0131,0.254856,1.0822,0.144083,1.4737,0.029269,inferred,Stations_USGS
UTM:(35S 044 424 10000),,26.3705,38.3515,macroseismic,600.0,5.2,0.0,0.8059,0.087542,0.875,6.9974,1.0131,0.187294,1.0822,0.086838,1.4737,0.017885,inferred,Stations_USGS
UTM:(35S 047 418 10000),,26.716,37.812,macroseismic,600.0,7.0,0.0,0.8059,0.347759,0.875,25.9751,1.0131,0.5841,1.0822,0.309316,1.4737,0.059316,inferred,Stations_USGS
UTM:(35S 047 424 10000),,26.7139,38.3528,macroseismic,475.64,6.2,0.0,0.8059,0.165605,0.875,14.5008,1.0131,0.329254,1.0822,0.190328,1.4737,0.038036,inferred,Stations_USGS
UTM:(35S 048 422 10000),,26.8287,38.1728,macroseismic,458.33,6.1,0.0,0.8059,0.176681,0.875,13.4818,1.0131,0.33294,1.0822,0.162638,1.4737,0.032292,inferred,Stations_USGS
UTM:(35S 048 424 10000),,26.8283,38.353,macroseismic,492.78,5.7,0.0,0.8059,0.120975,0.875,10.0731,1.0131,0.248946,1.0822,0.128189,1.4737,0.025998,inferred,Stations_USGS
UTM:(35S 049 417 10000),,26.9433,37.7222,macroseismic,363.4,6.9,0.0,0.8059,0.294934,0.875,24.1497,1.0131,0.52351,1.0822,0.304236,1.4737,0.058957,inferred,Stations_USGS
UTM:(35S 049 432 10000),,26.9422,39.0741,macroseismic,414.41,4.8,0.0,0.8059,0.053045,0.875,5.2282,1.0131,0.094643,1.0822,0.073768,1.4737,0.01566,inferred,Stations_USGS
UTM:(35S 050 424 10000),,27.0572,38.3531,macroseismic,900.0,6.2,0.0,0.8059,0.161648,0.875,14.5008,1.0131,0.325094,1.0822,0.19317,1.4737,0.038673,inferred,Stations_USGS
UTM:(35S 050 425 10000),,27.0573,38.4432,macroseismic,600.0,6.8,0.0,0.8059,0.22488,0.875,22.4526,1.0131,0.443673,1.0822,0.319409,1.4737,0.063045,inferred,Stations_USGS
UTM:(35S 050 426 10000),,27.0574,38.5334,macroseismic,460.21,5.6,0.0,0.8059,0.102551,0.875,9.3652,1.0131,0.223066,1.0822,0.12612,1.4737,0.025849,inferred,Stations_USGS
UTM:(35S 051 407 10000),,27.1682,36.8207,macroseismic,900.0,3.7,0.0,,,,,,,,,,,inferred,Stations_USGS
UTM:(35S 051 423 10000),,27.1715,38.2629,macroseismic,272.18,6.8,0.0,0.8059,0.239008,0.875,22.4526,1.0131,0.458114,1.0822,0.307701,1.4737,0.060461,inferred,Stations_USGS
UTM:(35S 051 424 10000),,27.1717,38.353,macroseismic,464.69,6.2,0.0,0.8059,0.158055,0.875,14.5008,1.0131,0.321275,1.0822,0.19585,1.4737,0.039275,inferred,Stations_USGS
UTM:(35S 051 425 10000),,27.1719,38.4431,macroseismic,600.0,6.9,0.0,0.8059,0.235339,0.875,24.1497,1.0131,0.46493,1.0822,0.349378,1.4737,0.068846,inferred,Stations_USGS
UTM:(35S 052 408 10000),,27.2806,36.9107,macroseismic,180.0,4.9,0.0,0.8059,0.058199,0.875,5.6234,1.0131,0.112802,1.0822,0.078386,1.4737,0.016555,inferred,Stations_USGS
UTM:(35S 052 413 10000),,27.2823,37.3614,macroseismic,300.67,6.0,0.0,0.8059,0.130941,0.875,12.5343,1.0131,0.277981,1.0822,0.173749,1.4737,0.035212,inferred,Stations_USGS
UTM:(35S 052 417 10000),,27.2837,37.7219,macroseismic,820.99,7.5,0.0,0.8059,0.372363,0.875,37.3925,1.0131,0.67893,1.0822,0.533883,1.4737,0.102735,inferred,Stations_USGS
UTM:(35S 052 418 10000),,27.284,37.812,macroseismic,454.35,5.2,0.0,0.8059,0.091058,0.875,6.9974,1.0131,0.191211,1.0822,0.084767,1.4737,0.017408,inferred,Stations_USGS
UTM:(35S 052 425 10000),,27.2865,38.4429,macroseismic,443.22,4.4,0.0,0.8059,0.048653,0.875,3.9064,1.0131,0.067652,1.0822,0.048606,1.4737,0.010314,inferred,Stations_USGS
UTM:(35S 053 409 10000),,27.3934,37.0005,macroseismic,600.0,2.7,0.0,,,,,,,,,,,inferred,Stations_USGS
UTM:(35S 053 422 10000),,27.3996,38.1722,macroseismic,325.89,6.7,0.0,0.8059,0.214689,0.875,20.8747,1.0131,0.423183,1.0822,0.292176,1.4737,0.057769,inferred,Stations_USGS
UTM:(35S 053 427 10000),,27.4021,38.6228,macroseismic,495.16,7.0,0.0,0.8059,0.227918,0.875,25.9751,1.0131,0.467755,1.0822,0.400748,1.4737,0.079291,inferred,Stations_USGS
UTM:(35S 057 418 10000),,27.852,37.8093,macroseismic,260.58,4.7,0.0,0.8059,0.054605,0.875,4.8608,1.0131,0.092883,1.0822,0.064433,1.4737,0.013626,inferred,Stations_USGS
UTM:(35S 060 403 10000),,28.1717,36.4545,macroseismic,600.0,3.4,0.0,,,,,,,,,,,inferred,Stations_USGS
UTM:(35S 061 407 10000),,28.2893,36.8139,macroseismic,600.0,4.4,0.0,0.8059,0.037821,0.875,3.9064,1.0131,0.049141,1.0822,0.056593,1.4737,0.012232,inferred,Stations_USGS
UTM:(35S 068 405 10000),,29.0689,36.6226,macroseismic,600.0,3.6,0.0,,,,,,,,,,,inferred,Stations_USGS
UTM:(35T 044 444 10000),,26.3542,40.1535,macroseismic,455.82,4.4,0.0,0.8059,0.030154,0.875,3.9064,1.0131,0.043487,1.0822,0.059983,1.4737,0.013056,inferred,Stations_USGS
UTM:(35T 056 455 10000),,27.7746,41.1437,macroseismic,361.5,3.9,0.0,,,,,,,,,,,inferred,Stations_USGS
UTM:(35T 063 454 10000),,28.6063,41.045,macroseismic,460.8,3.9,0.0,,,,,,,,,,,inferred,Stations_USGS
UTM:(35T 064 453 10000),,28.7228,40.9533,macroseismic,600.0,2.6,0.0,,,,,,,,,,,inferred,Stations_USGS
UTM:(35T 064 454 10000),,28.7252,41.0433,macroseismic,600.0,2.7,0.0,,,,,,,,,,,inferred,Stations_USGS
UTM:(35T 065 445 10000),,28.8219,40.2311,macroseismic,497.13,3.1,0.0,,,,,,,,,,,inferred,Stations_USGS
UTM:(35T 065 453 10000),,28.8416,40.9514,macroseismic,600.0,2.2,0.0,,,,,,,,,,,inferred,Stations_USGS
UTM:(35T 065 454 10000),,28.8441,41.0415,macroseismic,403.65,3.0,0.0,,,,,,,,,,,inferred,Stations_USGS
UTM:(35T 066 445 10000),,28.9394,40.2292,macroseismic,332.34,3.2,0.0,,,,,,,,,,,inferred,Stations_USGS
UTM:(35T 066 454 10000),,28.963,41.0395,macroseismic,420.12,2.2,0.0,,,,,,,,,,,inferred,Stations_USGS
UTM:(35T 066 455 10000),,28.9657,41.1295,macroseismic,450.56,2.3,0.0,,,,,,,,,,,inferred,Stations_USGS
UTM:(35T 067 445 10000),,29.0569,40.2271,macroseismic,231.95,3.6,0.0,,,,,,,,,,,inferred,Stations_USGS
UTM:(35T 067 453 10000),,29.0791,40.9474,macroseismic,600.0,2.3,0.0,,,,,,,,,,,inferred,Stations_USGS
UTM:(35T 067 454 10000),,29.0819,41.0374,macroseismic,469.83,2.0,0.0,,,,,,,,,,,inferred,Stations_USGS
UTM:(35T 068 453 10000),,29.1978,40.9452,macroseismic,323.31,3.2,0.0,,,,,,,,,,,inferred,Stations_USGS
UTM:(35T 068 454 10000),,29.2008,41.0352,macroseismic,391.18,3.3,0.0,,,,,,,,,,,inferred,Stations_USGS
UTM:(35T 069 450 10000),,29.3072,40.6728,macroseismic,600.0,3.5,0.0,,,,,,,,,,,inferred,Stations_USGS
UTM:(35T 074 451 10000),,29.902,40.7495,macroseismic,600.0,2.7,0.0,,,,,,,,,,,inferred,Stations_USGS
UTM:(36S 028 440 10000),,30.4899,39.7678,macroseismic,214.46,2.9,0.0,,,,,,,,,,,inferred,Stations_USGS
UTM:(36S 029 408 10000),,30.6995,36.8887,macroseismic,428.48,2.0,0.0,,,,,,,,,,,inferred,Stations_USGS
