ID_1,NAME_1,ID_2,NAME_2,LATITUDE,LONGITUDE,SLIGHT,PARTIAL,TOTAL,NOT_STATED,DS1_SLIGHT,DS3_MODERATE,DS3_EXTENSIVE,DS_NS,TOTAL_ECONOMIC_LOSSES ,CURRENCY,CAUSE_OF_LOSS,REFERENCE,COMMENTS
85557120B4618709194860,Alajuela ,36466004B15153546976040,Alajuela,10.015988,-84.214131,1426880000,5166000000,4849600000,1467200000,1426880000,5166000000,4849600000,1467200000,12909680000,CRC,,RSN_2009 ,
85557120B4618709194860,Alajuela ,36466004B93303337687186,Grecia,10.072684,-84.312179,35280000,58800000,201600000,11200000,35280000,58800000,201600000,11200000,306880000,CRC,,RSN_2009 ,
85557120B4618709194860,Alajuela ,36466004B38836651669395,Poas,10.076838,-84.244496,188160000,1184400000,1366400000,526400000,188160000,1184400000,1366400000,526400000,3265360000,CRC,,RSN_2009 ,
85557120B11710150686528,Heredia,36466004B39245631434981,Heredia,9.998067,-84.118037,246960000,361200000,750400000,190400000,246960000,361200000,750400000,190400000,1548960000,CRC,,RSN_2009 ,
85557120B11710150686528,Heredia,36466004B47059655033797,Santa Barbara,10.037076,-84.15884,98000000,285600000,526400000,100800000,98000000,285600000,526400000,100800000,1010800000,CRC,,RSN_2009 ,
85557120B11710150686528,Heredia,36466004B5404114399011,Sarapiqui,10.454516,-83.995657,0,16800000,884800000,0,0,16800000,884800000,0,901600000,CRC,,RSN_2009 ,
Not stated,Not stated,Not stated,Not stated,,,58800000,75600000,168000000,291200000,58800000,75600000,168000000,291200000,593600000,CRC,,RSN_2009 ,
