STATION_ID,STATION_NAME,LATITUDE,LONGITUDE,STATION_TYPE,REFERENCES,SOIL_TYPE,PGA_VALUE,SA(0.3)_VALUE,SA(0.6)_VALUE,SA(1.0)_VALUE,PGA_LN_SIGMA,SA(0.3)_LN_SIGMA,SA(0.6)_LN_SIGMA,SA(1.0)_LN_SIGMA,PGA_VALUE_1,SA(0.3)_VALUE_1,SA(0.6)_VALUE_1,SA(1.0)_VALUE_1,PGA_VALUE_2,SA(0.3)_VALUE_2,SA(0.6)_VALUE_2,SA(1.0)_VALUE_2,PGA_VALUE_V,SA(0.3)_VALUE_V,SA(0.6)_VALUE_V,SA(1.0)_VALUE_V,VS30,MMI_VALUE,MMI_STDDEV,PGV_LN_SIGMA,PGV_VALUE,SA(3.0)_LN_SIGMA,SA(3.0)_VALUE,VS30_TYPE
SAPP,SAN ALEJANDRO PUEBLA,19.057785,-98.215377,seismic,Stations_UNAM,DEPOSITOS LACUSTRES,0.2099609582,0.6455305557,0.9232475577,0.2961325297,0.0,0.0,0.0,0.0,0.2036300714,0.6455305557,0.9232475577,0.2520662719,0.2099609582,0.5288468693,0.5828170192,0.2961325297,0.0625267074,0.1640300905,0.1262112386,0.0795339056,,,,,,,,
RFPP,RIO SAN FRANCISCO PUEBLA,19.043493,-98.191493,seismic,Stations_UNAM,ESTRUCTURA,0.187514577,0.8569435875,0.2825333293,0.1400943515,0.0,0.0,0.0,0.0,0.1176735984,0.4828942173,0.2300755549,0.1167948869,0.187514577,0.8569435875,0.2825333293,0.1400943515,0.0825189602,0.2505727099,0.0872816077,0.035391503,,,,,,,,
HMTT,HUAMUXTITLAN,17.798341,-98.559717,seismic,Stations_UNAM,ROCA,0.173775739,0.4311343509,0.1931129335,0.0728506544,0.0,0.0,0.0,0.0,0.173775739,0.4311343509,0.1931129335,0.0691362799,0.1466545362,0.2486743431,0.1902633375,0.0728506544,0.0934905199,0.2090198981,0.154652431,0.0821170944,,,,,,,,
THEZ,TEHUACAN ESCUELA PRIMARIA EMILIANO ZAPATA,18.477554,-97.383184,seismic,Stations_UNAM,ROCA,0.1697253823,0.4325499985,0.4061375857,0.1085656596,0.0,0.0,0.0,0.0,0.1521215087,0.3768902199,0.4061375857,0.1085656596,0.1697253823,0.4325499985,0.2606140212,0.0561971761,0.0453505607,0.1118229902,0.0714773575,0.0436533606,,,,,,,,
RABO,RABOSO,18.569078,-98.445409,seismic,Stations_UNAM,ROCA,0.157687156,0.4081658004,0.1312538252,0.0818009069,0.0,0.0,0.0,0.0,0.1320730887,0.2488516247,0.1064097976,0.0679921243,0.157687156,0.4081658004,0.1312538252,0.0818009069,0.1201488277,0.1467266887,0.1567400211,0.036301357,,,,,,,,
PHPU,PARQUE HABANA PUEBLA,19.044223,-98.168466,seismic,Stations_UNAM,SUELO,0.1444545362,0.3747760195,0.3211390684,0.1186405648,0.0,0.0,0.0,0.0,0.1422008155,0.2556912132,0.2948453289,0.1186405648,0.1444545362,0.3747760195,0.3211390684,0.0797704726,0.0792309888,0.1726557492,0.0742311186,0.0371034022,,,,,,,,
SXPU,SISMEX PUEBLA,19.039943,-98.215087,seismic,Stations_UNAM,TRAVERTINO,0.1418741081,0.4526582485,0.2595422956,0.1834247593,0.0,0.0,0.0,0.0,0.1194267074,0.3033506056,0.1532684438,0.1185956972,0.1418741081,0.4526582485,0.2595422956,0.1834247593,0.1063380224,0.2282216169,0.1860183875,0.0453791323,,,,,,,,
PZPU,CERRO LA PAZ PUEBLA,19.055379,-98.227092,seismic,Stations_UNAM,ROCA (CONO VOLCANICO),0.1222958206,0.1995152319,0.4856309281,0.1081757441,0.0,0.0,0.0,0.0,0.1222958206,0.1995152319,0.4856309281,0.1081757441,0.0942938838,0.1695280314,0.311206395,0.1019746914,0.0544119266,0.1457472731,0.0551137138,0.0473819943,,,,,,,,
SJLL,SAN JUAN DE LOS LLANOS,16.657822,-98.498463,seismic,Stations_UNAM,ROCA,0.1078641182,0.0597470807,0.0186465792,0.0102034512,0.0,0.0,0.0,0.0,0.1078641182,0.0597470807,0.0186465792,0.0098849531,0.1017927625,0.0576216719,0.018366944,0.0102034512,0.0583817533,0.0387683999,0.0127085255,0.0073586116,,,,,,,,
PBP2,PASEO NICOLAS BRAVO PUEBLA. S-2,19.045439,-98.208468,seismic,Stations_UNAM,TERRENO LIBRE,0.1005874618,0.1949360695,0.1816927723,0.1490755931,0.0,0.0,0.0,0.0,0.0951621814,0.1309844873,0.1707946783,0.1211022927,0.1005874618,0.1949360695,0.1816927723,0.1490755931,0.0570619776,0.1416161755,0.1509866032,0.0602799453,,,,,,,,
OXCU,OAXACA CIUDAD UNIVERSITARIA,17.048881,-96.713269,seismic,Stations_UNAM,ARCILLA,0.0993859327,0.3567742167,0.1100945154,0.0591861696,0.0,0.0,0.0,0.0,0.0993859327,0.3567742167,0.0940144915,0.0249387256,0.0694472987,0.2271733318,0.1100945154,0.0591861696,0.0280392457,0.0511688389,0.0232270478,0.0193839315,,,,,,,,
SCT2,SCT B-2.,19.394694,-99.148678,seismic,Stations_UNAM,ARCILLA,0.0934531091,0.1963538452,0.2309387438,0.1780947786,0.0,0.0,0.0,0.0,0.0920818552,0.1963538452,0.141111388,0.1713286362,0.0934531091,0.1608477919,0.2309387438,0.1780947786,0.0425760449,0.0986295813,0.1822338747,0.0681922944,,,,,,,,
CCCL,CENTRO CULTURAL UNIVERSITARIO TLATELOLCO CAMPO LIBRE,19.449858,-99.137919,seismic,Stations_UNAM,SUELO,0.0871848114,0.1919270765,0.1820875052,0.2306697642,0.0,0.0,0.0,0.0,0.0871848114,0.1919270765,0.1820875052,0.2306697642,0.0748406728,0.182735036,0.105597723,0.1700124998,0.0417957187,0.106702987,0.1026858817,0.0564850932,,,,,,,,
TEJU,TEJUPILCO,18.904051,-100.159615,seismic,Stations_UNAM,ROCA,0.0848969419,0.133323589,0.0555022309,0.0599471568,0.0,0.0,0.0,0.0,0.0848969419,0.112670454,0.0555022309,0.0599471568,0.0550772681,0.133323589,0.0369416478,0.0258946828,0.0300805301,0.0863821526,0.0382142764,0.0199788805,,,,,,,,
OXXO,XOXOCOTLAN,17.026234,-96.726179,seismic,Stations_UNAM,?,0.0810641182,0.2558852984,0.1351461864,0.0454653728,0.0,0.0,0.0,0.0,0.0700365953,0.2558852984,0.0955729488,0.0325385385,0.0810641182,0.2403611537,0.1351461864,0.0454653728,0.0315732926,0.0821062989,0.0319051462,0.01790996,,,,,,,,
CHFL,CHILA DE LAS FLORES,17.969493,-97.865638,seismic,Stations_UNAM,ROCA,0.0783690112,0.155336357,0.0911386464,0.1044893136,0.0,0.0,0.0,0.0,0.0774465851,0.155336357,0.0831702035,0.1014227747,0.0783690112,0.098877055,0.0911386464,0.1044893136,0.0393969419,0.0780720335,0.0532467683,0.0899795032,,,,,,,,
OAXM,OAXACA FACULTAD DE MEDICINA,17.082872,-96.718744,seismic,Stations_UNAM,ALUVIAL,0.0717316004,0.2332001639,0.0453541335,0.0294822397,0.0,0.0,0.0,0.0,0.0563889908,0.1714747243,0.0446063292,0.0294822397,0.0717316004,0.2332001639,0.0453541335,0.0265761947,0.0349957187,0.0625472863,0.0258715074,0.0223604502,,,,,,,,
TNLP,TONALAPA DEL SUR,18.095563,-99.560805,seismic,Stations_UNAM,ROCA,0.0672495413,0.1524991847,0.0653177016,0.0358454174,0.0,0.0,0.0,0.0,0.0524924567,0.0879730861,0.0478645577,0.0267964925,0.0672495413,0.1524991847,0.0653177016,0.0358454174,0.0639245668,0.079899217,0.0546157998,0.0226661722,,,,,,,,
OXTO,INSTITUTO TECNOLOGICO DE OAXACA,17.078389,-96.744158,seismic,Stations_UNAM,SUELO ALUVIAL,0.0663501529,0.1605045189,0.276101613,0.0543733613,0.0,0.0,0.0,0.0,0.0526,0.0962843574,0.1459310212,0.0344983244,0.0663501529,0.1605045189,0.276101613,0.0543733613,0.0258987768,0.0851815586,0.0237468933,0.0122166027,,,,,,,,
OXAE,OAXACA AEROPUERTO,17.001551,-96.721608,seismic,Stations_UNAM,SUELO BLANDO,0.0648583078,0.2318484787,0.149650019,0.081184006,0.0,0.0,0.0,0.0,0.0648583078,0.1393229701,0.1008716448,0.0744522166,0.0626592253,0.2318484787,0.149650019,0.081184006,0.0210986748,0.0549706677,0.0251063928,0.0178290019,,,,,,,,
TACY,TACUBAYA,19.404505,-99.195246,seismic,Stations_UNAM,SUELO DURO,0.0635872579,0.1706844526,0.1300793775,0.0849394546,0.0,0.0,0.0,0.0,0.0595608563,0.1669799702,0.1179588238,0.0743506717,0.0635872579,0.1706844526,0.1300793775,0.0849394546,0.0352883792,0.1607611618,0.0473843164,0.0436425872,,,,,,,,
OXPM,ESCUELA PRIMARIA MUGICA,17.061391,-96.716899,seismic,Stations_UNAM,SUELO,0.0633214067,0.1927044057,0.0421040993,0.031043381,0.0,0.0,0.0,0.0,0.0632547401,0.1608205223,0.032351496,0.0165225123,0.0633214067,0.1927044057,0.0421040993,0.031043381,0.0240228338,0.0457138316,0.0194500385,0.0172994804,,,,,,,,
ACAD,ACAPULCO ESCUELA DIANA,16.86225,-99.87147,seismic,Stations_UNAM,LIMO ARENOSO,0.0619978593,0.1479485778,0.0251625598,0.0102256566,0.0,0.0,0.0,0.0,0.0469350663,0.1419674069,0.0167674158,0.0083410694,0.0619978593,0.1479485778,0.0251625598,0.0102256566,0.0220334353,0.0251002531,0.0133661234,0.0115335068,,,,,,,,
CUP5,IDEI PATIO 5,19.33024,-99.181076,seismic,Stations_UNAM,ROCA BASALTICA,0.0599777778,0.1962297681,0.1013594783,0.1415211295,0.0,0.0,0.0,0.0,0.0564313965,0.1962297681,0.0999560452,0.1415211295,0.0599777778,0.1309634523,0.1013594783,0.1130801827,0.0346302752,0.0751725626,0.0571473427,0.0829778512,,,,,,,,
ACAC,ACAPULCO CENTRO CULTURAL,16.84851,-99.85157,seismic,Stations_UNAM,ARENA - LIMO - ARCILLA,0.0598770642,0.2047907052,0.1864603309,0.0237746777,0.0,0.0,0.0,0.0,0.0598770642,0.2047907052,0.1864603309,0.0237007377,0.0431576962,0.1021303582,0.1029516134,0.0237746777,0.0261074414,0.0502438166,0.0238739956,0.0101576693,,,,,,,,
OXPC,OAXACA PROTECCION CIVIL,17.051219,-96.722974,seismic,Stations_UNAM,SUELO BLANDO,0.0579991845,0.1253738496,0.1131363498,0.0606401211,0.0,0.0,0.0,0.0,0.0445282365,0.0854936621,0.1131363498,0.0606401211,0.0579991845,0.1253738496,0.113128463,0.0544615118,0.0277621814,0.0576478007,0.0244868551,0.0113798579,,,,,,,,
COMD,LA COMUNIDAD,18.122359,-100.523804,seismic,Stations_UNAM,ROCA,0.0555729867,0.0541421834,0.0327943383,0.0129105732,0.0,0.0,0.0,0.0,0.0522577982,0.0541421834,0.0221181094,0.0127706259,0.0555729867,0.0537731082,0.0327943383,0.0129105732,0.0381321101,0.0403049941,0.0170388444,0.0108751387,,,,,,,,
OXAL,ALAMEDA DE LEON,17.06148,-96.726042,seismic,Stations_UNAM,SUELO,0.0523240571,0.0901197451,0.0290897574,0.0263517035,0.0,0.0,0.0,0.0,0.0523240571,0.0901197451,0.0221656533,0.0175461104,0.0440795107,0.0744712642,0.0290897574,0.0263517035,0.0162970438,0.0477205815,0.0214761787,0.0158063674,,,,,,,,
ACAZ,ACAPULCO LA ZANJA,16.788528,-99.790152,seismic,Stations_UNAM,DEPOSITO BARRA,0.045708053,0.0856003933,0.0411205013,0.0976552007,0.0,0.0,0.0,0.0,0.0382344546,0.070353547,0.0411205013,0.0976552007,0.045708053,0.0856003933,0.034846639,0.0853581744,0.0308434251,0.0447223748,0.0209105112,0.0156224216,,,,,,,,
LMPP,LOMAS DEL MARMOL  PUEBLA,19.00147,-98.18227,seismic,Stations_UNAM,ROCA,0.0405485219,0.0759458341,0.0647634484,0.0309543252,0.0,0.0,0.0,0.0,0.0405485219,0.0759458341,0.0484219868,0.0216580905,0.0353235474,0.0750908412,0.0647634484,0.0309543252,0.0250843017,0.0715673794,0.0494299464,0.0306085327,,,,,,,,
VIGA,LAS VIGAS,16.758703,-99.233268,seismic,Stations_UNAM,ROCA,0.0373502548,0.037711114,0.0162008245,0.0078817371,0.0,0.0,0.0,0.0,0.0319094801,0.037711114,0.0162008245,0.0072163548,0.0373502548,0.037227272,0.013815105,0.0078817371,0.0148455657,0.0213329358,0.009357002,0.0073416038,,,,,,,,
POZU,POZUELOS,17.09008,-99.59754,seismic,Stations_UNAM,GRANITE,0.0369876656,0.0476571401,0.0220261385,0.011378357,0.0,0.0,0.0,0.0,0.0353185525,0.0476571401,0.0200066041,0.011378357,0.0369876656,0.0451336343,0.0220261385,0.008578383,0.0334383282,0.0327576906,0.0114424416,0.0074881968,,,,,,,,
ACAR,ACAPULCO RENACIMIENTO,16.888789,-99.835027,seismic,Stations_UNAM,ALUVIAL,0.0363883792,0.1737367452,0.0330270098,0.0103822738,0.0,0.0,0.0,0.0,0.0333944954,0.1662483261,0.0218241735,0.0078357602,0.0363883792,0.1737367452,0.0330270098,0.0103822738,0.0303109072,0.0459141436,0.0121365685,0.0156836502,,,,,,,,
ACP2,ACAPULCO PREPARATORIA No. 2,16.874294,-99.886505,seismic,Stations_UNAM,ROCA,0.0360510703,0.0812742801,0.0246603455,0.0087513165,0.0,0.0,0.0,0.0,0.0360510703,0.0812742801,0.0231460641,0.0062683606,0.0329159021,0.0684178461,0.0246603455,0.0087513165,0.0180640163,0.0286018193,0.0135451222,0.0088042026,,,,,,,,
OXLC,LAS CANTERAS,17.065039,-96.703157,seismic,Stations_UNAM,ROCA CANTERA,0.0229514781,0.0918519132,0.0370201085,0.049801443,0.0,0.0,0.0,0.0,0.0229514781,0.0757816084,0.0275312497,0.0201111238,0.0221716616,0.0918519132,0.0370201085,0.049801443,0.0122807339,0.0445445231,0.0148265037,0.0159834223,,,,,,,,
AGCA,AGUACALIENTE,16.83733,-99.64526,seismic,Stations_UNAM,ROCA,0.0210815494,0.0376743882,0.0181844371,0.0131037762,0.0,0.0,0.0,0.0,0.0210815494,0.0322816199,0.0181844371,0.0131037762,0.0183124363,0.0376743882,0.0140972441,0.0102440209,0.0189275229,0.0220938408,0.0115015134,0.0076840734,,,,,,,,
ATYC,ATOYAC,17.213361,-100.432269,seismic,Stations_UNAM,ROCA,0.0190381244,0.0310115635,0.0173859136,0.0089247666,0.0,0.0,0.0,0.0,0.0146991845,0.0310115635,0.0173859136,0.0089247666,0.0190381244,0.0210658614,0.0137154849,0.0077802451,0.0170133537,0.0232565771,0.0110480388,0.0092991753,,,,,,,,
COYC,COYUCA,16.997788,-100.089963,seismic,Stations_UNAM,ROCA,0.0187130479,0.023510784,0.0110812101,0.0097757217,0.0,0.0,0.0,0.0,0.0171761468,0.023510784,0.0110812101,0.0068568069,0.0187130479,0.0174056871,0.0081088706,0.0097757217,0.0112197757,0.0136890071,0.010121178,0.0096410881,,,,,,,,
OCLL,OCOTILLO,17.036585,-99.878515,seismic,Stations_UNAM,ROCA,0.0184953109,0.0406185163,0.0187324296,0.0105013543,0.0,0.0,0.0,0.0,0.0184953109,0.0278554052,0.0187324296,0.00628723,0.0171874618,0.0406185163,0.017636073,0.0105013543,0.0217244648,0.0188843316,0.0166976413,0.0140046508,,,,,,,,
SNJE,SAN JERONIMO,18.535047,-101.323693,seismic,Stations_UNAM,ROCA,0.018495107,0.0326331344,0.013380849,0.0108218284,0.0,0.0,0.0,0.0,0.018495107,0.0326331344,0.0132553489,0.0108218284,0.0173138634,0.0250008795,0.013380849,0.0051213709,0.0118266055,0.0287857871,0.0128874336,0.0069596929,,,,,,,,
OXBJ,ESCUELA PRIMARIA BENITO JUAREZ,17.067337,-96.723804,seismic,Stations_UNAM,ROCA,0.0184558614,0.0555374096,0.0263194236,0.0264053122,0.0,0.0,0.0,0.0,0.017561366,0.0518184649,0.0183110955,0.0144884676,0.0184558614,0.0555374096,0.0263194236,0.0264053122,0.0140586137,0.0353728552,0.0149002196,0.0127729429,,,,,,,,
JAMI,JAMILTEPEC,16.284353,-97.820692,seismic,Stations_UNAM,ROCA,0.0177793068,0.017742594,0.0138241754,0.0111614318,0.0,0.0,0.0,0.0,0.0177793068,0.017742594,0.0132679363,0.0090019448,0.0136876656,0.0153464242,0.0138241754,0.0111614318,0.0148912334,0.0173058825,0.0136937053,0.0065653154,,,,,,,,
SODO,SOLEDAD DE DOBLADO,19.044324,-96.414773,seismic,Stations_UNAM,ALUVIAL,0.017158002,0.0352254137,0.0343345344,0.0249101064,0.0,0.0,0.0,0.0,0.0142577982,0.0303512632,0.0343345344,0.0224865611,0.017158002,0.0352254137,0.0320111377,0.0249101064,0.0124942915,0.0294141101,0.0269407328,0.0166806678,,,,,,,,
NITA,NUEVA ITALIA,19.020738,-102.085089,seismic,Stations_UNAM,ROCA,0.0140160041,0.034973163,0.0407672829,0.0233237357,0.0,0.0,0.0,0.0,0.0140160041,0.034973163,0.0361167246,0.0233237357,0.013338736,0.0230272688,0.0407672829,0.0144842882,0.0096126402,0.0229511944,0.0135549328,0.0073465202,,,,,,,,
SMLC,SAN MARTIN LOS CANSECO,16.654971,-96.729233,seismic,Stations_UNAM,ROCA,0.0131396534,0.0236980037,0.028722542,0.0169732064,0.0,0.0,0.0,0.0,0.0131396534,0.0202318413,0.0237998371,0.0169732064,0.0087270133,0.0236980037,0.028722542,0.0167584137,0.0086107034,0.0155167613,0.013888224,0.0137663684,,,,,,,,
SLU2,SAN LUIS DE LA LOMA 2,17.280802,-100.935496,seismic,Stations_UNAM,ROCA,0.0122217125,0.0146363152,0.0104188399,0.0064804948,0.0,0.0,0.0,0.0,0.0122217125,0.0144211101,0.0086251792,0.0064804948,0.011795107,0.0146363152,0.0104188399,0.0053736433,0.010354842,0.0118885273,0.0064440376,0.0048514414,,,,,,,,
OZST,ORIZABA ESCUELA SECUNDARIA TECNICA NUM. 84,18.860758,-97.094119,seismic,Stations_UNAM,SUELO BLANDO,0.0116398573,0.0221817864,0.0199017849,0.0287559849,0.0,0.0,0.0,0.0,0.0116398573,0.0221817864,0.0189263737,0.0287559849,0.0104552497,0.0158707798,0.0199017849,0.020383355,0.0072985729,0.0176922318,0.0241116415,0.0072038485,,,,,,,,
COPL,COPALA,16.61081,-98.98399,seismic,Stations_UNAM,ROCA,0.0109258919,0.0217338319,0.0179704496,0.0153084423,0.0,0.0,0.0,0.0,0.0107004077,0.0217338319,0.0179704496,0.0109984057,0.0109258919,0.0212740425,0.0159303565,0.0153084423,0.0064277268,0.0180801238,0.0119659537,0.0108707399,,,,,,,,
VNTA,LA VENTA,16.91426,-99.81885,seismic,Stations_UNAM,ROCA,0.0108427115,0.0221548802,0.0245759482,0.011312528,0.0,0.0,0.0,0.0,0.0104885831,0.0191584797,0.0104559319,0.011312528,0.0108427115,0.0221548802,0.0245759482,0.0111274706,0.0130961264,0.0129368684,0.009455699,0.0094054582,,,,,,,,
PET2,PETATLAN II,17.535396,-101.262608,seismic,Stations_UNAM,ROCA,0.0102460754,0.0220549969,0.0086628311,0.0068039958,0.0,0.0,0.0,0.0,0.0100270133,0.0203037588,0.0086628311,0.0068039958,0.0102460754,0.0220549969,0.0084691077,0.0055495881,0.0072803262,0.0132053199,0.0061025646,0.0046477393,,,,,,,,
OXJM,JALAPA DEL MARQUES,16.445191,-95.444705,seismic,Stations_UNAM,ROCA,0.0101986748,0.0242078754,0.0341187423,0.0215321372,0.0,0.0,0.0,0.0,0.0101986748,0.0242078754,0.0235014214,0.0215321372,0.0101091743,0.0226262044,0.0341187423,0.0201500682,0.00547737,0.0117790416,0.0135115931,0.0095878308,,,,,,,,
CANA,LAS CANAS,18.567007,-101.977162,seismic,Stations_UNAM,ROCA,0.0094139653,0.0199186704,0.0109382425,0.0068292176,0.0,0.0,0.0,0.0,0.0093215087,0.0199186704,0.0109382425,0.0068292176,0.0094139653,0.0152724467,0.0082008091,0.0055263727,0.0080249745,0.0158209156,0.0124060072,0.0098943319,,,,,,,,
NUX2,NUXCO 2,17.216711,-100.79117,seismic,Stations_UNAM,ROCA,0.0092266055,0.0126662416,0.0081185207,0.0062013608,0.0,0.0,0.0,0.0,0.0066181448,0.012064781,0.0081185207,0.0062013608,0.0092266055,0.0126662416,0.0080297833,0.0059506058,0.0060438328,0.010003717,0.0058413229,0.0045074799,,,,,,,,
XALA,XALAPA,19.529875,-96.901973,seismic,Stations_UNAM,Basalto,0.0084846075,0.0183113315,0.0288737277,0.0168384599,0.0,0.0,0.0,0.0,0.0084846075,0.0180763898,0.0288737277,0.0168384599,0.0084669725,0.0183113315,0.0286152374,0.0107535,0.0058121305,0.0150812159,0.0121838144,0.0110907087,,,,,,,,
HUAM,HUAMELULA,16.031121,-95.670297,seismic,Stations_UNAM,ROCA,0.0077692151,0.0321710498,0.0102910239,0.0057322344,0.0,0.0,0.0,0.0,0.0059814475,0.0262984166,0.0102910239,0.0057322344,0.0077692151,0.0321710498,0.0062839771,0.0053819437,0.0037176351,0.0116567931,0.0053459375,0.004726166,,,,,,,,
TAMA,TAMAZULAPAN,16.26116,-96.57529,seismic,Stations_UNAM,ROCA,0.007670948,0.0225674177,0.0101187562,0.011761566,0.0,0.0,0.0,0.0,0.0072095821,0.0200574909,0.0101187562,0.0113693669,0.007670948,0.0225674177,0.0099546535,0.011761566,0.0058857288,0.0139457854,0.0148840203,0.0117631084,,,,,,,,
SUCH,EL SUCHIL,17.226169,-100.638345,seismic,Stations_UNAM,ROCA,0.0067743119,0.0145654103,0.0098573906,0.0083793479,0.0,0.0,0.0,0.0,0.0067489297,0.0145654103,0.0071633911,0.0083793479,0.0067743119,0.0141665614,0.0098573906,0.0055273453,0.0058216106,0.0109896452,0.0123954694,0.0071377614,,,,,,,,
UNIO,LA UNION,17.98762,-101.810623,seismic,Stations_UNAM,ROCA,0.0062176351,0.0177484611,0.0111395839,0.0071416642,0.0,0.0,0.0,0.0,0.0051346585,0.013794659,0.0111395839,0.0071416642,0.0062176351,0.0177484611,0.0065575641,0.004457273,0.0048482161,0.0164123246,0.009061721,0.0055331179,,,,,,,,
URUA,URUAPAN,19.421758,-102.074059,seismic,Stations_UNAM,ROCA,0.0061766565,0.0095753136,0.0189498465,0.0156045734,0.0,0.0,0.0,0.0,0.0061766565,0.0095753136,0.0189498465,0.01166487,0.0048310907,0.0095556014,0.0137633484,0.0156045734,0.0026097859,0.0063189426,0.0073220429,0.0034282962,,,,,,,,
NILT,NILTEPEC,16.565153,-94.616947,seismic,Stations_UNAM,ROCA,0.0060972477,0.0086484965,0.0052071841,0.0040087413,0.0,0.0,0.0,0.0,0.0060972477,0.0086484965,0.0052071841,0.0040087413,0.0050173293,0.0044522341,0.0045193763,0.0037612424,0.0019256881,0.0037397666,0.003333633,0.0037677398,,,,,,,,
LANE,LAS NEGRAS,15.947684,-97.187204,seismic,Stations_UNAM,ROCA SEDIMENTARIA,0.005941896,0.0203756547,0.0127024021,0.0092116067,0.0,0.0,0.0,0.0,0.0052882773,0.0118643196,0.0072861466,0.0091293504,0.005941896,0.0203756547,0.0127024021,0.0092116067,0.0035023445,0.0073497383,0.0077513419,0.0078832612,,,,,,,,
MIHL,MINATITLAN ESCUELA HIJAS DE LERDO,17.988778,-94.54387,seismic,Stations_UNAM,BLANDO,0.0053081549,0.0181348474,0.0105613025,0.0113497221,0.0,0.0,0.0,0.0,0.0045587156,0.0181348474,0.0105613025,0.0113497221,0.0053081549,0.0131327207,0.010202665,0.0099335768,0.0027600408,0.0054633512,0.0067899611,0.0054820193,,,,,,,,
PANG,PUERTO ANGEL,15.666837,-96.490506,seismic,Stations_UNAM,ROCA SEDIMENTARIA,0.0047779817,0.0063394507,0.0048222633,0.0051238948,0.0,0.0,0.0,0.0,0.0037510703,0.0063394507,0.0048222633,0.0049909557,0.0047779817,0.0054671772,0.0043014129,0.0051238948,0.0033816514,0.0049380364,0.0052835623,0.0037489188,,,,,,,,
SLPA,SAN LUCAS PATHE,19.928698,-99.833027,seismic,Stations_UNAM,ROCA,0.0045754332,0.0091667972,0.0085316161,0.0089581483,0.0,0.0,0.0,0.0,0.0045754332,0.0091667972,0.0085316161,0.0064871318,0.0039902141,0.0088117523,0.0082079609,0.0089581483,0.0032943935,0.006252543,0.0072795479,0.0078099519,,,,,,,,
ACAM,ACAMBARO,20.043186,-100.716777,seismic,Stations_UNAM,ROCA,0.0045655454,0.0053172701,0.0067064194,0.0087327433,0.0,0.0,0.0,0.0,0.0037024465,0.0053172701,0.0067064194,0.0070432839,0.0045655454,0.005144768,0.0065102617,0.0087327433,0.0022285423,0.003373175,0.0060292778,0.0040340932,,,,,,,,
SCRU,SALINA CRUZ,16.187519,-95.209239,seismic,Stations_UNAM,ROCA,0.004256473,0.0115236864,0.0090817672,0.013473876,0.0,0.0,0.0,0.0,0.004256473,0.0085614358,0.0069782483,0.013473876,0.0031379205,0.0115236864,0.0090817672,0.0073981796,0.0022949032,0.0068030099,0.0036880533,0.0067617815,,,,,,,,
SJAL,SAN JUAN DE ALIMA,18.585371,-103.670344,seismic,Stations_UNAM,ROCA,0.0035819572,0.0047924999,0.0036590569,0.0026486465,0.0,0.0,0.0,0.0,0.003188685,0.0047924999,0.0036590569,0.0026486465,0.0035819572,0.0045440004,0.0030475769,0.0022456657,0.0013609582,0.0024001901,0.0034196047,0.002988913,,,,,,,,
COMA,COMALA,19.325266,-103.760813,seismic,Stations_UNAM,ROCA,0.002277472,0.0060982041,0.0069299802,0.0086690126,0.0,0.0,0.0,0.0,0.002277472,0.004995939,0.0069299802,0.0086690126,0.0019553517,0.0060982041,0.0065488687,0.0070292773,0.0014342508,0.0022301487,0.0035167474,0.0057280756,,,,,,,,
CHPA,PREPARATORIA ARRIAGA,16.247374,-93.912575,seismic,Stations_UNAM,?,0.0021788991,0.005013637,0.0024866926,0.0029214378,0.0,0.0,0.0,0.0,0.0021788991,0.005013637,0.0024866926,0.0029214378,0.0014706422,0.0018954847,0.001710906,0.0019087511,0.0021424057,0.0025682146,0.0018805599,0.0020141298,,,,,,,,
CDGU,CIUDAD GUZMAN,19.699521,-103.447815,seismic,Stations_UNAM,ROCA,0.0021557594,0.0063346696,0.0039208912,0.0021578408,0.0,0.0,0.0,0.0,0.0021557594,0.0063346696,0.0035331429,0.0019418134,0.0018395515,0.0047540437,0.0039208912,0.0021578408,0.0009704383,0.0017247083,0.00229431,0.0016929158,,,,,,,,
COLL,COLIMILLA,19.190906,-104.680633,seismic,Stations_UNAM,ROCA,0.0014171254,0.0034978909,0.0023826893,0.0022332374,0.0,0.0,0.0,0.0,0.0013987768,0.0034978909,0.0023826893,0.0022332374,0.0014171254,0.0025100527,0.0014607547,0.0012639627,0.0009388379,0.0010627768,0.0010653631,0.001481298,,,,,,,,
TAJN,TAPACHULA JARDIN DE NINOS JM VILLALPANDO,14.922677,-92.270957,seismic,Stations_UNAM,BLANDO,0.0012569827,0.0041585487,0.002029244,0.0020368045,0.0,0.0,0.0,0.0,0.0010906218,0.0041585487,0.0017402174,0.0019539643,0.0012569827,0.0028902184,0.002029244,0.0020368045,0.0005117227,0.0022126618,0.0011767812,0.0012339675,,,,,,,,
TGBT,TUXTLA GUTIERREZ CBTIS 144,16.776805,-93.089492,seismic,Stations_UNAM,ROCA,0.0009496432,0.0035812943,0.0021879621,0.0024516687,0.0,0.0,0.0,0.0,0.0009496432,0.0035812943,0.0021879621,0.0024516687,0.0008539246,0.0022798516,0.0010371114,0.0015947733,0.0005957187,0.0017967017,0.0012742522,0.001959477,,,,,,,,
CH84,Culhuacán,19.33,-99.1254,seismic,Stations_CDMX_GEO_DATA_And_Cires,IIIa,0.225599,,,,0.0,,,,0.14896,,,,0.225599,,,,0.08381,,,,,,,,,,,
JC54,Parque Jardines de Coyoacán,19.313,-99.1272,seismic,Stations_CDMX_GEO_DATA_And_Cires,IIIa,0.220267,,,,0.0,,,,0.220267,,,,0.204106,,,,0.059855,,,,,,,,,,,
MI15,Miramontes,19.2834,-99.1253,seismic,Stations_CDMX_GEO_DATA_And_Cires,IIIa,0.207193,,,,0.0,,,,0.207193,,,,0.133427,,,,0.055292,,,,,,,,,,,
TH35,Tláhuac,19.2786,-99.0,seismic,Stations_CDMX_GEO_DATA_And_Cires,IIId,0.189939,,,,0.0,,,,0.189939,,,,0.186689,,,,0.058995,,,,,,,,,,,
DX37,DGCOH Xotepingo,19.3322,-99.1439,seismic,Stations_CDMX_GEO_DATA_And_Cires,II,0.187726,,,,0.0,,,,0.187726,,,,0.123941,,,,0.052372,,,,,,,,,,,
SI53,San Simón,19.3753,-99.1483,seismic,Stations_CDMX_GEO_DATA_And_Cires,IIIa,0.177565,,,,0.0,,,,0.129029,,,,0.177565,,,,0.056784,,,,,,,,,,,
XO36,"Jardín de Niños ""Xochimilco""",19.2711,-99.1024,seismic,Stations_CDMX_GEO_DATA_And_Cires,IIIc,0.173557,,,,0.0,,,,0.124141,,,,0.173557,,,,0.05053,,,,,,,,,,,
CU80,"Esc. Prim. ""Aurora López Velarde""",19.293638,-99.1037,seismic,Stations_CDMX_GEO_DATA_And_Cires,IIIc,0.168301,,,,0.0,,,,0.144068,,,,0.168301,,,,0.041722,,,,,,,,,,,
IB22,Esc. Sec. Téc. No. 95,19.345,-99.1297,seismic,Stations_CDMX_GEO_DATA_And_Cires,IIIa,0.160882,,,,0.0,,,,0.119013,,,,0.160882,,,,0.046211,,,,,,,,,,,
LI33,Liconsa,19.3064,-98.9631,seismic,Stations_CDMX_GEO_DATA_And_Cires,IIIa,0.137931,,,,0.0,,,,0.137931,,,,0.113381,,,,0.065256,,,,,,,,,,,
AP68,"Jardín de niños ""juan B. de la Salle”",19.3809,-99.1068,seismic,Stations_CDMX_GEO_DATA_And_Cires,IIIc,0.133949,,,,0.0,,,,0.115228,,,,0.133949,,,,0.081396,,,,,,,,,,,
CP28,Cerro del Peñón,19.4385,-99.0839,seismic,Stations_CDMX_GEO_DATA_And_Cires,IIId,0.133438,,,,0.0,,,,0.09029,,,,0.133438,,,,0.081154,,,,,,,,,,,
GC38,"Jardín de niños ""Luz García Campillo""",19.3161,-99.1059,seismic,Stations_CDMX_GEO_DATA_And_Cires,IIIb,0.125624,,,,0.0,,,,0.125624,,,,0.124198,,,,0.043172,,,,,,,,,,,
UC44,Unidad Colonia IMSS,19.4337,-99.1654,seismic,Stations_CDMX_GEO_DATA_And_Cires,IIIa,0.125319,,,,0.0,,,,0.125319,,,,0.124925,,,,0.041726,,,,,,,,,,,
PE10,"Esc. Prim. ""Plutarco Elías Calles""",19.3809,-99.1318,seismic,Stations_CDMX_GEO_DATA_And_Cires,IIIb,0.12456,,,,0.0,,,,0.101405,,,,0.12456,,,,0.031148,,,,,,,,,,,
CJ04,Multifamiliar Juárez II,19.4098,-99.1566,seismic,Stations_CDMX_GEO_DATA_And_Cires,IIIb,0.123928,,,,0.0,,,,0.123928,,,,0.097064,,,,0.034778,,,,,,,,,,,
LV17,Lindavista,19.4931,-99.1275,seismic,Stations_CDMX_GEO_DATA_And_Cires,IIIa,0.123016,,,,0.0,,,,0.123016,,,,0.104138,,,,0.025927,,,,,,,,,,,
MY19,Meyehualco,19.3461,-99.0433,seismic,Stations_CDMX_GEO_DATA_And_Cires,IIIc,0.119877,,,,0.0,,,,0.119877,,,,0.111648,,,,0.085394,,,,,,,,,,,
AO24,Alberca olímpica,19.358,-99.1539,seismic,Stations_CDMX_GEO_DATA_And_Cires,II,0.119652,,,,0.0,,,,0.106394,,,,0.119652,,,,0.047917,,,,,,,,,,,
GR27,Granjas,19.4747,-99.1797,seismic,Stations_CDMX_GEO_DATA_And_Cires,II,0.119634,,,,0.0,,,,0.084672,,,,0.119634,,,,0.04477,,,,,,,,,,,
VG09,Valle Gómez,19.4539,-99.1225,seismic,Stations_CDMX_GEO_DATA_And_Cires,IIIb,0.119545,,,,0.0,,,,0.119545,,,,0.101846,,,,0.036447,,,,,,,,,,,
AL01,Alameda,19.4356,-99.1453,seismic,Stations_CDMX_GEO_DATA_And_Cires,IIIb,0.117115,,,,0.0,,,,0.117115,,,,0.108563,,,,0.040191,,,,,,,,,,,
AE02,Esc. Prim. González Garzón,19.429,-99.0584,seismic,Stations_CDMX_GEO_DATA_And_Cires,IIId,0.114862,,,,0.0,,,,0.096182,,,,0.114862,,,,0.042168,,,,,,,,,,,
BL45,Balderas,19.4253,-99.1481,seismic,Stations_CDMX_GEO_DATA_And_Cires,IIIb,0.114474,,,,0.0,,,,0.102273,,,,0.114474,,,,0.0397,,,,,,,,,,,
CI05,Cibeles,19.4186,-99.1653,seismic,Stations_CDMX_GEO_DATA_And_Cires,IIIb,0.114243,,,,0.0,,,,0.113319,,,,0.114243,,,,0.051197,,,,,,,,,,,
CO56,Esc. Sec. Téc. No. 18,19.4215,-99.159,seismic,Stations_CDMX_GEO_DATA_And_Cires,IIIb,0.113992,,,,0.0,,,,0.109762,,,,0.113992,,,,0.053819,,,,,,,,,,,
BA49,Buenos aires,19.4097,-99.145,seismic,Stations_CDMX_GEO_DATA_And_Cires,IIIc,0.113161,,,,0.0,,,,0.088938,,,,0.113161,,,,0.030643,,,,,,,,,,,
CJ03,Centro Urbano Juárez,19.4097,-99.1567,seismic,Stations_CDMX_GEO_DATA_And_Cires,IIIb,0.111994,,,,0.0,,,,0.111994,,,,0.098031,,,,0.036388,,,,,,,,,,,
XP06,"Jardín de niños ""Xochipilli""",19.4198,-99.1353,seismic,Stations_CDMX_GEO_DATA_And_Cires,IIIc,0.108189,,,,0.0,,,,0.081737,,,,0.108189,,,,0.030981,,,,,,,,,,,
JA43,Jamaica,19.4053,-99.125,seismic,Stations_CDMX_GEO_DATA_And_Cires,IIIc,0.106286,,,,0.0,,,,0.082884,,,,0.106286,,,,0.047826,,,,,,,,,,,
SP51,Sector Popular,19.3656,-99.1189,seismic,Stations_CDMX_GEO_DATA_And_Cires,IIIb,0.100381,,,,0.0,,,,0.077363,,,,0.100381,,,,0.038496,,,,,,,,,,,
GA62,Esc. Sec. Téc. No. 2,19.4385,-99.1401,seismic,Stations_CDMX_GEO_DATA_And_Cires,IIIb,0.097069,,,,0.0,,,,0.097069,,,,0.084035,,,,0.033662,,,,,,,,,,,
HJ72,Hospital Juárez,19.4251,-99.1301,seismic,Stations_CDMX_GEO_DATA_And_Cires,IIIc,0.096402,,,,0.0,,,,0.090334,,,,0.096402,,,,0.040602,,,,,,,,,,,
PD42,Palacio de los Deportes,19.4055,-99.0997,seismic,Stations_CDMX_GEO_DATA_And_Cires,IIId,0.096259,,,,0.0,,,,0.083767,,,,0.096259,,,,0.04237,,,,,,,,,,,
LI58,Esc. Sec. Dna. No. 23,19.4263,-99.1569,seismic,Stations_CDMX_GEO_DATA_And_Cires,IIIb,0.095809,,,,0.0,,,,0.095809,,,,0.089905,,,,0.051122,,,,,,,,,,,
BO39,Bondojito,19.4653,-99.1047,seismic,Stations_CDMX_GEO_DATA_And_Cires,IIIc,0.095143,,,,0.0,,,,0.077913,,,,0.095143,,,,0.024112,,,,,,,,,,,
AU46,Esc. Sec. Téc. No. 14,19.3832,-99.1681,seismic,Stations_CDMX_GEO_DATA_And_Cires,II,0.094892,,,,0.0,,,,0.077287,,,,0.094892,,,,0.033444,,,,,,,,,,,
VM29,Villa del Mar,19.3811,-99.1253,seismic,Stations_CDMX_GEO_DATA_And_Cires,IIIc,0.09483,,,,0.0,,,,0.085238,,,,0.09483,,,,0.035905,,,,,,,,,,,
CO47,Coyoacán,19.3714,-99.1703,seismic,Stations_CDMX_GEO_DATA_And_Cires,II,0.093956,,,,0.0,,,,0.071962,,,,0.093956,,,,0.030594,,,,,,,,,,,
FJ74,Fundación Javier Barros Sierra,19.299,-99.21,seismic,Stations_CDMX_GEO_DATA_And_Cires,I,0.092164,,,,0.0,,,,0.092164,,,,0.091056,,,,0.050052,,,,,,,,,,,
DM12,Deportivo Moctezuma,19.4312,-99.0963,seismic,Stations_CDMX_GEO_DATA_And_Cires,IIId,0.090516,,,,0.0,,,,0.087536,,,,0.090516,,,,0.041026,,,,,,,,,,,
AU11,Autódromo,19.3919,-99.0869,seismic,Stations_CDMX_GEO_DATA_And_Cires,IIId,0.090454,,,,0.0,,,,0.072106,,,,0.090454,,,,0.035168,,,,,,,,,,,
CA59,Candelaria,19.4258,-99.1183,seismic,Stations_CDMX_GEO_DATA_And_Cires,IIIc,0.089834,,,,0.0,,,,0.083504,,,,0.089834,,,,0.035618,,,,,,,,,,,
CS78,Esc. Sec. No. Téc. No. 243,19.3656,-99.2262,seismic,Stations_CDMX_GEO_DATA_And_Cires,I,0.087005,,,,0.0,,,,0.087005,,,,0.055516,,,,0.057994,,,,,,,,,,,
PA34,"Esc. Prim. ""Alvaro Obregón""",19.2016,-99.0491,seismic,Stations_CDMX_GEO_DATA_And_Cires,I,0.085563,,,,0.0,,,,0.083246,,,,0.085563,,,,0.059959,,,,,,,,,,,
ES57,Escandón,19.4017,-99.1775,seismic,Stations_CDMX_GEO_DATA_And_Cires,II,0.083911,,,,0.0,,,,0.070497,,,,0.083911,,,,0.02819,,,,,,,,,,,
TL08,"Deportivo ""Antonio Caso T-II""",19.45,-99.1336,seismic,Stations_CDMX_GEO_DATA_And_Cires,IIIb,0.082849,,,,0.0,,,,0.082849,,,,0.081208,,,,0.030178,,,,,,,,,,,
TL55,Tlatelolco,19.4536,-99.1425,seismic,Stations_CDMX_GEO_DATA_And_Cires,IIIb,0.082457,,,,0.0,,,,0.082457,,,,0.069196,,,,0.033571,,,,,,,,,,,
EO30,"Jardín ""Esparza Oteo""",19.3885,-99.1772,seismic,Stations_CDMX_GEO_DATA_And_Cires,II,0.082132,,,,0.0,,,,0.067507,,,,0.082132,,,,0.034529,,,,,,,,,,,
CE32,CETIS no. 57,19.3858,-99.0537,seismic,Stations_CDMX_GEO_DATA_And_Cires,IIId,0.080388,,,,0.0,,,,0.080388,,,,0.076759,,,,0.035772,,,,,,,,,,,
UI21,U. Iberoamericana,19.3696,-99.2655,seismic,Stations_CDMX_GEO_DATA_And_Cires,I,0.079261,,,,0.0,,,,0.07469,,,,0.079261,,,,0.035506,,,,,,,,,,,
RM48,"Esc. Prim. ""Rodolfo Menendez""",19.4359,-99.128,seismic,Stations_CDMX_GEO_DATA_And_Cires,IIIb,0.078013,,,,0.0,,,,0.061073,,,,0.078013,,,,0.037851,,,,,,,,,,,
DR16,Deportivo Reynosa,19.5005,-99.1829,seismic,Stations_CDMX_GEO_DATA_And_Cires,II,0.077174,,,,0.0,,,,0.07101,,,,0.077174,,,,0.025095,,,,,,,,,,,
CE18,Esc. Prim. “Ramón Espinoza Villanueva”,19.3398,-99.0847,seismic,Stations_CDMX_GEO_DATA_And_Cires,I,0.072736,,,,0.0,,,,0.072736,,,,0.051059,,,,0.02967,,,,,,,,,,,
RI76,República de Italia,19.4501,-99.0986,seismic,Stations_CDMX_GEO_DATA_And_Cires,IIIc,0.072657,,,,0.0,,,,0.052382,,,,0.072657,,,,0.02424,,,,,,,,,,,
ME52,"Esc. Sec. Téc. ""Rafaél Dondé""",19.4383,-99.182,seismic,Stations_CDMX_GEO_DATA_And_Cires,II,0.072164,,,,0.0,,,,0.062803,,,,0.072164,,,,0.031709,,,,,,,,,,,
TP13,Tlalpan,19.2922,-99.1708,seismic,Stations_CDMX_GEO_DATA_And_Cires,I,0.06658,,,,0.0,,,,0.060335,,,,0.06658,,,,0.051559,,,,,,,,,,,
CE23,CETIS Aragón,19.4619,-99.0642,seismic,Stations_CDMX_GEO_DATA_And_Cires,IIId,0.059987,,,,0.0,,,,0.052092,,,,0.059987,,,,0.026545,,,,,,,,,,,
MT50,Mariscal Tito,19.4253,-99.19,seismic,Stations_CDMX_GEO_DATA_And_Cires,I,0.058267,,,,0.0,,,,0.047051,,,,0.058267,,,,0.029802,,,,,,,,,,,
NZ20,NZ20,19.241,-99.0,seismic,Stations_Guillermo_Diaz_Fanas_2020_And_Cires,Zona IIId - Lago,0.14569,,,,0.0,,,,,,,,,,,,,,,,,,,,,,,
CS66,CS66,19.2222,-99.554,seismic,Stations_Guillermo_Diaz_Fanas_2020_And_Cires,Zona IIIc - Lago,0.1334,,,,0.0,,,,,,,,,,,,,,,,,,,,,,,
NZ31,NZ31,19.25,-99.129,seismic,Stations_Guillermo_Diaz_Fanas_2020_And_Cires,Zona IIId - Lago,0.11,,,,0.0,,,,,,,,,,,,,,,,,,,,,,,
SS60,SS60,19.2335,-99.849,seismic,Stations_Guillermo_Diaz_Fanas_2020_And_Cires,Zona IIIb – Lago,0.10585,,,,0.0,,,,,,,,,,,,,,,,,,,,,,,
IM40,IM40,19.2034,-99.1212,seismic,Stations_Guillermo_Diaz_Fanas_2020_And_Cires,Zona I - Lomas,0.08886,,,,0.0,,,,,,,,,,,,,,,,,,,,,,,
UTM:(14Q 0583 2106 1000),,19.0496,-98.2064,macroseismic,Stations_USGS,,0.439338,0.807155,,0.79511,0.8059,1.0131,,1.0822,,,,,,,,,,,,,329.8,7.9,0.3,0.875,50.7065,1.4737,0.151238,inferred
UTM:(14Q 0485 2139 1000),,19.3494,-99.1381,macroseismic,Stations_USGS,,0.435959,0.841563,,1.010597,0.8059,1.0131,,1.0822,,,,,,,,,,,,,229.54,8.1,0.3,0.875,58.6617,1.4737,0.192992,inferred
UTM:(14Q 0474 2098 1000),,18.9788,-99.2422,macroseismic,Stations_USGS,,0.425345,0.811919,,0.912202,0.8059,1.0131,,1.0822,,,,,,,,,,,,,541.18,8.0,0.3,0.875,54.5392,1.4737,0.174223,inferred
UTM:(14Q 0505 2131 1000),,19.2772,-98.9477,macroseismic,Stations_USGS,,0.355518,0.689814,,0.715617,0.8059,1.0131,,1.0822,,,,,,,,,,,,,245.27,7.7,0.3,0.875,43.8301,1.4737,0.137797,inferred
UTM:(14Q 0489 2133 1000),,19.2952,-99.0999,macroseismic,Stations_USGS,,0.345579,0.679608,,0.728162,0.8059,1.0131,,1.0822,,,,,,,,,,,,,180.0,7.7,0.3,0.875,43.8301,1.4737,0.140507,inferred
UTM:(14Q 0483 2132 1000),,19.2862,-99.157,macroseismic,Stations_USGS,,0.342818,0.676748,,0.731751,0.8059,1.0131,,1.0822,,,,,,,,,,,,,378.06,7.7,0.3,0.875,43.8301,1.4737,0.141283,inferred
UTM:(14Q 0474 2136 1000),,19.3222,-99.2427,macroseismic,Stations_USGS,,0.335738,0.669363,,0.741171,0.8059,1.0131,,1.0822,,,,,,,,,,,,,572.58,7.7,0.3,0.875,43.8301,1.4737,0.143323,inferred
UTM:(14Q 0496 2134 1000),,19.3043,-99.0333,macroseismic,Stations_USGS,,0.327664,0.64589,,0.668882,0.8059,1.0131,,1.0822,,,,,,,,,,,,,411.51,7.6,0.3,0.875,40.7499,1.4737,0.129357,inferred
UTM:(14Q 0485 2132 1000),,19.2862,-99.138,macroseismic,Stations_USGS,,0.323192,0.64124,,0.674541,0.8059,1.0131,,1.0822,,,,,,,,,,,,,385.13,7.6,0.3,0.875,40.7499,1.4737,0.130584,inferred
UTM:(14Q 0483 2139 1000),,19.3494,-99.1571,macroseismic,Stations_USGS,,0.299211,0.601828,,0.628756,0.8059,1.0131,,1.0822,,,,,,,,,,,,,260.37,7.5,0.3,0.875,37.8862,1.4737,0.122209,inferred
UTM:(14Q 0482 2146 1000),,19.4127,-99.1667,macroseismic,Stations_USGS,,0.295317,0.597698,,0.633824,0.8059,1.0131,,1.0822,,,,,,,,,,,,,240.32,7.5,0.3,0.875,37.8862,1.4737,0.123313,inferred
UTM:(14Q 0482 2147 1000),,19.4217,-99.1667,macroseismic,Stations_USGS,,0.294831,0.59718,,0.634465,0.8059,1.0131,,1.0822,,,,,,,,,,,,,249.13,7.5,0.3,0.875,37.8862,1.4737,0.123453,inferred
UTM:(14Q 0483 2149 1000),,19.4398,-99.1572,macroseismic,Stations_USGS,,0.294249,0.596561,,0.635233,0.8059,1.0131,,1.0822,,,,,,,,,,,,,235.22,7.5,0.3,0.875,37.8862,1.4737,0.123621,inferred
UTM:(14Q 0482 2149 1000),,19.4398,-99.1667,macroseismic,Stations_USGS,,0.293855,0.59614,,0.635755,0.8059,1.0131,,1.0822,,,,,,,,,,,,,242.94,7.5,0.3,0.875,37.8862,1.4737,0.123734,inferred
UTM:(14Q 0579 2104 1000),,19.0316,-98.2445,macroseismic,Stations_USGS,,0.286913,0.549607,,0.453429,0.8059,1.0131,,1.0822,,,,,,,,,,,,,235.95,7.2,0.3,0.875,30.447,1.4737,0.087954,inferred
UTM:(14Q 0480 2134 1000),,19.3042,-99.1856,macroseismic,Stations_USGS,,0.282132,0.570305,,0.579534,0.8059,1.0131,,1.0822,,,,,,,,,,,,,356.52,7.4,0.3,0.875,35.2237,1.4737,0.11294,inferred
UTM:(14Q 0480 2139 1000),,19.3494,-99.1857,macroseismic,Stations_USGS,,0.279876,0.567903,,0.582393,0.8059,1.0131,,1.0822,,,,,,,,,,,,,334.08,7.4,0.3,0.875,35.2237,1.4737,0.113565,inferred
UTM:(14Q 0479 2140 1000),,19.3584,-99.1952,macroseismic,Stations_USGS,,0.279005,0.566973,,0.583506,0.8059,1.0131,,1.0822,,,,,,,,,,,,,381.79,7.4,0.3,0.875,35.2237,1.4737,0.113808,inferred
UTM:(14Q 0483 2146 1000),,19.4127,-99.1572,macroseismic,Stations_USGS,,0.277885,0.565776,,0.584946,0.8059,1.0131,,1.0822,,,,,,,,,,,,,229.08,7.4,0.3,0.875,35.2237,1.4737,0.114123,inferred
UTM:(14Q 0482 2148 1000),,19.4308,-99.1667,macroseismic,Stations_USGS,,0.276581,0.564378,,0.586635,0.8059,1.0131,,1.0822,,,,,,,,,,,,,245.23,7.4,0.3,0.875,35.2237,1.4737,0.114492,inferred
UTM:(14Q 0482 2140 1000),,19.3585,-99.1666,macroseismic,Stations_USGS,,0.263357,0.537575,,0.537478,0.8059,1.0131,,1.0822,,,,,,,,,,,,,281.84,7.3,0.3,0.875,32.7484,1.4737,0.1051,inferred
UTM:(14Q 0483 2142 1000),,19.3765,-99.1571,macroseismic,Stations_USGS,,0.262877,0.537058,,0.538081,0.8059,1.0131,,1.0822,,,,,,,,,,,,,264.57,7.3,0.3,0.875,32.7484,1.4737,0.105232,inferred
UTM:(14Q 0474 2096 1000),,18.9607,-99.2422,macroseismic,Stations_USGS,,0.259051,0.520869,,0.482727,0.8059,1.0131,,1.0822,,,,,,,,,,,,,509.65,7.2,0.3,0.875,30.447,1.4737,0.094348,inferred
UTM:(14Q 0470 2140 1000),,19.3583,-99.2809,macroseismic,Stations_USGS,,0.258586,0.532433,,0.543535,0.8059,1.0131,,1.0822,,,,,,,,,,,,,513.65,7.3,0.3,0.875,32.7484,1.4737,0.106428,inferred
UTM:(14Q 0489 2099 1000),,18.988,-99.0998,macroseismic,Stations_USGS,,0.25132,0.501032,,0.437238,0.8059,1.0131,,1.0822,,,,,,,,,,,,,884.05,7.1,0.3,0.875,28.3073,1.4737,0.085504,inferred
UTM:(14Q 0484 2140 1000),,19.3585,-99.1476,macroseismic,Stations_USGS,,0.248207,0.50929,,0.495546,0.8059,1.0131,,1.0822,,,,,,,,,,,,,251.4,7.2,0.3,0.875,30.447,1.4737,0.097161,inferred
UTM:(14Q 0478 2139 1000),,19.3494,-99.2047,macroseismic,Stations_USGS,,0.246367,0.507301,,0.497812,0.8059,1.0131,,1.0822,,,,,,,,,,,,,464.86,7.2,0.3,0.875,30.447,1.4737,0.097659,inferred
UTM:(14Q 0485 2147 1000),,19.4217,-99.1381,macroseismic,Stations_USGS,,0.245629,0.506502,,0.498728,0.8059,1.0131,,1.0822,,,,,,,,,,,,,220.62,7.2,0.3,0.875,30.447,1.4737,0.09786,inferred
UTM:(14Q 0480 2145 1000),,19.4036,-99.1857,macroseismic,Stations_USGS,,0.244738,0.505535,,0.49984,0.8059,1.0131,,1.0822,,,,,,,,,,,,,362.65,7.2,0.3,0.875,30.447,1.4737,0.098105,inferred
UTM:(14Q 0581 2102 1000),,19.0135,-98.2256,macroseismic,Stations_USGS,,0.238927,0.466044,,0.35652,0.8059,1.0131,,1.0822,,,,,,,,,,,,,267.07,6.9,0.3,0.875,24.4685,1.4737,0.069742,inferred
UTM:(14Q 0484 2139 1000),,19.3494,-99.1476,macroseismic,Stations_USGS,,0.233627,0.482167,,0.457246,0.8059,1.0131,,1.0822,,,,,,,,,,,,,247.07,7.1,0.3,0.875,28.3073,1.4737,0.089901,inferred
HLIG,HLIG,17.829966,-97.803575,seismic,Stations_USGS,,0.232396,,,0.037238,0.0,,,0.0,,,,,,,,,,,,,555.72,6.2,0.63,0.0,14.29,,,inferred
UTM:(14Q 0491 2148 1000),,19.4308,-99.081,macroseismic,Stations_USGS,,0.232242,0.480662,,0.458916,0.8059,1.0131,,1.0822,,,,,,,,,,,,,222.43,7.1,0.3,0.875,28.3073,1.4737,0.090269,inferred
UTM:(14Q 0481 2145 1000),,19.4036,-99.1762,macroseismic,Stations_USGS,,0.230298,0.478543,,0.461286,0.8059,1.0131,,1.0822,,,,,,,,,,,,,291.13,7.1,0.3,0.875,28.3073,1.4737,0.090791,inferred
UTM:(14Q 0484 2148 1000),,19.4308,-99.1476,macroseismic,Stations_USGS,,0.230103,0.47833,,0.461525,0.8059,1.0131,,1.0822,,,,,,,,,,,,,195.83,7.1,0.3,0.875,28.3073,1.4737,0.090844,inferred
UTM:(14Q 0472 2140 1000),,19.3583,-99.2618,macroseismic,Stations_USGS,,0.229031,0.477157,,0.462849,0.8059,1.0131,,1.0822,,,,,,,,,,,,,445.4,7.1,0.3,0.875,28.3073,1.4737,0.091136,inferred
UTM:(14Q 0485 2138 1000),,19.3404,-99.138,macroseismic,Stations_USGS,,0.220237,0.456853,,0.421514,0.8059,1.0131,,1.0822,,,,,,,,,,,,,235.88,7.0,0.3,0.875,26.318,1.4737,0.083096,inferred
UTM:(14Q 0582 2109 1000),,19.0767,-98.2158,macroseismic,Stations_USGS,,0.219928,0.436077,,0.333496,0.8059,1.0131,,1.0822,,,,,,,,,,,,,304.8,6.8,0.3,0.875,22.749,1.4737,0.065528,inferred
UTM:(14Q 0483 2140 1000),,19.3585,-99.1571,macroseismic,Stations_USGS,,0.218833,0.455319,,0.42317,0.8059,1.0131,,1.0822,,,,,,,,,,,,,275.24,7.0,0.3,0.875,26.318,1.4737,0.083462,inferred
UTM:(14Q 0484 2141 1000),,19.3675,-99.1476,macroseismic,Stations_USGS,,0.218792,0.455274,,0.423219,0.8059,1.0131,,1.0822,,,,,,,,,,,,,252.87,7.0,0.3,0.875,26.318,1.4737,0.083473,inferred
UTM:(14Q 0484 2143 1000),,19.3856,-99.1476,macroseismic,Stations_USGS,,0.218054,0.454466,,0.424097,0.8059,1.0131,,1.0822,,,,,,,,,,,,,249.14,7.0,0.3,0.875,26.318,1.4737,0.083667,inferred
UTM:(14Q 0480 2140 1000),,19.3584,-99.1857,macroseismic,Stations_USGS,,0.217851,0.454244,,0.424338,0.8059,1.0131,,1.0822,,,,,,,,,,,,,332.5,7.0,0.3,0.875,26.318,1.4737,0.083721,inferred
UTM:(14Q 0476 2091 1000),,18.9156,-99.2232,macroseismic,Stations_USGS,,0.216956,0.443,,0.378233,0.8059,1.0131,,1.0822,,,,,,,,,,,,,455.66,6.9,0.3,0.875,24.4685,1.4737,0.07452,inferred
UTM:(14Q 0475 2090 1000),,18.9065,-99.2326,macroseismic,Stations_USGS,,0.21662,0.442639,,0.378593,0.8059,1.0131,,1.0822,,,,,,,,,,,,,446.22,6.9,0.3,0.875,24.4685,1.4737,0.074599,inferred
UTM:(14Q 0480 2149 1000),,19.4398,-99.1858,macroseismic,Stations_USGS,,0.214694,0.450771,,0.428152,0.8059,1.0131,,1.0822,,,,,,,,,,,,,277.34,7.0,0.3,0.875,26.318,1.4737,0.084564,inferred
UTM:(14Q 0471 2141 1000),,19.3674,-99.2714,macroseismic,Stations_USGS,,0.214563,0.450626,,0.428313,0.8059,1.0131,,1.0822,,,,,,,,,,,,,470.41,7.0,0.3,0.875,26.318,1.4737,0.0846,inferred
UTM:(14Q 0584 2106 1000),,19.0495,-98.1969,macroseismic,Stations_USGS,,0.207999,0.41389,,0.306822,0.8059,1.0131,,1.0822,,,,,,,,,,,,,302.41,6.7,0.3,0.875,21.1503,1.4737,0.060433,inferred
UTM:(14Q 0480 2136 1000),,19.3223,-99.1856,macroseismic,Stations_USGS,,0.206029,0.431126,,0.390406,0.8059,1.0131,,1.0822,,,,,,,,,,,,,393.42,6.9,0.3,0.875,24.4685,1.4737,0.077213,inferred
UTM:(14Q 0479 2138 1000),,19.3404,-99.1952,macroseismic,Stations_USGS,,0.205047,0.430045,,0.39155,0.8059,1.0131,,1.0822,,,,,,,,,,,,,406.55,6.9,0.3,0.875,24.4685,1.4737,0.077466,inferred
UTM:(14Q 0481 2141 1000),,19.3675,-99.1762,macroseismic,Stations_USGS,,0.204679,0.429639,,0.391982,0.8059,1.0131,,1.0822,,,,,,,,,,,,,300.16,6.9,0.3,0.875,24.4685,1.4737,0.077562,inferred
UTM:(14Q 0481 2142 1000),,19.3765,-99.1762,macroseismic,Stations_USGS,,0.204346,0.429271,,0.392373,0.8059,1.0131,,1.0822,,,,,,,,,,,,,292.68,6.9,0.3,0.875,24.4685,1.4737,0.077649,inferred
UTM:(14Q 0482 2145 1000),,19.4036,-99.1667,macroseismic,Stations_USGS,,0.203634,0.428484,,0.393214,0.8059,1.0131,,1.0822,,,,,,,,,,,,,269.13,6.9,0.3,0.875,24.4685,1.4737,0.077835,inferred
UTM:(14Q 0485 2148 1000),,19.4308,-99.1381,macroseismic,Stations_USGS,,0.203447,0.428277,,0.393435,0.8059,1.0131,,1.0822,,,,,,,,,,,,,198.7,6.9,0.3,0.875,24.4685,1.4737,0.077884,inferred
UTM:(14Q 0473 2138 1000),,19.3403,-99.2523,macroseismic,Stations_USGS,,0.203139,0.427936,,0.3938,0.8059,1.0131,,1.0822,,,,,,,,,,,,,459.21,6.9,0.3,0.875,24.4685,1.4737,0.077966,inferred
UTM:(14Q 0483 2151 1000),,19.4579,-99.1572,macroseismic,Stations_USGS,,0.201883,0.426543,,0.3953,0.8059,1.0131,,1.0822,,,,,,,,,,,,,222.99,6.9,0.3,0.875,24.4685,1.4737,0.078298,inferred
UTM:(14Q 0481 2150 1000),,19.4488,-99.1762,macroseismic,Stations_USGS,,0.201687,0.426325,,0.395536,0.8059,1.0131,,1.0822,,,,,,,,,,,,,243.79,6.9,0.3,0.875,24.4685,1.4737,0.078351,inferred
UTM:(14Q 0481 2138 1000),,19.3404,-99.1761,macroseismic,Stations_USGS,,0.193275,0.407444,,0.360976,0.8059,1.0131,,1.0822,,,,,,,,,,,,,310.3,6.8,0.3,0.875,22.749,1.4737,0.071609,inferred
UTM:(14Q 0483 2148 1000),,19.4308,-99.1572,macroseismic,Stations_USGS,,0.190655,0.404532,,0.364008,0.8059,1.0131,,1.0822,,,,,,,,,,,,,233.67,6.8,0.3,0.875,22.749,1.4737,0.072283,inferred
UTM:(14Q 0473 2142 1000),,19.3764,-99.2523,macroseismic,Stations_USGS,,0.189749,0.403519,,0.365073,0.8059,1.0131,,1.0822,,,,,,,,,,,,,473.55,6.8,0.3,0.875,22.749,1.4737,0.07252,inferred
UTM:(14Q 0477 2149 1000),,19.4397,-99.2143,macroseismic,Stations_USGS,,0.188797,0.402454,,0.366199,0.8059,1.0131,,1.0822,,,,,,,,,,,,,375.84,6.8,0.3,0.875,22.749,1.4737,0.072771,inferred
UTM:(14Q 0583 2101 1000),,19.0044,-98.2066,macroseismic,Stations_USGS,,0.186437,0.373255,,0.259372,0.8059,1.0131,,1.0822,,,,,,,,,,,,,257.63,6.5,0.3,0.875,18.2821,1.4737,0.051327,inferred
UTM:(14Q 0481 2136 1000),,19.3223,-99.1761,macroseismic,Stations_USGS,,0.182205,0.38606,,0.33276,0.8059,1.0131,,1.0822,,,,,,,,,,,,,359.06,6.7,0.3,0.875,21.1503,1.4737,0.066187,inferred
UTM:(14Q 0482 2139 1000),,19.3494,-99.1666,macroseismic,Stations_USGS,,0.181595,0.385381,,0.333444,0.8059,1.0131,,1.0822,,,,,,,,,,,,,274.07,6.7,0.3,0.875,21.1503,1.4737,0.06634,inferred
UTM:(14Q 0482 2142 1000),,19.3765,-99.1666,macroseismic,Stations_USGS,,0.180699,0.38438,,0.334456,0.8059,1.0131,,1.0822,,,,,,,,,,,,,281.4,6.7,0.3,0.875,21.1503,1.4737,0.066565,inferred
UTM:(14Q 0483 2143 1000),,19.3856,-99.1571,macroseismic,Stations_USGS,,0.180659,0.384335,,0.334502,0.8059,1.0131,,1.0822,,,,,,,,,,,,,271.05,6.7,0.3,0.875,21.1503,1.4737,0.066576,inferred
UTM:(14Q 0483 2144 1000),,19.3946,-99.1571,macroseismic,Stations_USGS,,0.180359,0.383999,,0.334843,0.8059,1.0131,,1.0822,,,,,,,,,,,,,261.29,6.7,0.3,0.875,21.1503,1.4737,0.066652,inferred
UTM:(14Q 0482 2144 1000),,19.3946,-99.1667,macroseismic,Stations_USGS,,0.180099,0.383708,,0.335139,0.8059,1.0131,,1.0822,,,,,,,,,,,,,287.34,6.7,0.3,0.875,21.1503,1.4737,0.066718,inferred
UTM:(14Q 0480 2143 1000),,19.3856,-99.1857,macroseismic,Stations_USGS,,0.179874,0.383456,,0.335396,0.8059,1.0131,,1.0822,,,,,,,,,,,,,325.69,6.7,0.3,0.875,21.1503,1.4737,0.066775,inferred
UTM:(14Q 0475 2091 1000),,18.9156,-99.2327,macroseismic,Stations_USGS,,0.179571,0.374443,,0.298509,0.8059,1.0131,,1.0822,,,,,,,,,,,,,441.2,6.6,0.3,0.875,19.664,1.4737,0.059337,inferred
UTM:(14Q 0483 2150 1000),,19.4488,-99.1572,macroseismic,Stations_USGS,,0.178557,0.381978,,0.33691,0.8059,1.0131,,1.0822,,,,,,,,,,,,,234.91,6.7,0.3,0.875,21.1503,1.4737,0.067113,inferred
UTM:(14Q 0443 2028 1000),,18.3455,-99.5348,macroseismic,Stations_USGS,,0.17731,0.380572,,0.338361,0.8059,1.0131,,1.0822,,,,,,,,,,,,,462.83,6.7,0.3,0.875,21.1503,1.4737,0.067437,inferred
UTM:(14Q 0486 2142 1000),,19.3766,-99.1286,macroseismic,Stations_USGS,,0.170781,0.364692,,0.307835,0.8059,1.0131,,1.0822,,,,,,,,,,,,,189.04,6.6,0.3,0.875,19.664,1.4737,0.061419,inferred
UTM:(14Q 0478 2138 1000),,19.3403,-99.2047,macroseismic,Stations_USGS,,0.169867,0.363664,,0.30885,0.8059,1.0131,,1.0822,,,,,,,,,,,,,442.02,6.6,0.3,0.875,19.664,1.4737,0.061646,inferred
UTM:(14Q 0484 2145 1000),,19.4037,-99.1476,macroseismic,Stations_USGS,,0.169429,0.363171,,0.309338,0.8059,1.0131,,1.0822,,,,,,,,,,,,,221.17,6.6,0.3,0.875,19.664,1.4737,0.061755,inferred
UTM:(14Q 0481 2143 1000),,19.3856,-99.1762,macroseismic,Stations_USGS,,0.169267,0.362988,,0.30952,0.8059,1.0131,,1.0822,,,,,,,,,,,,,293.18,6.6,0.3,0.875,19.664,1.4737,0.061796,inferred
UTM:(14Q 0481 2144 1000),,19.3946,-99.1762,macroseismic,Stations_USGS,,0.168991,0.362677,,0.309829,0.8059,1.0131,,1.0822,,,,,,,,,,,,,296.45,6.6,0.3,0.875,19.664,1.4737,0.061865,inferred
UTM:(14Q 0480 2144 1000),,19.3946,-99.1857,macroseismic,Stations_USGS,,0.168749,0.362404,,0.310102,0.8059,1.0131,,1.0822,,,,,,,,,,,,,359.73,6.6,0.3,0.875,19.664,1.4737,0.061926,inferred
UTM:(14Q 0483 2147 1000),,19.4217,-99.1572,macroseismic,Stations_USGS,,0.168627,0.362266,,0.310239,0.8059,1.0131,,1.0822,,,,,,,,,,,,,236.25,6.6,0.3,0.875,19.664,1.4737,0.061957,inferred
UTM:(14Q 0471 2140 1000),,19.3583,-99.2714,macroseismic,Stations_USGS,,0.167527,0.361022,,0.311486,0.8059,1.0131,,1.0822,,,,,,,,,,,,,522.03,6.6,0.3,0.875,19.664,1.4737,0.062236,inferred
UTM:(14Q 0575 2106 1000),,19.0499,-98.2825,macroseismic,Stations_USGS,,0.163587,0.33286,,0.222142,0.8059,1.0131,,1.0822,,,,,,,,,,,,,249.61,6.3,0.3,0.875,15.8028,1.4737,0.044236,inferred
UTM:(14Q 0584 2105 1000),,19.0405,-98.197,macroseismic,Stations_USGS,,0.162619,0.331823,,0.222951,0.8059,1.0131,,1.0822,,,,,,,,,,,,,311.16,6.3,0.3,0.875,15.8028,1.4737,0.044417,inferred
UTM:(14Q 0484 2133 1000),,19.2952,-99.1475,macroseismic,Stations_USGS,,0.162455,0.347191,,0.282211,0.8059,1.0131,,1.0822,,,,,,,,,,,,,297.15,6.5,0.3,0.875,18.2821,1.4737,0.056419,inferred
UTM:(14Q 0483 2137 1000),,19.3314,-99.1571,macroseismic,Stations_USGS,,0.161118,0.345686,,0.283644,0.8059,1.0131,,1.0822,,,,,,,,,,,,,319.05,6.5,0.3,0.875,18.2821,1.4737,0.05674,inferred
UTM:(14Q 0485 2140 1000),,19.3585,-99.1381,macroseismic,Stations_USGS,,0.160794,0.34532,,0.283995,0.8059,1.0131,,1.0822,,,,,,,,,,,,,234.58,6.5,0.3,0.875,18.2821,1.4737,0.056819,inferred
UTM:(14Q 0480 2148 1000),,19.4307,-99.1857,macroseismic,Stations_USGS,,0.157543,0.341633,,0.287572,0.8059,1.0131,,1.0822,,,,,,,,,,,,,280.77,6.5,0.3,0.875,18.2821,1.4737,0.057621,inferred
UTM:(14Q 0481 2149 1000),,19.4398,-99.1762,macroseismic,Stations_USGS,,0.157499,0.341582,,0.287621,0.8059,1.0131,,1.0822,,,,,,,,,,,,,262.8,6.5,0.3,0.875,18.2821,1.4737,0.057632,inferred
UTM:(14Q 0472 2141 1000),,19.3674,-99.2619,macroseismic,Stations_USGS,,0.157427,0.3415,,0.287702,0.8059,1.0131,,1.0822,,,,,,,,,,,,,479.69,6.5,0.3,0.875,18.2821,1.4737,0.05765,inferred
UTM:(14Q 0478 2148 1000),,19.4307,-99.2048,macroseismic,Stations_USGS,,0.157108,0.341135,,0.28806,0.8059,1.0131,,1.0822,,,,,,,,,,,,,382.07,6.5,0.3,0.875,18.2821,1.4737,0.057731,inferred
UTM:(14Q 0470 2148 1000),,19.4306,-99.281,macroseismic,Stations_USGS,,0.155356,0.33913,,0.290047,0.8059,1.0131,,1.0822,,,,,,,,,,,,,414.98,6.5,0.3,0.875,18.2821,1.4737,0.058177,inferred
UTM:(14Q 0489 2135 1000),,19.3133,-99.0999,macroseismic,Stations_USGS,,0.153341,0.329185,,0.259953,0.8059,1.0131,,1.0822,,,,,,,,,,,,,281.0,6.4,0.3,0.875,16.9973,1.4737,0.052103,inferred
UTM:(14Q 0581 2106 1000),,19.0496,-98.2254,macroseismic,Stations_USGS,,0.152824,0.31389,,0.20592,0.8059,1.0131,,1.0822,,,,,,,,,,,,,394.04,6.2,0.3,0.875,14.6923,1.4737,0.041143,inferred
UTM:(14Q 0482 2133 1000),,19.2952,-99.1666,macroseismic,Stations_USGS,,0.152156,0.327845,,0.261192,0.8059,1.0131,,1.0822,,,,,,,,,,,,,366.55,6.4,0.3,0.875,16.9973,1.4737,0.052381,inferred
UTM:(14Q 0436 2128 1000),,19.2491,-99.6042,macroseismic,Stations_USGS,,0.150904,0.333986,,0.295262,0.8059,1.0131,,1.0822,,,,,,,,,,,,,307.38,6.5,0.3,0.875,18.2821,1.4737,0.059351,inferred
UTM:(14Q 0492 2149 1000),,19.4399,-99.0714,macroseismic,Stations_USGS,,0.150148,0.325563,,0.263328,0.8059,1.0131,,1.0822,,,,,,,,,,,,,229.11,6.4,0.3,0.875,16.9973,1.4737,0.052861,inferred
UTM:(14Q 0480 2142 1000),,19.3765,-99.1857,macroseismic,Stations_USGS,,0.149484,0.324805,,0.264044,0.8059,1.0131,,1.0822,,,,,,,,,,,,,319.62,6.4,0.3,0.875,16.9973,1.4737,0.053023,inferred
UTM:(14Q 0484 2146 1000),,19.4127,-99.1476,macroseismic,Stations_USGS,,0.149349,0.324652,,0.26419,0.8059,1.0131,,1.0822,,,,,,,,,,,,,218.5,6.4,0.3,0.875,16.9973,1.4737,0.053055,inferred
UTM:(14Q 0486 2148 1000),,19.4308,-99.1286,macroseismic,Stations_USGS,,0.149244,0.324532,,0.264304,0.8059,1.0131,,1.0822,,,,,,,,,,,,,237.57,6.4,0.3,0.875,16.9973,1.4737,0.053081,inferred
UTM:(14Q 0481 2146 1000),,19.4127,-99.1762,macroseismic,Stations_USGS,,0.148725,0.323938,,0.264868,0.8059,1.0131,,1.0822,,,,,,,,,,,,,262.64,6.4,0.3,0.875,16.9973,1.4737,0.053208,inferred
UTM:(14Q 0481 2147 1000),,19.4217,-99.1762,macroseismic,Stations_USGS,,0.148483,0.323661,,0.265133,0.8059,1.0131,,1.0822,,,,,,,,,,,,,278.34,6.4,0.3,0.875,16.9973,1.4737,0.053268,inferred
UTM:(14Q 0582 2108 1000),,19.0677,-98.2158,macroseismic,Stations_USGS,,0.142659,0.29588,,0.190973,0.8059,1.0131,,1.0822,,,,,,,,,,,,,288.43,6.1,0.3,0.875,13.6598,1.4737,0.038286,inferred
UTM:(14Q 0483 2138 1000),,19.3404,-99.1571,macroseismic,Stations_USGS,,0.142027,0.309026,,0.242241,0.8059,1.0131,,1.0822,,,,,,,,,,,,,267.97,6.3,0.3,0.875,15.8028,1.4737,0.048746,inferred
UTM:(14Q 0481 2137 1000),,19.3313,-99.1761,macroseismic,Stations_USGS,,0.141824,0.308794,,0.242454,0.8059,1.0131,,1.0822,,,,,,,,,,,,,323.62,6.3,0.3,0.875,15.8028,1.4737,0.048794,inferred
UTM:(14Q 0489 2148 1000),,19.4308,-99.1,macroseismic,Stations_USGS,,0.140798,0.307617,,0.243536,0.8059,1.0131,,1.0822,,,,,,,,,,,,,189.03,6.3,0.3,0.875,15.8028,1.4737,0.049038,inferred
UTM:(14Q 0480 2141 1000),,19.3675,-99.1857,macroseismic,Stations_USGS,,0.140691,0.307494,,0.243649,0.8059,1.0131,,1.0822,,,,,,,,,,,,,349.63,6.3,0.3,0.875,15.8028,1.4737,0.049063,inferred
UTM:(14Q 0485 2152 1000),,19.4669,-99.1382,macroseismic,Stations_USGS,,0.139101,0.305662,,0.245352,0.8059,1.0131,,1.0822,,,,,,,,,,,,,215.97,6.3,0.3,0.875,15.8028,1.4737,0.049448,inferred
UTM:(14Q 0472 2142 1000),,19.3764,-99.2619,macroseismic,Stations_USGS,,0.138799,0.305313,,0.24568,0.8059,1.0131,,1.0822,,,,,,,,,,,,,507.61,6.3,0.3,0.875,15.8028,1.4737,0.049522,inferred
UTM:(14Q 0478 2149 1000),,19.4398,-99.2048,macroseismic,Stations_USGS,,0.138499,0.304966,,0.246005,0.8059,1.0131,,1.0822,,,,,,,,,,,,,361.95,6.3,0.3,0.875,15.8028,1.4737,0.049595,inferred
UTM:(14Q 0481 2156 1000),,19.503,-99.1763,macroseismic,Stations_USGS,,0.137483,0.303788,,0.247118,0.8059,1.0131,,1.0822,,,,,,,,,,,,,228.76,6.3,0.3,0.875,15.8028,1.4737,0.049847,inferred
UTM:(14Q 0578 2103 1000),,19.0226,-98.2541,macroseismic,Stations_USGS,,0.136482,0.282529,,0.174464,0.8059,1.0131,,1.0822,,,,,,,,,,,,,277.49,6.0,0.3,0.875,12.6998,1.4737,0.035031,inferred
UTM:(14Q 0475 2156 1000),,19.503,-99.2335,macroseismic,Stations_USGS,,0.136444,0.302579,,0.24827,0.8059,1.0131,,1.0822,,,,,,,,,,,,,415.16,6.3,0.3,0.875,15.8028,1.4737,0.050107,inferred
UTM:(14Q 0483 2134 1000),,19.3042,-99.1571,macroseismic,Stations_USGS,,0.134347,0.293329,,0.222843,0.8059,1.0131,,1.0822,,,,,,,,,,,,,351.12,6.2,0.3,0.875,14.6923,1.4737,0.044951,inferred
UTM:(14Q 0488 2142 1000),,19.3766,-99.1095,macroseismic,Stations_USGS,,0.13353,0.292391,,0.223677,0.8059,1.0131,,1.0822,,,,,,,,,,,,,214.31,6.2,0.3,0.875,14.6923,1.4737,0.045139,inferred
UTM:(14Q 0482 2137 1000),,19.3313,-99.1666,macroseismic,Stations_USGS,,0.133475,0.292327,,0.223734,0.8059,1.0131,,1.0822,,,,,,,,,,,,,318.49,6.2,0.3,0.875,14.6923,1.4737,0.045152,inferred
UTM:(14Q 0475 2132 1000),,19.2861,-99.2332,macroseismic,Stations_USGS,,0.133012,0.291794,,0.224211,0.8059,1.0131,,1.0822,,,,,,,,,,,,,545.32,6.2,0.3,0.875,14.6923,1.4737,0.04526,inferred
UTM:(14Q 0478 2145 1000),,19.4036,-99.2048,macroseismic,Stations_USGS,,0.130974,0.289435,,0.226343,0.8059,1.0131,,1.0822,,,,,,,,,,,,,433.07,6.2,0.3,0.875,14.6923,1.4737,0.045742,inferred
UTM:(14Q 0481 2148 1000),,19.4307,-99.1762,macroseismic,Stations_USGS,,0.130892,0.28934,,0.22643,0.8059,1.0131,,1.0822,,,,,,,,,,,,,276.71,6.2,0.3,0.875,14.6923,1.4737,0.045762,inferred
UTM:(14Q 0478 2160 1000),,19.5392,-99.2049,macroseismic,Stations_USGS,,0.127888,0.285829,,0.229675,0.8059,1.0131,,1.0822,,,,,,,,,,,,,290.53,6.2,0.3,0.875,14.6923,1.4737,0.046498,inferred
UTM:(14Q 0584 2103 1000),,19.0224,-98.1971,macroseismic,Stations_USGS,,0.1275,0.266425,,0.161726,0.8059,1.0131,,1.0822,,,,,,,,,,,,,309.62,5.9,0.3,0.875,11.8073,1.4737,0.032582,inferred
UTM:(14Q 0480 2137 1000),,19.3313,-99.1856,macroseismic,Stations_USGS,,0.125031,0.27606,,0.207052,0.8059,1.0131,,1.0822,,,,,,,,,,,,,367.31,6.1,0.3,0.875,13.6598,1.4737,0.041916,inferred
UTM:(14Q 0481 2140 1000),,19.3585,-99.1761,macroseismic,Stations_USGS,,0.124615,0.275576,,0.207476,0.8059,1.0131,,1.0822,,,,,,,,,,,,,296.19,6.1,0.3,0.875,13.6598,1.4737,0.042013,inferred
UTM:(14Q 0439 2138 1000),,19.3395,-99.576,macroseismic,Stations_USGS,,0.124597,0.281939,,0.233374,0.8059,1.0131,,1.0822,,,,,,,,,,,,,239.98,6.2,0.3,0.875,14.6923,1.4737,0.047338,inferred
UTM:(14Q 0477 2137 1000),,19.3313,-99.2142,macroseismic,Stations_USGS,,0.124443,0.275376,,0.207652,0.8059,1.0131,,1.0822,,,,,,,,,,,,,465.52,6.1,0.3,0.875,13.6598,1.4737,0.042053,inferred
UTM:(14Q 0482 2150 1000),,19.4488,-99.1667,macroseismic,Stations_USGS,,0.122755,0.273406,,0.209397,0.8059,1.0131,,1.0822,,,,,,,,,,,,,243.58,6.1,0.3,0.875,13.6598,1.4737,0.042449,inferred
UTM:(14Q 0484 2152 1000),,19.4669,-99.1477,macroseismic,Stations_USGS,,0.122665,0.273301,,0.209491,0.8059,1.0131,,1.0822,,,,,,,,,,,,,215.08,6.1,0.3,0.875,13.6598,1.4737,0.04247,inferred
UTM:(14Q 0473 2143 1000),,19.3855,-99.2524,macroseismic,Stations_USGS,,0.122554,0.273171,,0.209607,0.8059,1.0131,,1.0822,,,,,,,,,,,,,460.43,6.1,0.3,0.875,13.6598,1.4737,0.042497,inferred
UTM:(14Q 0476 2159 1000),,19.5301,-99.224,macroseismic,Stations_USGS,,0.120068,0.270243,,0.212257,0.8059,1.0131,,1.0822,,,,,,,,,,,,,275.12,6.1,0.3,0.875,13.6598,1.4737,0.043099,inferred
UTM:(14Q 0480 2138 1000),,19.3404,-99.1856,macroseismic,Stations_USGS,,0.117298,0.260903,,0.191437,0.8059,1.0131,,1.0822,,,,,,,,,,,,,359.73,6.0,0.3,0.875,12.6998,1.4737,0.038873,inferred
UTM:(14Q 0479 2149 1000),,19.4398,-99.1953,macroseismic,Stations_USGS,,0.115069,0.258285,,0.193701,0.8059,1.0131,,1.0822,,,,,,,,,,,,,278.55,6.0,0.3,0.875,12.6998,1.4737,0.039388,inferred
PPIG,PPIG,19.06705,-98.628147,seismic,Stations_USGS,,0.114801,,,0.099439,0.0,,,0.0,,,,,,,,,,,,,668.09,6.0,0.63,0.0,12.96,,,inferred
TLIG,TLIG,17.562675,-98.56647,seismic,Stations_USGS,,0.112844,,,0.022977,0.0,,,0.0,,,,,,,,,,,,,881.2,4.4,0.63,0.0,3.9,,,inferred
UTM:(14Q 0472 2157 1000),,19.512,-99.2621,macroseismic,Stations_USGS,,0.112602,0.255359,,0.196292,0.8059,1.0131,,1.0822,,,,,,,,,,,,,393.11,6.0,0.3,0.875,12.6998,1.4737,0.039979,inferred
UTM:(14Q 0476 2134 1000),,19.3042,-99.2237,macroseismic,Stations_USGS,,0.110209,0.246775,,0.176836,0.8059,1.0131,,1.0822,,,,,,,,,,,,,468.52,5.9,0.3,0.875,11.8073,1.4737,0.036012,inferred
UTM:(14Q 0479 2146 1000),,19.4127,-99.1953,macroseismic,Stations_USGS,,0.108648,0.244931,,0.178389,0.8059,1.0131,,1.0822,,,,,,,,,,,,,391.62,5.9,0.3,0.875,11.8073,1.4737,0.036367,inferred
UTM:(14Q 0479 2148 1000),,19.4307,-99.1953,macroseismic,Stations_USGS,,0.108302,0.24452,,0.178739,0.8059,1.0131,,1.0822,,,,,,,,,,,,,281.18,5.9,0.3,0.875,11.8073,1.4737,0.036447,inferred
UTM:(14Q 0475 2098 1000),,18.9788,-99.2327,macroseismic,Stations_USGS,,0.101887,0.226195,,0.146681,0.8059,1.0131,,1.0822,,,,,,,,,,,,,547.26,5.7,0.3,0.875,10.2061,1.4737,0.029943,inferred
UTM:(14Q 0475 2159 1000),,19.5301,-99.2335,macroseismic,Stations_USGS,,0.099497,0.228565,,0.167395,0.8059,1.0131,,1.0822,,,,,,,,,,,,,372.08,5.8,0.3,0.875,10.9776,1.4737,0.03429,inferred
UTM:(14Q 0470 2141 1000),,19.3674,-99.2809,macroseismic,Stations_USGS,,0.095399,0.218504,,0.152718,0.8059,1.0131,,1.0822,,,,,,,,,,,,,486.26,5.7,0.3,0.875,10.2061,1.4737,0.031328,inferred
UTM:(14Q 0472 2154 1000),,19.4849,-99.262,macroseismic,Stations_USGS,,0.093848,0.21663,,0.154259,0.8059,1.0131,,1.0822,,,,,,,,,,,,,538.8,5.7,0.3,0.875,10.2061,1.4737,0.031682,inferred
UTM:(14Q 0477 2172 1000),,19.6476,-99.2146,macroseismic,Stations_USGS,,0.086303,0.202599,,0.144382,0.8059,1.0131,,1.0822,,,,,,,,,,,,,299.6,5.6,0.3,0.875,9.4889,1.4737,0.029787,inferred
UTM:(14Q 0479 2150 1000),,19.4488,-99.1953,macroseismic,Stations_USGS,,0.084165,0.195417,,0.13036,0.8059,1.0131,,1.0822,,,,,,,,,,,,,273.44,5.5,0.3,0.875,8.8221,1.4737,0.026899,inferred
UTM:(14Q 0476 2166 1000),,19.5934,-99.2241,macroseismic,Stations_USGS,,0.08176,0.192462,,0.132696,0.8059,1.0131,,1.0822,,,,,,,,,,,,,258.77,5.5,0.3,0.875,8.8221,1.4737,0.02744,inferred
UTM:(14Q 0431 2132 1000),,19.2851,-99.6519,macroseismic,Stations_USGS,,0.08006,0.190347,,0.134417,0.8059,1.0131,,1.0822,,,,,,,,,,,,,319.16,5.5,0.3,0.875,8.8221,1.4737,0.027839,inferred
UTM:(14Q 0469 2140 1000),,19.3583,-99.2904,macroseismic,Stations_USGS,,0.079145,0.184916,,0.120355,0.8059,1.0131,,1.0822,,,,,,,,,,,,,470.17,5.4,0.3,0.875,8.2021,1.4737,0.024905,inferred
UTM:(14Q 0476 2153 1000),,19.4759,-99.2239,macroseismic,Stations_USGS,,0.078397,0.183996,,0.121057,0.8059,1.0131,,1.0822,,,,,,,,,,,,,303.35,5.4,0.3,0.875,8.2021,1.4737,0.025068,inferred
UTM:(14Q 0477 2161 1000),,19.5482,-99.2145,macroseismic,Stations_USGS,,0.077518,0.182909,,0.121897,0.8059,1.0131,,1.0822,,,,,,,,,,,,,477.83,5.4,0.3,0.875,8.2021,1.4737,0.025263,inferred
MEIG,MEIG,17.924894,-99.619725,seismic,Stations_USGS,,0.076035,,,0.013945,0.0,,,0.0,,,,,,,,,,,,,525.18,4.0,0.63,0.0,2.42,,,inferred
UTM:(14Q 0478 2147 1000),,19.4217,-99.2048,macroseismic,Stations_USGS,,0.074569,0.175159,,0.110986,0.8059,1.0131,,1.0822,,,,,,,,,,,,,411.51,5.3,0.3,0.875,7.6257,1.4737,0.023028,inferred
TPIG,TPIG,18.42023,-97.361969,seismic,Stations_USGS,,0.072722,,,0.04317,0.0,,,0.0,,,,,,,,,,,,,418.97,5.3,0.63,0.0,7.41,,,inferred
UTM:(15Q 0196 2003 1000),,18.099,-95.8675,macroseismic,Stations_USGS,,0.072099,0.184323,,0.161206,0.8059,1.0131,,1.0822,,,,,,,,,,,,,210.2,5.6,0.3,0.875,9.4889,1.4737,0.033704,inferred
UTM:(14Q 0474 2170 1000),,19.6295,-99.2432,macroseismic,Stations_USGS,,0.067273,0.158682,,0.105107,0.8059,1.0131,,1.0822,,,,,,,,,,,,,428.28,5.2,0.3,0.875,7.0898,1.4737,0.021938,inferred
UTM:(14Q 0804 2115 1000),,19.1098,-96.1059,macroseismic,Stations_USGS,,0.065379,0.167243,,0.135309,0.8059,1.0131,,1.0822,,,,,,,,,,,,,231.65,5.4,0.3,0.875,8.2021,1.4737,0.028398,inferred
UTM:(14Q 0583 2105 1000),,19.0405,-98.2065,macroseismic,Stations_USGS,,0.064002,0.118902,,0.067718,0.8059,1.0131,,1.0822,,,,,,,,,,,,,334.22,4.8,0.3,0.875,5.2973,1.4737,0.01409,inferred
UTM:(14Q 0742 1887 1000),,17.059,-96.7216,macroseismic,Stations_USGS,,0.057795,0.130495,,0.115359,0.8059,1.0131,,1.0822,,,,,,,,,,,,,375.33,5.2,0.3,0.875,7.0898,1.4737,0.02435,inferred
UTM:(14Q 0477 2138 1000),,19.3403,-99.2142,macroseismic,Stations_USGS,,0.055328,0.098569,,0.074041,0.8059,1.0131,,1.0822,,,,,,,,,,,,,497.67,4.8,0.3,0.875,5.2973,1.4737,0.015573,inferred
UTM:(14Q 0480 2135 1000),,19.3133,-99.1856,macroseismic,Stations_USGS,,0.052484,0.087067,,0.067994,0.8059,1.0131,,1.0822,,,,,,,,,,,,,357.23,4.7,0.3,0.875,4.925,1.4737,0.014332,inferred
UTM:(14Q 0742 1888 1000),,17.0681,-96.7215,macroseismic,Stations_USGS,,0.047989,0.086797,,0.090866,0.8059,1.0131,,1.0822,,,,,,,,,,,,,451.5,4.9,0.3,0.875,5.6977,1.4737,0.019347,inferred
UTM:(14Q 0480 2147 1000),,19.4217,-99.1857,macroseismic,Stations_USGS,,0.045453,0.064667,,0.058703,0.8059,1.0131,,1.0822,,,,,,,,,,,,,293.64,4.5,0.3,0.875,4.2571,1.4737,0.012464,inferred
UTM:(14Q 0477 2148 1000),,19.4307,-99.2143,macroseismic,Stations_USGS,,0.03166,0.037219,,0.040176,0.8059,1.0131,,1.0822,,,,,,,,,,,,,393.25,4.1,0.3,0.875,2.9842,1.4737,0.008177,inferred
UTM:(14Q 0269 2180 1000),,19.7065,-101.199,macroseismic,Stations_USGS,,0.031541,0.046488,,0.068688,0.8059,1.0131,,1.0822,,,,,,,,,,,,,760.0,4.5,0.3,0.875,4.2571,1.4737,0.014863,inferred
UTM:(14Q 0486 2157 1000),,19.5121,-99.1287,macroseismic,Stations_USGS,,0.031422,0.037068,,0.040326,0.8059,1.0131,,1.0822,,,,,,,,,,,,,482.44,4.1,0.3,0.875,2.9842,1.4737,0.008223,inferred
UTM:(15Q 0297 1985 1000),,17.9482,-94.912,macroseismic,Stations_USGS,,0.01741,0.026956,,0.049997,0.8059,1.0131,,1.0822,,,,,,,,,,,,,760.0,4.1,0.3,0.875,2.9842,1.4737,0.010945,inferred
CAIG,CAIG,17.0485,-100.267265,seismic,Stations_USGS,,0.008226,,,0.004077,0.0,,,0.0,,,,,,,,,,,,,328.43,2.8,0.63,0.0,0.42,,,inferred
ZIIG,ZIIG,17.60695,-101.464922,seismic,Stations_USGS,,0.004271,,,0.002263,0.0,,,0.0,,,,,,,,,,,,,760.0,3.0,0.63,0.0,0.5,,,inferred
CMIG,CMIG,17.090988,-94.8838,seismic,Stations_USGS,,0.003048,,,0.005056,0.0,,,0.0,,,,,,,,,,,,,760.0,2.7,0.63,0.0,0.35,,,inferred
DHIG,DHIG,20.300361,-99.035492,seismic,Stations_USGS,,0.002783,,,0.005708,0.0,,,0.0,,,,,,,,,,,,,510.82,3.3,0.63,0.0,0.8,,,inferred
MMIG,MMIG,18.28854,-103.34554,seismic,Stations_USGS,,0.002181,,,0.001509,0.0,,,0.0,,,,,,,,,,,,,760.0,2.7,0.63,0.0,0.34,,,inferred
TUIG,TUIG,18.033694,-94.422503,seismic,Stations_USGS,,0.00211,,,0.002956,0.0,,,0.0,,,,,,,,,,,,,760.0,2.7,0.63,0.0,0.33,,,inferred
UTM:(14Q 0742 1889 1000),,17.0771,-96.7214,macroseismic,Stations_USGS,,,,,,,,,,,,,,,,,,,,,,459.63,2.9,0.3,,,,,inferred
UTM:(14P 0777 1762 1000),,15.9262,-96.408,macroseismic,Stations_USGS,,,,,,,,,,,,,,,,,,,,,,760.0,2.2,0.3,,,,,inferred
UTM:(15Q 0348 2006 1000),,18.1421,-94.4321,macroseismic,Stations_USGS,,,,,,,,,,,,,,,,,,,,,,760.0,3.1,0.3,,,,,inferred
UTM:(13Q 0668 2287 1000),,20.6793,-103.3823,macroseismic,Stations_USGS,,,,,,,,,,,,,,,,,,,,,,760.0,2.0,0.3,,,,,inferred
UTM:(14Q 0358 2277 1000),,20.5912,-100.3577,macroseismic,Stations_USGS,,,,,,,,,,,,,,,,,,,,,,468.62,3.2,0.3,,,,,inferred
UTM:(14Q 0350 2286 1000),,20.6719,-100.4353,macroseismic,Stations_USGS,,,,,,,,,,,,,,,,,,,,,,434.91,3.6,0.3,,,,,inferred
UTM:(14Q 0618 2458 1000),,22.2279,-97.8502,macroseismic,Stations_USGS,,,,,,,,,,,,,,,,,,,,,,760.0,2.0,0.3,,,,,inferred
