STATION_ID,STATION_NAME,LONGITUDE,LATITUDE,STATION_TYPE,PGA_VALUE,PGA_LN_SIGMA
ALM,ALMERIA,-2.4597,36.8525,seismic,0.00192,0.0
DUR,DURCAL,-3.565,36.9867,seismic,0.0013,0.0
EALB,EALB,-3.0343,35.9399,seismic,0.44738,0.0
MAL,MALAGA,-4.4111,36.7275,seismic,0.00456,0.0
CAC,CACIN,-3.9167,37.0614,seismic,0.0016,0.0
EBER,EBER,-2.8896,36.8979,seismic,0.00788,0.0
ADR,ADRA,-3.0125,36.7569,seismic,0.00217,0.0
JAY,JAYENA,-3.8217,36.9501,seismic,0.00339,0.0
MPD,MALAGA_(PLD._MARTIN_CARPENA),-4.4583,36.6861,seismic,0.00354,0.0
