STATION_ID,STATION_NAME,LATITUDE,LONGITUDE,STATION_TYPE,REFERENCES,SOIL_TYPE,PGA_VALUE,PGA_LN_SIGMA,SA(0.3)_VALUE,SA(0.3)_LN_SIGMA,SA(0.6)_VALUE,SA(0.6)_LN_SIGMA,SA(1.0)_VALUE,SA(1.0)_LN_SIGMA,VS30,VS30_TYPE,MMI_VALUE,MMI_STDDEV,PGV_LN_SIGMA,PGV_VALUE,SA(3.0)_LN_SIGMA,SA(3.0)_VALUE
KOZ1,KOZ1,40.302,21.784,seismic,GHEAD,B,0.20857001,0.0,0.4063151678973567,0.0,0.1613303636542877,0.0,0.1131841027256614,0.0,,B,,,,,,
ABS1,ABS1,40.65,23.1,seismic,GHEAD,B,0.040014,0.0,0.0519510046457336,0.0,0.1111620656092687,0.0,0.0752675287056298,0.0,,B,,,,,,
KAT1,KAT1,40.267,22.5,seismic,GHEAD,C,0.039921001,0.0,0.0891750087620808,0.0,0.0659874480836531,0.0,0.0807864432576883,0.0,,C,,,,,,
LAR1,LAR1,39.637,22.417,seismic,GHEAD,D,0.029445999,0.0,0.0697967965196131,0.0,0.0731704213901605,0.0,0.0969850886584565,0.0,,D,,,,,,
EDE1,EDE1,40.805,22.051,seismic,GHEAD,C,0.027535,0.0,0.0560095627000647,0.0,0.1138865758454178,0.0,0.0311347545798536,0.0,,C,,,,,,
VER1,VER1,40.526,22.203,seismic,GHEAD,B,0.027056,0.0,0.0721202101089848,0.0,0.0845684071251557,0.0,0.0383758287778893,0.0,,B,,,,,,
FLO1,FLO1,40.787,21.404,seismic,GHEAD,B,0.026096001,0.0,0.0848637803514195,0.0,0.0308229107667258,0.0,0.0125516824945999,0.0,,B,,,,,,
KAR1,KAR1,39.366,21.92,seismic,GHEAD,C,0.023596001,0.0,0.0751017781271322,0.0,0.0693212196869034,0.0,0.0560972636367309,0.0,,C,,,,,,
KAS1,KAS1,40.518,21.259,seismic,GHEAD,B,0.020242001,0.0,0.0680096545994787,0.0,0.0465325264572687,0.0,0.031318386752909,0.0,,B,,,,,,
KRP1,KRP1,38.917,21.8,seismic,GHEAD,A,0.014083,0.0,0.0184534075560623,0.0,0.0118927815432957,0.0,0.0058824460977727,0.0,,A,,,,,,
OBS_204,KNIDI  GREVENA(797),40.084,21.575,macroseismic,Stations_USGS,,1.913571,0.8059,2.594945,1.0131,,,1.825721,1.0822,564.95,inferred,9.5,0.3,0.875,152.3742,1.4737,0.330088
OBS_205,CHROMIO  KOZANI(277),40.143,21.735,macroseismic,Stations_USGS,,1.401875,0.8059,1.964966,1.0131,,,1.227498,1.0822,560.5,inferred,9.0,0.3,0.875,105.8482,1.4737,0.225173
OBS_6,PHELLI  GREVENA(389),40.012,21.512,macroseismic,Stations_USGS,,0.752383,0.8059,1.126702,1.0131,,,0.554872,1.0822,502.28,inferred,8.0,0.3,0.875,51.0773,1.4737,0.104783
OBS_21,RYMNIO  KOZANI(278),40.132,21.868,macroseismic,Stations_USGS,,0.752383,0.8059,1.126702,1.0131,,,0.554872,1.0822,453.03,inferred,8.0,0.3,0.875,51.0773,1.4737,0.104783
OBS_3,KENTRO  GREVENA(305),40.018,21.6,macroseismic,Stations_USGS,,0.752383,0.8059,1.126702,1.0131,,,0.554872,1.0822,377.77,inferred,8.0,0.3,0.875,51.0773,1.4737,0.104783
OBS_8,PYLOROI  GREVENA(203),40.091,21.649,macroseismic,Stations_USGS,,0.752383,0.8059,1.126702,1.0131,,,0.554872,1.0822,530.0,inferred,8.0,0.3,0.875,51.0773,1.4737,0.104783
OBS_2,KALOCHI  GREVENA(236),40.06,21.527,macroseismic,Stations_USGS,,0.752383,0.8059,1.126702,1.0131,,,0.554872,1.0822,440.83,inferred,8.0,0.3,0.875,51.0773,1.4737,0.104783
OBS_5,PALAIOCHORI  GREVENA(419),40.033,21.711,macroseismic,Stations_USGS,,0.752383,0.8059,1.126702,1.0131,,,0.554872,1.0822,452.17,inferred,8.0,0.3,0.875,51.0773,1.4737,0.104783
OBS_7,PONTINI  GREVENA(387),40.07,21.695,macroseismic,Stations_USGS,,0.752383,0.8059,1.126702,1.0131,,,0.554872,1.0822,457.15,inferred,8.0,0.3,0.875,51.0773,1.4737,0.104783
OBS_13,KAISAREIA  KOZANI(942),40.173,21.865,macroseismic,Stations_USGS,,0.720653,0.8059,1.101467,1.0131,,,0.569721,1.0822,396.84,inferred,8.0,0.3,0.875,51.0773,1.4737,0.107931
OBS_12,AVLES  KOZANI(490),40.177,21.943,macroseismic,Stations_USGS,,0.715392,0.8059,1.097232,1.0131,,,0.572286,1.0822,506.84,inferred,8.0,0.3,0.875,51.0773,1.4737,0.108475
OBS_10,VATOLAKKOS  GREVENA(418),40.151,21.476,macroseismic,Stations_USGS,,0.710253,0.8059,1.093082,1.0131,,,0.57482,1.0822,400.89,inferred,8.0,0.3,0.875,51.0773,1.4737,0.109014
OBS_9,TAXIARCHIS  GREVENA(448),40.166,21.521,macroseismic,Stations_USGS,,0.699354,0.8059,1.084231,1.0131,,,0.580294,1.0822,573.43,inferred,8.0,0.3,0.875,51.0773,1.4737,0.110178
OBS_18,PODIANI  KOZANI(403),40.194,21.748,macroseismic,Stations_USGS,,0.694811,0.8059,1.080522,1.0131,,,0.582617,1.0822,611.75,inferred,8.0,0.3,0.875,51.0773,1.4737,0.110673
OBS_11,AGIA-PARASKEVI  KOZANI(628),40.217,21.774,macroseismic,Stations_USGS,,0.67083,0.8059,1.060753,1.0131,,,0.595296,1.0822,429.14,inferred,8.0,0.3,0.875,51.0773,1.4737,0.113375
OBS_4,KOKKINIA  GREVENA(314),40.201,21.498,macroseismic,Stations_USGS,,0.660812,0.8059,1.052396,1.0131,,,0.600811,1.0822,502.3,inferred,8.0,0.3,0.875,51.0773,1.4737,0.114553
OBS_1,AMYGDALIES  GREVENA(793),40.164,21.378,macroseismic,Stations_USGS,,0.659832,0.8059,1.051576,1.0131,,,0.601357,1.0822,580.96,inferred,8.0,0.3,0.875,51.0773,1.4737,0.11467
OBS_20,PROTOCHORI  KOZANI(741),40.243,21.739,macroseismic,Stations_USGS,,0.647794,0.8059,1.041445,1.0131,,,0.608183,1.0822,570.87,inferred,8.0,0.3,0.875,51.0773,1.4737,0.11613
OBS_16,METAMORPHOSI  KOZANI(546),40.245,21.673,macroseismic,Stations_USGS,,0.643285,0.8059,1.037628,1.0131,,,0.610791,1.0822,900.0,inferred,8.0,0.3,0.875,51.0773,1.4737,0.116688
OBS_22,SIATISTA  KOZANI(5688),40.235,21.563,macroseismic,Stations_USGS,,0.639806,0.8059,1.034674,1.0131,,,0.612825,1.0822,405.9,inferred,8.0,0.3,0.875,51.0773,1.4737,0.117124
OBS_14,KROKOS  KOZANI(2780),40.262,21.826,macroseismic,Stations_USGS,,0.633065,0.8059,1.028929,1.0131,,,0.616817,1.0822,451.08,inferred,8.0,0.3,0.875,51.0773,1.4737,0.117979
OBS_17,PETRANA  KOZANI(715),40.28,21.869,macroseismic,Stations_USGS,,0.620445,0.8059,1.018094,1.0131,,,0.624476,1.0822,463.92,inferred,8.0,0.3,0.875,51.0773,1.4737,0.119622
OBS_15,MAVRODENDRI  KOZANI(1162),40.374,21.775,macroseismic,Stations_USGS,,0.564585,0.8059,0.968829,1.0131,,,0.661652,1.0822,333.48,inferred,8.0,0.3,0.875,51.0773,1.4737,0.127631
OBS_19,PROASTIO  KOZANI(1178),40.479,21.712,macroseismic,Stations_USGS,,0.517783,0.8059,0.925742,1.0131,,,0.697692,1.0822,377.0,inferred,8.0,0.3,0.875,51.0773,1.4737,0.135448
OBS_25,MEGALO-SEIRINI  GREVENA(880),40.119,21.414,macroseismic,Stations_USGS,,0.284827,0.8059,0.479558,1.0131,,,0.172598,1.0822,384.1,inferred,6.5,0.3,0.875,17.1216,1.4737,0.034139
OBS_26,TRIKOKKIA  GREVENA(685),39.9,21.598,macroseismic,Stations_USGS,,0.281124,0.8059,0.47627,1.0131,,,0.173988,1.0822,285.61,inferred,6.5,0.3,0.875,17.1216,1.4737,0.034447
OBS_37,SERVIA  KOZANI(3593),40.194,21.99,macroseismic,Stations_USGS,,0.271562,0.8059,0.467684,1.0131,,,0.177718,1.0822,360.35,inferred,6.5,0.3,0.875,17.1216,1.4737,0.035276
OBS_31,KARYDITSA  KOZANI(949),40.243,21.794,macroseismic,Stations_USGS,,0.2547,0.8059,0.452185,1.0131,,,0.184839,1.0822,417.29,inferred,6.5,0.3,0.875,17.1216,1.4737,0.036864
OBS_24,KIVOTOS  GREVENA(565),40.212,21.44,macroseismic,Stations_USGS,,0.253381,0.8059,0.450953,1.0131,,,0.185428,1.0822,472.68,inferred,6.5,0.3,0.875,17.1216,1.4737,0.036996
OBS_23,AGIOS-GEORGIOS  GREVENA(746),40.201,21.401,macroseismic,Stations_USGS,,0.252666,0.8059,0.450283,1.0131,,,0.18575,1.0822,489.54,inferred,6.5,0.3,0.875,17.1216,1.4737,0.037068
OBS_33,MIKROKASTRO  KOZANI(532),40.26,21.501,macroseismic,Stations_USGS,,0.242402,0.8059,0.440572,1.0131,,,0.190532,1.0822,694.25,inferred,6.5,0.3,0.875,17.1216,1.4737,0.038139
OBS_30,GALATINI  KOZANI(2097),40.309,21.575,macroseismic,Stations_USGS,,0.23288,0.8059,0.431387,1.0131,,,0.19527,1.0822,398.61,inferred,6.5,0.3,0.875,17.1216,1.4737,0.039204
OBS_38,TSOTYLIO  KOZANI(1402),40.268,21.309,macroseismic,Stations_USGS,,0.226972,0.8059,0.425599,1.0131,,,0.198369,1.0822,523.25,inferred,6.5,0.3,0.875,17.1216,1.4737,0.039902
OBS_35,NEAPOLI  KOZANI(1968),40.312,21.381,macroseismic,Stations_USGS,,0.225385,0.8059,0.424032,1.0131,,,0.199224,1.0822,427.14,inferred,6.5,0.3,0.875,17.1216,1.4737,0.040094
OBS_43,ELATI  KOZANI(806),39.97,21.843,macroseismic,Stations_USGS,,0.21672,0.8059,0.37044,1.0131,,,0.11338,1.0822,900.0,inferred,6.0,0.3,0.875,11.8937,1.4737,0.02269
OBS_28,ASVESTOPETRA  KOZANI(828),40.454,21.676,macroseismic,Stations_USGS,,0.207228,0.8059,0.405716,1.0131,,,0.209749,1.0822,874.79,inferred,6.5,0.3,0.875,17.1216,1.4737,0.042476
OBS_32,KOMANOS  KOZANI(817),40.456,21.767,macroseismic,Stations_USGS,,0.207126,0.8059,0.405611,1.0131,,,0.209812,1.0822,356.74,inferred,6.5,0.3,0.875,17.1216,1.4737,0.04249
OBS_27,ARDASSA  KOZANI(1201),40.463,21.615,macroseismic,Stations_USGS,,0.204751,0.8059,0.403159,1.0131,,,0.211301,1.0822,507.57,inferred,6.5,0.3,0.875,17.1216,1.4737,0.042828
OBS_29,EMPORIO  KOZANI(922),40.48,21.533,macroseismic,Stations_USGS,,0.200751,0.8059,0.399,1.0131,,,0.213871,1.0822,900.0,inferred,6.5,0.3,0.875,17.1216,1.4737,0.043412
OBS_34,MILOCHORI  KOZANI(796),40.502,21.529,macroseismic,Stations_USGS,,0.19773,0.8059,0.395831,1.0131,,,0.215868,1.0822,587.48,inferred,6.5,0.3,0.875,17.1216,1.4737,0.043867
OBS_36,PHOUPHAS  KOZANI(827),40.533,21.558,macroseismic,Stations_USGS,,0.194321,0.8059,0.392229,1.0131,,,0.218181,1.0822,606.82,inferred,6.5,0.3,0.875,17.1216,1.4737,0.044394
OBS_49,PLATANORREVMA  KOZANI(1112),40.184,22.079,macroseismic,Stations_USGS,,0.189414,0.8059,0.34512,1.0131,,,0.123136,1.0822,900.0,inferred,6.0,0.3,0.875,11.8937,1.4737,0.024889
OBS_41,ANO-KOMI  KOZANI(1488),40.233,21.833,macroseismic,Stations_USGS,,0.189018,0.8059,0.344741,1.0131,,,0.123294,1.0822,464.69,inferred,6.0,0.3,0.875,11.8937,1.4737,0.024925
OBS_39,SPILAIO  GREVENA(422),39.998,21.239,macroseismic,Stations_USGS,,0.176622,0.8059,0.332663,1.0131,,,0.128528,1.0822,900.0,inferred,6.0,0.3,0.875,11.8937,1.4737,0.026114
OBS_45,KAPNOCHORI  KOZANI(473),40.344,21.988,macroseismic,Stations_USGS,,0.167101,0.8059,0.323112,1.0131,,,0.132968,1.0822,756.99,inferred,6.0,0.3,0.875,11.8937,1.4737,0.027127
OBS_44,ERATYRA  KOZANI(1460),40.36,21.531,macroseismic,Stations_USGS,,0.161639,0.8059,0.317516,1.0131,,,0.135705,1.0822,900.0,inferred,6.0,0.3,0.875,11.8937,1.4737,0.027754
OBS_59,LIVADERO  KOZANI(1588),40.024,21.927,macroseismic,Stations_USGS,,0.158768,0.8059,0.280508,1.0131,,,0.07623,1.0822,445.68,inferred,5.5,0.3,0.875,8.2621,1.4737,0.015478
OBS_62,METAXAS  KOZANI(593),40.083,21.982,macroseismic,Stations_USGS,,0.158768,0.8059,0.280508,1.0131,,,0.07623,1.0822,541.32,inferred,5.5,0.3,0.875,8.2621,1.4737,0.015478
OBS_48,PELEKANOS  KOZANI(614),40.375,21.479,macroseismic,Stations_USGS,,0.158571,0.8059,0.314334,1.0131,,,0.137308,1.0822,553.61,inferred,6.0,0.3,0.875,11.8937,1.4737,0.028121
OBS_46,KLEITOS  KOZANI(1063),40.417,21.849,macroseismic,Stations_USGS,,0.156574,0.8059,0.312246,1.0131,,,0.138379,1.0822,316.35,inferred,6.0,0.3,0.875,11.8937,1.4737,0.028367
OBS_42,CHARAVGI  KOZANI(1096),40.432,21.822,macroseismic,Stations_USGS,,0.154646,0.8059,0.310219,1.0131,,,0.139433,1.0822,528.84,inferred,6.0,0.3,0.875,11.8937,1.4737,0.02861
OBS_51,DESKATI  GREVENA(4647),39.912,21.849,macroseismic,Stations_USGS,,0.149119,0.8059,0.271412,1.0131,,,0.079216,1.0822,473.47,inferred,5.5,0.3,0.875,8.2621,1.4737,0.01616
OBS_58,KRANIDIA  KOZANI(699),40.197,21.937,macroseismic,Stations_USGS,,0.145911,0.8059,0.268327,1.0131,,,0.080279,1.0822,266.42,inferred,5.5,0.3,0.875,8.2621,1.4737,0.016403
OBS_40,AGIOS-CHRISTOPHOROS  KOZANI(791),40.519,21.756,macroseismic,Stations_USGS,,0.145032,0.8059,0.299926,1.0131,,,0.145028,1.0822,468.26,inferred,6.0,0.3,0.875,11.8937,1.4737,0.029899
OBS_50,PTOLEMAIDA  KOZANI(25195),40.521,21.662,macroseismic,Stations_USGS,,0.144636,0.8059,0.299496,1.0131,,,0.145271,1.0822,359.55,inferred,6.0,0.3,0.875,11.8937,1.4737,0.029956
OBS_81,AGIOPHYLLO  TRIKALA(621),39.862,21.553,macroseismic,Stations_USGS,,0.140602,0.8059,0.263149,1.0131,,,0.082124,1.0822,584.84,inferred,5.5,0.3,0.875,8.2621,1.4737,0.016826
OBS_47,KOMNINA  KOZANI(1047),40.572,21.815,macroseismic,Stations_USGS,,0.140238,0.8059,0.294672,1.0131,,,0.148047,1.0822,832.46,inferred,6.0,0.3,0.875,11.8937,1.4737,0.030598
OBS_61,MESIANI  KOZANI(489),40.261,21.925,macroseismic,Stations_USGS,,0.133746,0.8059,0.256323,1.0131,,,0.084679,1.0822,420.91,inferred,5.5,0.3,0.875,8.2621,1.4737,0.017414
OBS_69,VATHYLAKKOS  KOZANI(634),40.262,21.902,macroseismic,Stations_USGS,,0.13359,0.8059,0.256166,1.0131,,,0.08474,1.0822,420.55,inferred,5.5,0.3,0.875,8.2621,1.4737,0.017428
OBS_94,PHOTEINO  TRIKALA(449),39.837,21.784,macroseismic,Stations_USGS,,0.129605,0.8059,0.252119,1.0131,,,0.086327,1.0822,666.41,inferred,5.5,0.3,0.875,8.2621,1.4737,0.017794
OBS_57,KALONERI  KOZANI(617),40.293,21.489,macroseismic,Stations_USGS,,0.125574,0.8059,0.247967,1.0131,,,0.088015,1.0822,428.76,inferred,5.5,0.3,0.875,8.2621,1.4737,0.018184
OBS_102,VLACHAVA  TRIKALA(333),39.781,21.677,macroseismic,Stations_USGS,,0.121753,0.8059,0.243971,1.0131,,,0.089698,1.0822,605.15,inferred,5.5,0.3,0.875,8.2621,1.4737,0.018574
OBS_86,KALOMOIRA  TRIKALA(508),39.752,21.418,macroseismic,Stations_USGS,,0.12003,0.8059,0.242149,1.0131,,,0.090485,1.0822,900.0,inferred,5.5,0.3,0.875,8.2621,1.4737,0.018757
OBS_66,POLYMYLOS  KOZANI(776),40.353,22.072,macroseismic,Stations_USGS,,0.119389,0.8059,0.241469,1.0131,,,0.090782,1.0822,896.15,inferred,5.5,0.3,0.875,8.2621,1.4737,0.018826
OBS_87,KASTANIA  TRIKALA(530),39.727,21.406,macroseismic,Stations_USGS,,0.116734,0.8059,0.23863,1.0131,,,0.092043,1.0822,642.78,inferred,5.5,0.3,0.875,8.2621,1.4737,0.01912
OBS_144,LOUTRO-ANTICHASION  LARISSA(841),39.97,21.953,macroseismic,Stations_USGS,,0.116313,0.8059,0.212408,1.0131,,,0.051252,1.0822,713.7,inferred,5.0,0.3,0.875,5.7393,1.4737,0.010559
OBS_64,PENTALOPHOS  KOZANI(652),40.19,21.126,macroseismic,Stations_USGS,,0.113222,0.8059,0.23483,1.0131,,,0.093782,1.0822,647.51,inferred,5.5,0.3,0.875,8.2621,1.4737,0.019525
OBS_82,AGRELIA  TRIKALA(342),39.713,21.924,macroseismic,Stations_USGS,,0.112719,0.8059,0.23428,1.0131,,,0.094038,1.0822,787.99,inferred,5.5,0.3,0.875,8.2621,1.4737,0.019585
OBS_52,RIZOMATA  IMATHIA(1129),40.354,22.23,macroseismic,Stations_USGS,,0.112233,0.8059,0.233749,1.0131,,,0.094288,1.0822,900.0,inferred,5.5,0.3,0.875,8.2621,1.4737,0.019643
OBS_60,MAVROPIGI  KOZANI(774),40.448,21.728,macroseismic,Stations_USGS,,0.111855,0.8059,0.233334,1.0131,,,0.094483,1.0822,493.53,inferred,5.5,0.3,0.875,8.2621,1.4737,0.019689
OBS_68,SISANIO  KOZANI(414),40.426,21.493,macroseismic,Stations_USGS,,0.11163,0.8059,0.233087,1.0131,,,0.0946,1.0822,372.26,inferred,5.5,0.3,0.875,8.2621,1.4737,0.019716
OBS_85,ELLINOKASTRO  TRIKALA(364),39.693,21.807,macroseismic,Stations_USGS,,0.110802,0.8059,0.232177,1.0131,,,0.095032,1.0822,579.44,inferred,5.5,0.3,0.875,8.2621,1.4737,0.019817
OBS_88,KLEINO  TRIKALA(603),39.663,21.439,macroseismic,Stations_USGS,,0.110635,0.8059,0.231992,1.0131,,,0.09512,1.0822,900.0,inferred,5.5,0.3,0.875,8.2621,1.4737,0.019837
OBS_99,THEOPETRA  TRIKALA(664),39.68,21.683,macroseismic,Stations_USGS,,0.11042,0.8059,0.231756,1.0131,,,0.095234,1.0822,464.79,inferred,5.5,0.3,0.875,8.2621,1.4737,0.019864
OBS_98,RIZOMA  TRIKALA(1302),39.67,21.725,macroseismic,Stations_USGS,,0.109074,0.8059,0.230267,1.0131,,,0.095952,1.0822,457.18,inferred,5.5,0.3,0.875,8.2621,1.4737,0.020032
OBS_96,PLATANOS  TRIKALA(811),39.672,21.766,macroseismic,Stations_USGS,,0.108946,0.8059,0.230124,1.0131,,,0.096021,1.0822,536.26,inferred,5.5,0.3,0.875,8.2621,1.4737,0.020048
OBS_103,KIPOUREIO  GREVENA(302),39.951,21.346,macroseismic,Stations_USGS,,0.108567,0.8059,0.20485,1.0131,,,0.053463,1.0822,518.78,inferred,5.0,0.3,0.875,5.7393,1.4737,0.011071
OBS_55,ERMAKIA  KOZANI(489),40.505,21.871,macroseismic,Stations_USGS,,0.107267,0.8059,0.228253,1.0131,,,0.09694,1.0822,790.01,inferred,5.5,0.3,0.875,8.2621,1.4737,0.020263
OBS_90,PALAIOCHORI  TRIKALA(246),39.606,21.418,macroseismic,Stations_USGS,,0.105817,0.8059,0.226625,1.0131,,,0.097752,1.0822,900.0,inferred,5.5,0.3,0.875,8.2621,1.4737,0.020454
OBS_91,PALAIOPYRGOS  TRIKALA(1081),39.619,21.861,macroseismic,Stations_USGS,,0.104824,0.8059,0.225505,1.0131,,,0.098318,1.0822,900.0,inferred,5.5,0.3,0.875,8.2621,1.4737,0.020586
OBS_97,PRINOS  TRIKALA(618),39.596,21.588,macroseismic,Stations_USGS,,0.10478,0.8059,0.225455,1.0131,,,0.098344,1.0822,791.91,inferred,5.5,0.3,0.875,8.2621,1.4737,0.020592
OBS_89,MEGALO-KEPHALOVRYSO  TRIKALA(770),39.597,21.718,macroseismic,Stations_USGS,,0.103676,0.8059,0.224204,1.0131,,,0.098984,1.0822,248.57,inferred,5.5,0.3,0.875,8.2621,1.4737,0.020743
OBS_56,GALATEIA  KOZANI(532),40.556,21.594,macroseismic,Stations_USGS,,0.103133,0.8059,0.223585,1.0131,,,0.099303,1.0822,350.68,inferred,5.5,0.3,0.875,8.2621,1.4737,0.020818
OBS_65,PERDIKKAS  KOZANI(1867),40.569,21.68,macroseismic,Stations_USGS,,0.102873,0.8059,0.223289,1.0131,,,0.099457,1.0822,417.55,inferred,5.5,0.3,0.875,8.2621,1.4737,0.020854
OBS_80,VARIKO  PHLORINA(809),40.553,21.514,macroseismic,Stations_USGS,,0.102674,0.8059,0.223061,1.0131,,,0.099575,1.0822,524.82,inferred,5.5,0.3,0.875,8.2621,1.4737,0.020882
OBS_63,OLYMPIADA  KOZANI(889),40.573,21.603,macroseismic,Stations_USGS,,0.102173,0.8059,0.222489,1.0131,,,0.099874,1.0822,408.87,inferred,5.5,0.3,0.875,8.2621,1.4737,0.020952
OBS_92,PETROTO  TRIKALA(1011),39.574,21.966,macroseismic,Stations_USGS,,0.101831,0.8059,0.222097,1.0131,,,0.100079,1.0822,646.01,inferred,5.5,0.3,0.875,8.2621,1.4737,0.021
OBS_101,VALTINO  TRIKALA(780),39.556,21.654,macroseismic,Stations_USGS,,0.101604,0.8059,0.221837,1.0131,,,0.100216,1.0822,229.05,inferred,5.5,0.3,0.875,8.2621,1.4737,0.021032
OBS_100,TRIKALA  TRIKALA(48962),39.566,21.758,macroseismic,Stations_USGS,,0.101382,0.8059,0.221582,1.0131,,,0.100351,1.0822,236.73,inferred,5.5,0.3,0.875,8.2621,1.4737,0.021064
OBS_83,DENDROCHORI  TRIKALA(845),39.545,21.638,macroseismic,Stations_USGS,,0.101071,0.8059,0.221224,1.0131,,,0.10054,1.0822,224.18,inferred,5.5,0.3,0.875,8.2621,1.4737,0.021108
OBS_72,LECHOVO  PHLORINA(1329),40.583,21.505,macroseismic,Stations_USGS,,0.100852,0.8059,0.220972,1.0131,,,0.100674,1.0822,631.81,inferred,5.5,0.3,0.875,8.2621,1.4737,0.02114
OBS_76,PHILOTAS  PHLORINA(1939),40.613,21.685,macroseismic,Stations_USGS,,0.100301,0.8059,0.220336,1.0131,,,0.101012,1.0822,341.67,inferred,5.5,0.3,0.875,8.2621,1.4737,0.02122
OBS_84,ELEFTHEROCHORI  TRIKALA(588),39.526,21.626,macroseismic,Stations_USGS,,0.100063,0.8059,0.220061,1.0131,,,0.10116,1.0822,564.08,inferred,5.5,0.3,0.875,8.2621,1.4737,0.021254
OBS_93,PHANEROMENI  TRIKALA(559),39.537,21.892,macroseismic,Stations_USGS,,0.099642,0.8059,0.219574,1.0131,,,0.101421,1.0822,202.16,inferred,5.5,0.3,0.875,8.2621,1.4737,0.021316
OBS_95,PIALEIA  TRIKALA(910),39.506,21.589,macroseismic,Stations_USGS,,0.099225,0.8059,0.21909,1.0131,,,0.101683,1.0822,900.0,inferred,5.5,0.3,0.875,8.2621,1.4737,0.021378
OBS_78,SKLITHRO  PHLORINA(553),40.618,21.499,macroseismic,Stations_USGS,,0.098923,0.8059,0.21874,1.0131,,,0.101873,1.0822,335.56,inferred,5.5,0.3,0.875,8.2621,1.4737,0.021422
OBS_67,PYRGOI  KOZANI(855),40.659,21.846,macroseismic,Stations_USGS,,0.097899,0.8059,0.217546,1.0131,,,0.102524,1.0822,487.74,inferred,5.5,0.3,0.875,8.2621,1.4737,0.021576
OBS_70,AETOS  PHLORINA(819),40.667,21.552,macroseismic,Stations_USGS,,0.096848,0.8059,0.216315,1.0131,,,0.103205,1.0822,900.0,inferred,5.5,0.3,0.875,8.2621,1.4737,0.021737
OBS_73,MANIAKI  PHLORINA(491),40.682,21.771,macroseismic,Stations_USGS,,0.096774,0.8059,0.216229,1.0131,,,0.103253,1.0822,562.93,inferred,5.5,0.3,0.875,8.2621,1.4737,0.021748
OBS_138,VELVENTOS  KOZANI(3674),40.256,22.061,macroseismic,Stations_USGS,,0.095731,0.8059,0.191738,1.0131,,,0.057749,1.0822,505.89,inferred,5.0,0.3,0.875,5.7393,1.4737,0.01207
OBS_77,PHLAMPOURO  PHLORINA(621),40.705,21.536,macroseismic,Stations_USGS,,0.095036,0.8059,0.214178,1.0131,,,0.104407,1.0822,544.3,inferred,5.5,0.3,0.875,8.2621,1.4737,0.02202
OBS_75,PETRES  PHLORINA(509),40.735,21.675,macroseismic,Stations_USGS,,0.094352,0.8059,0.213367,1.0131,,,0.104869,1.0822,900.0,inferred,5.5,0.3,0.875,8.2621,1.4737,0.02213
OBS_54,KATSIKAS  IOANNINA(2566),39.614,20.889,macroseismic,Stations_USGS,,0.094256,0.8059,0.213252,1.0131,,,0.104935,1.0822,367.09,inferred,5.5,0.3,0.875,8.2621,1.4737,0.022145
OBS_53,ANATOLI  IOANNINA(4451),39.636,20.866,macroseismic,Stations_USGS,,0.094246,0.8059,0.21324,1.0131,,,0.104942,1.0822,195.21,inferred,5.5,0.3,0.875,8.2621,1.4737,0.022147
OBS_104,MEGARO  GREVENA(581),40.113,21.256,macroseismic,Stations_USGS,,0.094125,0.8059,0.19004,1.0131,,,0.058351,1.0822,579.22,inferred,5.0,0.3,0.875,5.7393,1.4737,0.012211
OBS_79,TROPAIOUCHOS  PHLORINA(359),40.743,21.437,macroseismic,Stations_USGS,,0.092933,0.8059,0.211673,1.0131,,,0.105848,1.0822,567.94,inferred,5.5,0.3,0.875,8.2621,1.4737,0.022361
OBS_140,ELASSONA  LARISSA(8426),39.908,22.2,macroseismic,Stations_USGS,,0.090864,0.8059,0.18655,1.0131,,,0.059626,1.0822,554.66,inferred,5.0,0.3,0.875,5.7393,1.4737,0.012511
OBS_71,ARMENOCHORI  PHLORINA(1014),40.812,21.455,macroseismic,Stations_USGS,,0.090471,0.8059,0.208707,1.0131,,,0.107604,1.0822,257.75,inferred,5.5,0.3,0.875,8.2621,1.4737,0.022778
OBS_74,NEOCHORAKI  PHLORINA(635),40.827,21.54,macroseismic,Stations_USGS,,0.090338,0.8059,0.208545,1.0131,,,0.107702,1.0822,295.53,inferred,5.5,0.3,0.875,8.2621,1.4737,0.022801
OBS_190,PANAGIA  TRIKALA(764),39.823,21.295,macroseismic,Stations_USGS,,0.090277,0.8059,0.185915,1.0131,,,0.059864,1.0822,841.42,inferred,5.0,0.3,0.875,5.7393,1.4737,0.012566
OBS_189,ORTHOVOUNI  TRIKALA(217),39.77,21.458,macroseismic,Stations_USGS,,0.090261,0.8059,0.185899,1.0131,,,0.05987,1.0822,900.0,inferred,5.0,0.3,0.875,5.7393,1.4737,0.012568
OBS_135,DREPANO  KOZANI(1152),40.351,21.851,macroseismic,Stations_USGS,,0.089203,0.8059,0.18475,1.0131,,,0.060304,1.0822,478.03,inferred,5.0,0.3,0.875,5.7393,1.4737,0.01267
OBS_186,KONISKOS  TRIKALA(305),39.775,21.799,macroseismic,Stations_USGS,,0.087774,0.8059,0.183188,1.0131,,,0.060904,1.0822,589.98,inferred,5.0,0.3,0.875,5.7393,1.4737,0.012811
OBS_136,DRYOVOUNO  KOZANI(531),40.375,21.431,macroseismic,Stations_USGS,,0.084648,0.8059,0.179728,1.0131,,,0.062273,1.0822,897.22,inferred,5.0,0.3,0.875,5.7393,1.4737,0.013135
OBS_137,TETRALOPHO  KOZANI(487),40.414,22.02,macroseismic,Stations_USGS,,0.083928,0.8059,0.178923,1.0131,,,0.0626,1.0822,643.98,inferred,5.0,0.3,0.875,5.7393,1.4737,0.013212
OBS_151,TYRNAVOS  LARISSA(12197),39.836,22.263,macroseismic,Stations_USGS,,0.083323,0.8059,0.178243,1.0131,,,0.062878,1.0822,632.92,inferred,5.0,0.3,0.875,5.7393,1.4737,0.013278
OBS_130,AGIOS-DIMITRIOS  KOZANI(1034),40.429,21.943,macroseismic,Stations_USGS,,0.0832,0.8059,0.178105,1.0131,,,0.062935,1.0822,900.0,inferred,5.0,0.3,0.875,5.7393,1.4737,0.013291
OBS_173,ELATOCHORI  PIERIA(681),40.323,22.25,macroseismic,Stations_USGS,,0.082766,0.8059,0.177617,1.0131,,,0.063137,1.0822,850.31,inferred,5.0,0.3,0.875,5.7393,1.4737,0.013339
OBS_131,AKRINI  KOZANI(1163),40.438,21.906,macroseismic,Stations_USGS,,0.082597,0.8059,0.177425,1.0131,,,0.063216,1.0822,691.23,inferred,5.0,0.3,0.875,5.7393,1.4737,0.013358
OBS_108,SPHIKIA  IMATHIA(565),40.374,22.192,macroseismic,Stations_USGS,,0.082563,0.8059,0.177387,1.0131,,,0.063232,1.0822,457.33,inferred,5.0,0.3,0.875,5.7393,1.4737,0.013362
OBS_133,AVGERINOS  KOZANI(414),40.248,21.142,macroseismic,Stations_USGS,,0.082218,0.8059,0.176997,1.0131,,,0.063395,1.0822,569.13,inferred,5.0,0.3,0.875,5.7393,1.4737,0.0134
OBS_134,DAMASKINIA  KOZANI(354),40.335,21.18,macroseismic,Stations_USGS,,0.080699,0.8059,0.17527,1.0131,,,0.064123,1.0822,235.22,inferred,5.0,0.3,0.875,5.7393,1.4737,0.013573
OBS_183,KALAMPAKA  TRIKALA(6072),39.66,21.588,macroseismic,Stations_USGS,,0.080412,0.8059,0.174942,1.0131,,,0.064264,1.0822,889.88,inferred,5.0,0.3,0.875,5.7393,1.4737,0.013606
OBS_176,MOSCHOPOTAMOS  PIERIA(823),40.326,22.307,macroseismic,Stations_USGS,,0.080394,0.8059,0.174922,1.0131,,,0.064272,1.0822,498.0,inferred,5.0,0.3,0.875,5.7393,1.4737,0.013608
OBS_198,SARAKINA  TRIKALA(460),39.662,21.645,macroseismic,Stations_USGS,,0.080064,0.8059,0.174544,1.0131,,,0.064435,1.0822,279.01,inferred,5.0,0.3,0.875,5.7393,1.4737,0.013647
OBS_122,GERMA  KASTORIA(830),40.452,21.438,macroseismic,Stations_USGS,,0.079794,0.8059,0.174234,1.0131,,,0.064568,1.0822,819.65,inferred,5.0,0.3,0.875,5.7393,1.4737,0.013678
OBS_125,KOSTARAZI  KASTORIA(960),40.447,21.379,macroseismic,Stations_USGS,,0.079589,0.8059,0.173999,1.0131,,,0.06467,1.0822,573.98,inferred,5.0,0.3,0.875,5.7393,1.4737,0.013703
OBS_132,ANARRACHI  KOZANI(1151),40.486,21.58,macroseismic,Stations_USGS,,0.078941,0.8059,0.173253,1.0131,,,0.064995,1.0822,900.0,inferred,5.0,0.3,0.875,5.7393,1.4737,0.01378
OBS_202,VASILIKI  TRIKALA(1651),39.64,21.696,macroseismic,Stations_USGS,,0.078361,0.8059,0.172582,1.0131,,,0.065289,1.0822,451.08,inferred,5.0,0.3,0.875,5.7393,1.4737,0.01385
OBS_119,AMPELOKIPOI  KASTORIA(610),40.463,21.321,macroseismic,Stations_USGS,,0.078037,0.8059,0.172207,1.0131,,,0.065455,1.0822,268.67,inferred,5.0,0.3,0.875,5.7393,1.4737,0.013889
OBS_121,EPTACHORI  KASTORIA(432),40.222,21.025,macroseismic,Stations_USGS,,0.077858,0.8059,0.171999,1.0131,,,0.065548,1.0822,846.99,inferred,5.0,0.3,0.875,5.7393,1.4737,0.013911
OBS_182,GRIZANO  TRIKALA(1601),39.646,22.065,macroseismic,Stations_USGS,,0.077761,0.8059,0.171886,1.0131,,,0.065598,1.0822,357.79,inferred,5.0,0.3,0.875,5.7393,1.4737,0.013923
OBS_150,RODIA  LARISSA(963),39.829,22.395,macroseismic,Stations_USGS,,0.07765,0.8059,0.171758,1.0131,,,0.065655,1.0822,493.6,inferred,5.0,0.3,0.875,5.7393,1.4737,0.013937
OBS_175,LITOCHORO  PIERIA(6864),40.094,22.463,macroseismic,Stations_USGS,,0.07756,0.8059,0.171652,1.0131,,,0.065702,1.0822,890.76,inferred,5.0,0.3,0.875,5.7393,1.4737,0.013948
OBS_110,TRIPOTAMOS  IMATHIA(565),40.494,22.16,macroseismic,Stations_USGS,,0.077379,0.8059,0.171441,1.0131,,,0.065796,1.0822,546.68,inferred,5.0,0.3,0.875,5.7393,1.4737,0.01397
OBS_178,ARDANI  TRIKALA(610),39.63,21.769,macroseismic,Stations_USGS,,0.077378,0.8059,0.171441,1.0131,,,0.065796,1.0822,313.22,inferred,5.0,0.3,0.875,5.7393,1.4737,0.01397
OBS_120,ARGOS-ORESTIKO  KASTORIA(6663),40.457,21.255,macroseismic,Stations_USGS,,0.077263,0.8059,0.171307,1.0131,,,0.065856,1.0822,385.26,inferred,5.0,0.3,0.875,5.7393,1.4737,0.013985
OBS_179,CHRYSOMILIA  TRIKALA(846),39.598,21.502,macroseismic,Stations_USGS,,0.077262,0.8059,0.171305,1.0131,,,0.065857,1.0822,900.0,inferred,5.0,0.3,0.875,5.7393,1.4737,0.013985
OBS_174,KONTARIOTISSA  PIERIA(1717),40.232,22.446,macroseismic,Stations_USGS,,0.076974,0.8059,0.170969,1.0131,,,0.066008,1.0822,430.14,inferred,5.0,0.3,0.875,5.7393,1.4737,0.014021
OBS_188,OICHALIA(NEOCHORIO)  TRIKALA(3271),39.617,21.957,macroseismic,Stations_USGS,,0.076693,0.8059,0.170641,1.0131,,,0.066156,1.0822,416.0,inferred,5.0,0.3,0.875,5.7393,1.4737,0.014056
OBS_197,RAXA  TRIKALA(766),39.614,21.748,macroseismic,Stations_USGS,,0.076604,0.8059,0.170537,1.0131,,,0.066203,1.0822,260.07,inferred,5.0,0.3,0.875,5.7393,1.4737,0.014067
OBS_142,GONNOI  LARISSA(2535),39.887,22.466,macroseismic,Stations_USGS,,0.076318,0.8059,0.170202,1.0131,,,0.066355,1.0822,677.13,inferred,5.0,0.3,0.875,5.7393,1.4737,0.014103
OBS_184,KATAPHYTO  TRIKALA(165),39.625,21.228,macroseismic,Stations_USGS,,0.076096,0.8059,0.169941,1.0131,,,0.066474,1.0822,900.0,inferred,5.0,0.3,0.875,5.7393,1.4737,0.014132
OBS_180,DIALEKTO  TRIKALA(831),39.589,21.647,macroseismic,Stations_USGS,,0.076019,0.8059,0.169851,1.0131,,,0.066515,1.0822,244.31,inferred,5.0,0.3,0.875,5.7393,1.4737,0.014141
OBS_105,AGIA-VARVARA  IMATHIA(896),40.492,22.244,macroseismic,Stations_USGS,,0.075943,0.8059,0.169762,1.0131,,,0.066556,1.0822,586.91,inferred,5.0,0.3,0.875,5.7393,1.4737,0.014151
OBS_124,KLEISOURA  KASTORIA(610),40.532,21.465,macroseismic,Stations_USGS,,0.075878,0.8059,0.169685,1.0131,,,0.066591,1.0822,834.78,inferred,5.0,0.3,0.875,5.7393,1.4737,0.014159
OBS_139,AMPELONAS  LARISSA(5819),39.738,22.368,macroseismic,Stations_USGS,,0.075719,0.8059,0.169499,1.0131,,,0.066676,1.0822,241.87,inferred,5.0,0.3,0.875,5.7393,1.4737,0.01418
OBS_177,RYAKIA  PIERIA(583),40.404,22.382,macroseismic,Stations_USGS,,0.075592,0.8059,0.169348,1.0131,,,0.066745,1.0822,430.54,inferred,5.0,0.3,0.875,5.7393,1.4737,0.014196
OBS_203,ZARKOS  TRIKALA(1771),39.608,22.111,macroseismic,Stations_USGS,,0.075418,0.8059,0.169144,1.0131,,,0.066839,1.0822,479.19,inferred,5.0,0.3,0.875,5.7393,1.4737,0.014219
OBS_185,KEPHALOVRYSO  TRIKALA(907),39.578,21.685,macroseismic,Stations_USGS,,0.075252,0.8059,0.168948,1.0131,,,0.06693,1.0822,229.23,inferred,5.0,0.3,0.875,5.7393,1.4737,0.01424
OBS_194,PRODROMOS  TRIKALA(558),39.563,21.578,macroseismic,Stations_USGS,,0.075212,0.8059,0.1689,1.0131,,,0.066952,1.0822,900.0,inferred,5.0,0.3,0.875,5.7393,1.4737,0.014246
OBS_126,KOTYLI  KASTORIA(122),40.329,21.002,macroseismic,Stations_USGS,,0.075077,0.8059,0.168741,1.0131,,,0.067025,1.0822,589.68,inferred,5.0,0.3,0.875,5.7393,1.4737,0.014263
OBS_191,PERTOULI  TRIKALA(132),39.548,21.496,macroseismic,Stations_USGS,,0.074784,0.8059,0.168394,1.0131,,,0.067186,1.0822,541.8,inferred,5.0,0.3,0.875,5.7393,1.4737,0.014301
OBS_111,VEROIA  IMATHIA(38713),40.538,22.211,macroseismic,Stations_USGS,,0.074707,0.8059,0.168304,1.0131,,,0.067228,1.0822,388.23,inferred,5.0,0.3,0.875,5.7393,1.4737,0.014311
OBS_192,PHARKADONA  TRIKALA(2310),39.576,22.054,macroseismic,Stations_USGS,,0.074414,0.8059,0.167956,1.0131,,,0.067391,1.0822,210.31,inferred,5.0,0.3,0.875,5.7393,1.4737,0.01435
OBS_201,TAXIARCHES  TRIKALA(1157),39.567,21.89,macroseismic,Stations_USGS,,0.074285,0.8059,0.167804,1.0131,,,0.067462,1.0822,223.55,inferred,5.0,0.3,0.875,5.7393,1.4737,0.014367
OBS_196,PYRRA  TRIKALA(150),39.539,21.404,macroseismic,Stations_USGS,,0.074187,0.8059,0.167686,1.0131,,,0.067517,1.0822,900.0,inferred,5.0,0.3,0.875,5.7393,1.4737,0.01438
OBS_149,RAPSANI  LARISSA(1682),39.905,22.535,macroseismic,Stations_USGS,,0.074169,0.8059,0.167665,1.0131,,,0.067527,1.0822,840.59,inferred,5.0,0.3,0.875,5.7393,1.4737,0.014383
OBS_127,MESOPOTAMIA  KASTORIA(2372),40.504,21.175,macroseismic,Stations_USGS,,0.073982,0.8059,0.167443,1.0131,,,0.067632,1.0822,309.0,inferred,5.0,0.3,0.875,5.7393,1.4737,0.014408
OBS_129,VASILEIADA  KASTORIA(635),40.571,21.431,macroseismic,Stations_USGS,,0.073977,0.8059,0.167438,1.0131,,,0.067634,1.0822,900.0,inferred,5.0,0.3,0.875,5.7393,1.4737,0.014408
OBS_107,NAOUSA  IMATHIA(20279),40.604,21.982,macroseismic,Stations_USGS,,0.073855,0.8059,0.167292,1.0131,,,0.067703,1.0822,646.83,inferred,5.0,0.3,0.875,5.7393,1.4737,0.014425
OBS_123,KASTORIA  KASTORIA(15710),40.548,21.257,macroseismic,Stations_USGS,,0.073537,0.8059,0.166913,1.0131,,,0.067882,1.0822,719.46,inferred,5.0,0.3,0.875,5.7393,1.4737,0.014468
OBS_109,STENIMACHOS  IMATHIA(806),40.597,22.127,macroseismic,Stations_USGS,,0.07339,0.8059,0.166737,1.0131,,,0.067966,1.0822,742.72,inferred,5.0,0.3,0.875,5.7393,1.4737,0.014488
OBS_181,GARDIKI  TRIKALA(359),39.532,21.284,macroseismic,Stations_USGS,,0.072988,0.8059,0.166256,1.0131,,,0.068195,1.0822,900.0,inferred,5.0,0.3,0.875,5.7393,1.4737,0.014542
OBS_128,TOICHIO(VITSI)  KASTORIA(710),40.582,21.316,macroseismic,Stations_USGS,,0.072832,0.8059,0.166069,1.0131,,,0.068284,1.0822,898.3,inferred,5.0,0.3,0.875,5.7393,1.4737,0.014564
OBS_141,ELATEIA  LARISSA(659),39.808,22.539,macroseismic,Stations_USGS,,0.072595,0.8059,0.165785,1.0131,,,0.068421,1.0822,781.63,inferred,5.0,0.3,0.875,5.7393,1.4737,0.014596
OBS_193,PIGI  TRIKALA(1303),39.515,21.703,macroseismic,Stations_USGS,,0.072452,0.8059,0.165614,1.0131,,,0.068503,1.0822,273.38,inferred,5.0,0.3,0.875,5.7393,1.4737,0.014616
OBS_118,PEDINO  KARDITSA(819),39.512,21.954,macroseismic,Stations_USGS,,0.072001,0.8059,0.165071,1.0131,,,0.068766,1.0822,209.02,inferred,5.0,0.3,0.875,5.7393,1.4737,0.014679
OBS_168,ASPROGEIA  PHLORINA(339),40.622,21.425,macroseismic,Stations_USGS,,0.071958,0.8059,0.165019,1.0131,,,0.068791,1.0822,818.7,inferred,5.0,0.3,0.875,5.7393,1.4737,0.014685
OBS_199,SERVOTA  TRIKALA(642),39.502,21.914,macroseismic,Stations_USGS,,0.071618,0.8059,0.164608,1.0131,,,0.068991,1.0822,209.09,inferred,5.0,0.3,0.875,5.7393,1.4737,0.014733
OBS_106,LEFKADIA  IMATHIA(914),40.655,22.123,macroseismic,Stations_USGS,,0.071289,0.8059,0.163613,1.0131,,,0.069186,1.0822,371.72,inferred,5.0,0.3,0.875,5.7393,1.4737,0.014779
OBS_143,LARISA  LARISSA(113090),39.629,22.418,macroseismic,Stations_USGS,,0.071278,0.8059,0.16358,1.0131,,,0.069193,1.0822,228.01,inferred,5.0,0.3,0.875,5.7393,1.4737,0.014781
OBS_112,AGNANTERO  KARDITSA(2129),39.485,21.842,macroseismic,Stations_USGS,,0.070988,0.8059,0.162723,1.0131,,,0.069366,1.0822,208.72,inferred,5.0,0.3,0.875,5.7393,1.4737,0.014822
OBS_200,STOURNARAIIKA  TRIKALA(1064),39.444,21.48,macroseismic,Stations_USGS,,0.070596,0.8059,0.161568,1.0131,,,0.069601,1.0822,900.0,inferred,5.0,0.3,0.875,5.7393,1.4737,0.014879
OBS_195,PYLI  TRIKALA(1991),39.453,21.62,macroseismic,Stations_USGS,,0.070568,0.8059,0.161484,1.0131,,,0.069619,1.0822,900.0,inferred,5.0,0.3,0.875,5.7393,1.4737,0.014883
OBS_114,KOSKINAS  KARDITSA(889),39.471,21.992,macroseismic,Stations_USGS,,0.070468,0.8059,0.16119,1.0131,,,0.069679,1.0822,182.72,inferred,5.0,0.3,0.875,5.7393,1.4737,0.014897
OBS_147,MELISSOCHORI  LARISSA(646),39.642,22.488,macroseismic,Stations_USGS,,0.070261,0.8059,0.16058,1.0131,,,0.069805,1.0822,229.42,inferred,5.0,0.3,0.875,5.7393,1.4737,0.014928
OBS_116,MOUZAKI  KARDITSA(2353),39.431,21.655,macroseismic,Stations_USGS,,0.069669,0.8059,0.158841,1.0131,,,0.070168,1.0822,735.04,inferred,5.0,0.3,0.875,5.7393,1.4737,0.015015
OBS_165,AGIOS-PANTELEIMON  PHLORINA(1003),40.734,21.736,macroseismic,Stations_USGS,,0.069177,0.8059,0.157396,1.0131,,,0.070473,1.0822,581.42,inferred,5.0,0.3,0.875,5.7393,1.4737,0.015088
OBS_148,PLATYKAMPOS  LARISSA(1669),39.624,22.543,macroseismic,Stations_USGS,,0.068828,0.8059,0.156374,1.0131,,,0.070692,1.0822,240.24,inferred,5.0,0.3,0.875,5.7393,1.4737,0.01514
OBS_171,PERASMA  PHLORINA(499),40.752,21.468,macroseismic,Stations_USGS,,0.067941,0.8059,0.153786,1.0131,,,0.071256,1.0822,329.65,inferred,5.0,0.3,0.875,5.7393,1.4737,0.015276
OBS_187,MYROPHYLLO  TRIKALA(621),39.371,21.315,macroseismic,Stations_USGS,,0.06781,0.8059,0.153403,1.0131,,,0.071341,1.0822,900.0,inferred,5.0,0.3,0.875,5.7393,1.4737,0.015296
OBS_161,SKYDRA  PELLA(4562),40.764,22.139,macroseismic,Stations_USGS,,0.067808,0.8059,0.153398,1.0131,,,0.071342,1.0822,255.22,inferred,5.0,0.3,0.875,5.7393,1.4737,0.015296
OBS_172,SKOPIA  PHLORINA(594),40.758,21.406,macroseismic,Stations_USGS,,0.067544,0.8059,0.152627,1.0131,,,0.071513,1.0822,740.95,inferred,5.0,0.3,0.875,5.7393,1.4737,0.015338
OBS_155,GALATADES  PELLA(2039),40.742,22.282,macroseismic,Stations_USGS,,0.067449,0.8059,0.152353,1.0131,,,0.071574,1.0822,214.89,inferred,5.0,0.3,0.875,5.7393,1.4737,0.015352
OBS_154,EDESSA  PELLA(17659),40.788,22.057,macroseismic,Stations_USGS,,0.067443,0.8059,0.152333,1.0131,,,0.071579,1.0822,539.73,inferred,5.0,0.3,0.875,5.7393,1.4737,0.015353
OBS_163,VRYTA  PELLA(526),40.794,21.918,macroseismic,Stations_USGS,,0.067404,0.8059,0.15222,1.0131,,,0.071604,1.0822,467.61,inferred,5.0,0.3,0.875,5.7393,1.4737,0.015359
OBS_169,KELLA  PHLORINA(980),40.809,21.684,macroseismic,Stations_USGS,,0.06698,0.8059,0.150989,1.0131,,,0.071881,1.0822,572.51,inferred,5.0,0.3,0.875,5.7393,1.4737,0.015426
OBS_153,DAPHNI  PELLA(700),40.778,22.23,macroseismic,Stations_USGS,,0.06691,0.8059,0.150786,1.0131,,,0.071927,1.0822,224.58,inferred,5.0,0.3,0.875,5.7393,1.4737,0.015437
OBS_167,ANTARTIKO  PHLORINA(159),40.748,21.193,macroseismic,Stations_USGS,,0.066792,0.8059,0.150443,1.0131,,,0.072005,1.0822,663.47,inferred,5.0,0.3,0.875,5.7393,1.4737,0.015456
OBS_145,MELIA  LARISSA(821),39.568,22.607,macroseismic,Stations_USGS,,0.066662,0.8059,0.150066,1.0131,,,0.072091,1.0822,241.28,inferred,5.0,0.3,0.875,5.7393,1.4737,0.015477
OBS_115,MITROPOLI  KARDITSA(1619),39.343,21.84,macroseismic,Stations_USGS,,0.066564,0.8059,0.149782,1.0131,,,0.072156,1.0822,298.03,inferred,5.0,0.3,0.875,5.7393,1.4737,0.015492
OBS_158,NISI  PELLA(587),40.827,21.92,macroseismic,Stations_USGS,,0.06651,0.8059,0.149627,1.0131,,,0.072192,1.0822,826.84,inferred,5.0,0.3,0.875,5.7393,1.4737,0.015501
OBS_156,KALI  PELLA(1463),40.815,22.182,macroseismic,Stations_USGS,,0.066249,0.8059,0.148871,1.0131,,,0.072366,1.0822,262.97,inferred,5.0,0.3,0.875,5.7393,1.4737,0.015543
OBS_160,PROPHITIS-ILIAS  PELLA(1477),40.824,22.142,macroseismic,Stations_USGS,,0.066204,0.8059,0.14874,1.0131,,,0.072396,1.0822,436.7,inferred,5.0,0.3,0.875,5.7393,1.4737,0.01555
OBS_152,ANYDRO  PELLA(490),40.825,22.212,macroseismic,Stations_USGS,,0.065849,0.8059,0.147714,1.0131,,,0.072635,1.0822,272.45,inferred,5.0,0.3,0.875,5.7393,1.4737,0.015608
OBS_170,PAPAGIANNIS  PHLORINA(912),40.836,21.48,macroseismic,Stations_USGS,,0.06576,0.8059,0.147457,1.0131,,,0.072696,1.0822,355.42,inferred,5.0,0.3,0.875,5.7393,1.4737,0.015622
OBS_166,AKRITAS  PHLORINA(152),40.818,21.303,macroseismic,Stations_USGS,,0.065625,0.8059,0.147066,1.0131,,,0.072787,1.0822,765.34,inferred,5.0,0.3,0.875,5.7393,1.4737,0.015644
OBS_146,MELISSA  LARISSA(650),39.565,22.672,macroseismic,Stations_USGS,,0.065623,0.8059,0.147061,1.0131,,,0.072789,1.0822,220.62,inferred,5.0,0.3,0.875,5.7393,1.4737,0.015645
OBS_117,NEOCHORI  KARDITSA(1108),39.279,21.722,macroseismic,Stations_USGS,,0.065166,0.8059,0.145744,1.0131,,,0.073101,1.0822,854.72,inferred,5.0,0.3,0.875,5.7393,1.4737,0.01572
OBS_157,MANDALO  PELLA(1023),40.867,22.201,macroseismic,Stations_USGS,,0.064919,0.8059,0.145031,1.0131,,,0.073272,1.0822,468.82,inferred,5.0,0.3,0.875,5.7393,1.4737,0.015761
OBS_113,KALLIPHONI  KARDITSA(1262),39.263,21.954,macroseismic,Stations_USGS,,0.064561,0.8059,0.144003,1.0131,,,0.07352,1.0822,318.47,inferred,5.0,0.3,0.875,5.7393,1.4737,0.015821
OBS_164,AGIOS-GERMANOS  PHLORINA(267),40.846,21.198,macroseismic,Stations_USGS,,0.064516,0.8059,0.143874,1.0131,,,0.073552,1.0822,815.73,inferred,5.0,0.3,0.875,5.7393,1.4737,0.015828
OBS_162,TSAKOI  PELLA(1062),40.947,22.041,macroseismic,Stations_USGS,,0.0636,0.8059,0.141248,1.0131,,,0.074199,1.0822,289.81,inferred,5.0,0.3,0.875,5.7393,1.4737,0.015985
OBS_267,MALAKASI  TRIKALA(513),39.766,21.267,macroseismic,Stations_USGS,,0.062087,0.8059,0.103441,1.0131,,,0.03832,1.0822,839.71,inferred,4.5,0.3,0.875,3.9869,1.4737,0.007592
OBS_159,NOTIA  PELLA(436),41.11,22.167,macroseismic,Stations_USGS,,0.060298,0.8059,0.131877,1.0131,,,0.076663,1.0822,900.0,inferred,5.0,0.3,0.875,5.7393,1.4737,0.016581
OBS_256,RITINI  PIERIA(1578),40.292,22.288,macroseismic,Stations_USGS,,0.060252,0.8059,0.099522,1.0131,,,0.039697,1.0822,638.22,inferred,4.5,0.3,0.875,3.9869,1.4737,0.008006
OBS_264,DIASELLO(NEOCHORI-TRIKALON)  TRIKALA(334),39.701,22.014,macroseismic,Stations_USGS,,0.059721,0.8059,0.098393,1.0131,,,0.040113,1.0822,283.11,inferred,4.5,0.3,0.875,3.9869,1.4737,0.008132
OBS_231,ARGYROPOULEIO  LARISSA(2013),39.856,22.334,macroseismic,Stations_USGS,,0.059283,0.8059,0.097464,1.0131,,,0.040462,1.0822,900.0,inferred,4.5,0.3,0.875,3.9869,1.4737,0.008238
OBS_257,VRONTOU  PIERIA(1800),40.184,22.408,macroseismic,Stations_USGS,,0.057984,0.8059,0.094723,1.0131,,,0.041531,1.0822,531.36,inferred,4.5,0.3,0.875,3.9869,1.4737,0.008567
OBS_254,LAGORRACHI  PIERIA(999),40.295,22.366,macroseismic,Stations_USGS,,0.057836,0.8059,0.094411,1.0131,,,0.041656,1.0822,302.92,inferred,4.5,0.3,0.875,3.9869,1.4737,0.008606
OBS_255,LOPHOS  PIERIA(2091),40.243,22.392,macroseismic,Stations_USGS,,0.057824,0.8059,0.094385,1.0131,,,0.041667,1.0822,370.31,inferred,4.5,0.3,0.875,3.9869,1.4737,0.008609
OBS_251,KATALONIA  PIERIA(484),40.339,22.355,macroseismic,Stations_USGS,,0.057325,0.8059,0.093339,1.0131,,,0.042093,1.0822,465.22,inferred,4.5,0.3,0.875,3.9869,1.4737,0.008742
OBS_270,MEGARCHI  TRIKALA(1274),39.618,21.614,macroseismic,Stations_USGS,,0.056953,0.8059,0.092559,1.0131,,,0.042417,1.0822,591.33,inferred,4.5,0.3,0.875,3.9869,1.4737,0.008843
OBS_227,LAKKOMATA  KASTORIA(467),40.425,21.195,macroseismic,Stations_USGS,,0.056707,0.8059,0.092045,1.0131,,,0.042634,1.0822,531.3,inferred,4.5,0.3,0.875,3.9869,1.4737,0.008911
OBS_249,KARITSA  PIERIA(2205),40.176,22.468,macroseismic,Stations_USGS,,0.056246,0.8059,0.091081,1.0131,,,0.043046,1.0822,457.96,inferred,4.5,0.3,0.875,3.9869,1.4737,0.009041
OBS_229,PENTAVRYSO  KASTORIA(851),40.454,21.145,macroseismic,Stations_USGS,,0.055085,0.8059,0.088668,1.0131,,,0.044115,1.0822,504.31,inferred,4.5,0.3,0.875,3.9869,1.4737,0.00938
OBS_222,TRILOPHO  IMATHIA(818),40.574,22.163,macroseismic,Stations_USGS,,0.05416,0.8059,0.086755,1.0131,,,0.045491,1.0822,454.61,inferred,4.5,0.3,0.875,3.9869,1.4737,0.009665
OBS_220,PATRIDA  IMATHIA(1186),40.567,22.195,macroseismic,Stations_USGS,,0.054075,0.8059,0.08658,1.0131,,,0.045535,1.0822,396.65,inferred,4.5,0.3,0.875,3.9869,1.4737,0.009692
OBS_269,MEGALOCHORI  TRIKALA(1768),39.554,21.839,macroseismic,Stations_USGS,,0.054003,0.8059,0.08643,1.0131,,,0.045572,1.0822,216.38,inferred,4.5,0.3,0.875,3.9869,1.4737,0.009715
OBS_218,MAKROCHORI  IMATHIA(4338),40.562,22.262,macroseismic,Stations_USGS,,0.053517,0.8059,0.085432,1.0131,,,0.045825,1.0822,282.14,inferred,4.5,0.3,0.875,3.9869,1.4737,0.009914
OBS_210,DIAVATOS  IMATHIA(1315),40.549,22.295,macroseismic,Stations_USGS,,0.053455,0.8059,0.085303,1.0131,,,0.045858,1.0822,229.75,inferred,4.5,0.3,0.875,3.9869,1.4737,0.009922
OBS_215,KOULOURA  IMATHIA(928),40.54,22.317,macroseismic,Stations_USGS,,0.053394,0.8059,0.085178,1.0131,,,0.04589,1.0822,219.41,inferred,4.5,0.3,0.875,3.9869,1.4737,0.00993
OBS_234,GIANNOULI  LARISSA(3284),39.665,22.392,macroseismic,Stations_USGS,,0.05336,0.8059,0.085108,1.0131,,,0.045908,1.0822,215.92,inferred,4.5,0.3,0.875,3.9869,1.4737,0.009934
OBS_219,MONOSPITA  IMATHIA(969),40.618,22.165,macroseismic,Stations_USGS,,0.052936,0.8059,0.084238,1.0131,,,0.046133,1.0822,301.08,inferred,4.5,0.3,0.875,3.9869,1.4737,0.009989
OBS_265,GLINOS  TRIKALA(585),39.516,21.865,macroseismic,Stations_USGS,,0.05286,0.8059,0.084083,1.0131,,,0.046174,1.0822,203.14,inferred,4.5,0.3,0.875,3.9869,1.4737,0.009999
OBS_208,AGIA-MARINA  IMATHIA(958),40.609,22.227,macroseismic,Stations_USGS,,0.052683,0.8059,0.083721,1.0131,,,0.046269,1.0822,290.38,inferred,4.5,0.3,0.875,3.9869,1.4737,0.010022
OBS_213,KOPANOS  IMATHIA(1993),40.638,22.138,macroseismic,Stations_USGS,,0.052583,0.8059,0.083516,1.0131,,,0.046322,1.0822,329.01,inferred,4.5,0.3,0.875,3.9869,1.4737,0.010035
OBS_223,XECHASMENI  IMATHIA(1022),40.566,22.336,macroseismic,Stations_USGS,,0.052569,0.8059,0.083487,1.0131,,,0.04633,1.0822,225.78,inferred,4.5,0.3,0.875,3.9869,1.4737,0.010037
OBS_228,OINOI  KASTORIA(621),40.529,21.082,macroseismic,Stations_USGS,,0.052452,0.8059,0.083247,1.0131,,,0.046394,1.0822,555.08,inferred,4.5,0.3,0.875,3.9869,1.4737,0.010052
OBS_266,LYGARIA  TRIKALA(580),39.486,21.684,macroseismic,Stations_USGS,,0.052341,0.8059,0.08302,1.0131,,,0.046454,1.0822,301.84,inferred,4.5,0.3,0.875,3.9869,1.4737,0.010067
OBS_253,KORINOS  PIERIA(3736),40.322,22.594,macroseismic,Stations_USGS,,0.052224,0.8059,0.082782,1.0131,,,0.046517,1.0822,275.81,inferred,4.5,0.3,0.875,3.9869,1.4737,0.010082
OBS_211,KAVASILA  IMATHIA(792),40.585,22.334,macroseismic,Stations_USGS,,0.052177,0.8059,0.082686,1.0131,,,0.046543,1.0822,224.29,inferred,4.5,0.3,0.875,3.9869,1.4737,0.010088
OBS_271,MOURIA  TRIKALA(714),39.484,21.725,macroseismic,Stations_USGS,,0.052143,0.8059,0.082616,1.0131,,,0.046562,1.0822,268.85,inferred,4.5,0.3,0.875,3.9869,1.4737,0.010093
OBS_252,KOLINDROS  PIERIA(4026),40.49,22.481,macroseismic,Stations_USGS,,0.052052,0.8059,0.08243,1.0131,,,0.046612,1.0822,555.06,inferred,4.5,0.3,0.875,3.9869,1.4737,0.010105
OBS_212,KEPHALOCHORI  IMATHIA(792),40.57,22.375,macroseismic,Stations_USGS,,0.052018,0.8059,0.082361,1.0131,,,0.046631,1.0822,217.1,inferred,4.5,0.3,0.875,3.9869,1.4737,0.01011
OBS_268,MEGALA-KALYVIA  TRIKALA(2317),39.483,21.781,macroseismic,Stations_USGS,,0.051953,0.8059,0.082229,1.0131,,,0.046666,1.0822,215.43,inferred,4.5,0.3,0.875,3.9869,1.4737,0.010118
OBS_221,PRODROMOS  IMATHIA(1542),40.556,22.409,macroseismic,Stations_USGS,,0.051874,0.8059,0.082068,1.0131,,,0.04671,1.0822,225.7,inferred,4.5,0.3,0.875,3.9869,1.4737,0.010129
OBS_226,PALAMAS  KARDITSA(6010),39.478,22.078,macroseismic,Stations_USGS,,0.051618,0.8059,0.081547,1.0131,,,0.046851,1.0822,217.82,inferred,4.5,0.3,0.875,3.9869,1.4737,0.010163
OBS_250,KATACHAS  PIERIA(660),40.455,22.547,macroseismic,Stations_USGS,,0.051554,0.8059,0.081417,1.0131,,,0.046887,1.0822,507.51,inferred,4.5,0.3,0.875,3.9869,1.4737,0.010172
OBS_217,LOUTROS  IMATHIA(1290),40.586,22.403,macroseismic,Stations_USGS,,0.051372,0.8059,0.081047,1.0131,,,0.046989,1.0822,197.47,inferred,4.5,0.3,0.875,3.9869,1.4737,0.010197
OBS_216,KYPSELI  IMATHIA(521),40.555,22.492,macroseismic,Stations_USGS,,0.050833,0.8059,0.079954,1.0131,,,0.047293,1.0822,413.99,inferred,4.5,0.3,0.875,3.9869,1.4737,0.010271
OBS_512,MAVRELI  TRIKALA(671),39.835,21.905,macroseismic,Stations_USGS,,0.050811,0.8059,0.060362,1.0131,,,0.015692,1.0822,518.91,inferred,4.0,0.3,0.875,2.216,1.4737,0.002334
OBS_246,PHLAMOURIA  PELLA(963),40.729,22.0,macroseismic,Stations_USGS,,0.050772,0.8059,0.079829,1.0131,,,0.047329,1.0822,861.62,inferred,4.5,0.3,0.875,3.9869,1.4737,0.010279
OBS_225,MAVROMMATI  KARDITSA(1683),39.423,21.7,macroseismic,Stations_USGS,,0.05071,0.8059,0.079704,1.0131,,,0.047364,1.0822,701.7,inferred,4.5,0.3,0.875,3.9869,1.4737,0.010288
OBS_245,PETRAIA  PELLA(1630),40.717,22.141,macroseismic,Stations_USGS,,0.050671,0.8059,0.079625,1.0131,,,0.047386,1.0822,323.3,inferred,4.5,0.3,0.875,3.9869,1.4737,0.010293
OBS_237,ARSENI  PELLA(1459),40.713,22.174,macroseismic,Stations_USGS,,0.050607,0.8059,0.079496,1.0131,,,0.047423,1.0822,285.82,inferred,4.5,0.3,0.875,3.9869,1.4737,0.010302
OBS_248,AIGINIO  PIERIA(4553),40.512,22.565,macroseismic,Stations_USGS,,0.050509,0.8059,0.079297,1.0131,,,0.04748,1.0822,252.67,inferred,4.5,0.3,0.875,3.9869,1.4737,0.010316
OBS_241,KRYA-VRYSSI  PELLA(5767),40.682,22.32,macroseismic,Stations_USGS,,0.050304,0.8059,0.078884,1.0131,,,0.047598,1.0822,223.96,inferred,4.5,0.3,0.875,3.9869,1.4737,0.010345
OBS_224,ARTESIANO  KARDITSA(1471),39.414,21.887,macroseismic,Stations_USGS,,0.050265,0.8059,0.078804,1.0131,,,0.04762,1.0822,210.28,inferred,4.5,0.3,0.875,3.9869,1.4737,0.010351
OBS_214,KORYPHI  IMATHIA(1802),40.604,22.494,macroseismic,Stations_USGS,,0.050021,0.8059,0.078313,1.0131,,,0.047762,1.0822,180.0,inferred,4.5,0.3,0.875,3.9869,1.4737,0.010385
OBS_209,ALEXANDREIA  IMATHIA(13319),40.649,22.44,macroseismic,Stations_USGS,,0.049844,0.8059,0.077955,1.0131,,,0.047867,1.0822,195.39,inferred,4.5,0.3,0.875,3.9869,1.4737,0.010411
OBS_236,AGIOS-LOUKAS  PELLA(1290),40.713,22.301,macroseismic,Stations_USGS,,0.049842,0.8059,0.077952,1.0131,,,0.047868,1.0822,219.71,inferred,4.5,0.3,0.875,3.9869,1.4737,0.010411
OBS_242,MESIMERI  PELLA(1014),40.78,22.007,macroseismic,Stations_USGS,,0.049645,0.8059,0.077555,1.0131,,,0.047984,1.0822,696.55,inferred,4.5,0.3,0.875,3.9869,1.4737,0.010439
OBS_247,RIZARI  PELLA(1212),40.786,22.097,macroseismic,Stations_USGS,,0.049359,0.8059,0.07698,1.0131,,,0.048154,1.0822,479.33,inferred,4.5,0.3,0.875,3.9869,1.4737,0.010481
OBS_232,CHALKI  LARISSA(2009),39.549,22.542,macroseismic,Stations_USGS,,0.049292,0.8059,0.076846,1.0131,,,0.048194,1.0822,276.73,inferred,4.5,0.3,0.875,3.9869,1.4737,0.01049
OBS_240,KARYOTISSA  PELLA(2087),40.75,22.325,macroseismic,Stations_USGS,,0.048996,0.8059,0.076253,1.0131,,,0.048372,1.0822,221.29,inferred,4.5,0.3,0.875,3.9869,1.4737,0.010534
OBS_207,TETRAKOMO  ARTA(814),39.339,21.26,macroseismic,Stations_USGS,,0.048832,0.8059,0.075923,1.0131,,,0.048472,1.0822,772.2,inferred,4.5,0.3,0.875,3.9869,1.4737,0.010558
OBS_243,PALAIPHYTO  PELLA(1446),40.777,22.285,macroseismic,Stations_USGS,,0.048753,0.8059,0.075765,1.0131,,,0.04852,1.0822,229.89,inferred,4.5,0.3,0.875,3.9869,1.4737,0.01057
OBS_238,KALLIPOLI  PELLA(708),40.797,22.228,macroseismic,Stations_USGS,,0.048676,0.8059,0.075612,1.0131,,,0.048567,1.0822,226.59,inferred,4.5,0.3,0.875,3.9869,1.4737,0.010581
OBS_263,NEA-MALGARA  THESSALONIKI(2349),40.566,22.665,macroseismic,Stations_USGS,,0.048574,0.8059,0.075408,1.0131,,,0.04863,1.0822,180.0,inferred,4.5,0.3,0.875,3.9869,1.4737,0.010597
OBS_233,CHARA  LARISSA(408),39.417,22.408,macroseismic,Stations_USGS,,0.048404,0.8059,0.075067,1.0131,,,0.048735,1.0822,375.02,inferred,4.5,0.3,0.875,3.9869,1.4737,0.010622
OBS_258,ADENDRO  THESSALONIKI(2201),40.66,22.587,macroseismic,Stations_USGS,,0.048239,0.8059,0.074738,1.0131,,,0.048836,1.0822,205.18,inferred,4.5,0.3,0.875,3.9869,1.4737,0.010647
OBS_244,PANAGITSA  PELLA(1036),40.863,21.846,macroseismic,Stations_USGS,,0.048054,0.8059,0.074369,1.0131,,,0.048952,1.0822,900.0,inferred,4.5,0.3,0.875,3.9869,1.4737,0.010675
OBS_239,KARYDIA  PELLA(949),40.863,21.939,macroseismic,Stations_USGS,,0.048053,0.8059,0.074368,1.0131,,,0.048952,1.0822,621.97,inferred,4.5,0.3,0.875,3.9869,1.4737,0.010675
OBS_261,KYMINA  THESSALONIKI(3469),40.616,22.691,macroseismic,Stations_USGS,,0.047727,0.8059,0.073718,1.0131,,,0.049157,1.0822,203.08,inferred,4.5,0.3,0.875,3.9869,1.4737,0.010726
OBS_235,MEGALO-MONASTIRI  LARISSA(657),39.441,22.665,macroseismic,Stations_USGS,,0.046668,0.8059,0.071618,1.0131,,,0.049838,1.0822,404.2,inferred,4.5,0.3,0.875,3.9869,1.4737,0.010892
OBS_260,KALOCHORI  THESSALONIKI(3424),40.634,22.839,macroseismic,Stations_USGS,,0.046093,0.8059,0.070484,1.0131,,,0.050218,1.0822,198.27,inferred,4.5,0.3,0.875,3.9869,1.4737,0.010985
OBS_259,KALAMARIA  THESSALONIKI(80698),40.576,22.954,macroseismic,Stations_USGS,,0.045456,0.8059,0.069231,1.0131,,,0.050648,1.0822,413.94,inferred,4.5,0.3,0.875,3.9869,1.4737,0.011091
OBS_230,TOUMPA  KILKIS(784),40.931,22.53,macroseismic,Stations_USGS,,0.045184,0.8059,0.068699,1.0131,,,0.050835,1.0822,356.11,inferred,4.5,0.3,0.875,3.9869,1.4737,0.011137
OBS_323,METSOVO  IOANNINA(2917),39.813,21.153,macroseismic,Stations_USGS,,0.044248,0.8059,0.050515,1.0131,,,0.018467,1.0822,322.49,inferred,4.0,0.3,0.875,2.216,1.4737,0.00298
OBS_206,AGIOS-SPYRIDONAS  ARTA(1190),39.144,20.868,macroseismic,Stations_USGS,,0.04418,0.8059,0.066739,1.0131,,,0.051539,1.0822,215.26,inferred,4.5,0.3,0.875,3.9869,1.4737,0.01131
OBS_320,CHRYSOVITSA  IOANNINA(1100),39.791,21.082,macroseismic,Stations_USGS,,0.04224,0.8059,0.047581,1.0131,,,0.019505,1.0822,900.0,inferred,4.0,0.3,0.875,2.216,1.4737,0.003235
OBS_360,KALLIPEFKI  LARISSA(741),39.936,22.449,macroseismic,Stations_USGS,,0.041711,0.8059,0.046816,1.0131,,,0.019796,1.0822,482.4,inferred,4.0,0.3,0.875,2.216,1.4737,0.003307
OBS_447,NEOKAISAREIA  PIERIA(465),40.266,22.424,macroseismic,Stations_USGS,,0.041483,0.8059,0.046487,1.0131,,,0.019924,1.0822,425.29,inferred,4.0,0.3,0.875,2.216,1.4737,0.00334
OBS_262,NEA-APOLLONIA  THESSALONIKI(1713),40.635,23.431,macroseismic,Stations_USGS,,0.041442,0.8059,0.061461,1.0131,,,0.053601,1.0822,477.66,inferred,4.5,0.3,0.875,3.9869,1.4737,0.011818
OBS_442,LEPTOKARYA  PIERIA(3366),40.045,22.487,macroseismic,Stations_USGS,,0.041172,0.8059,0.046039,1.0131,,,0.020101,1.0822,900.0,inferred,4.0,0.3,0.875,2.216,1.4737,0.003384
OBS_511,KRINI  TRIKALA(1042),39.619,22.007,macroseismic,Stations_USGS,,0.041166,0.8059,0.046029,1.0131,,,0.020105,1.0822,537.56,inferred,4.0,0.3,0.875,2.216,1.4737,0.003385
OBS_438,EXOCHI  PIERIA(947),40.341,22.414,macroseismic,Stations_USGS,,0.040905,0.8059,0.045654,1.0131,,,0.020256,1.0822,454.89,inferred,4.0,0.3,0.875,2.216,1.4737,0.003424
OBS_370,PARAPOTAMOS  LARISSA(372),39.814,22.443,macroseismic,Stations_USGS,,0.04058,0.8059,0.045187,1.0131,,,0.020447,1.0822,617.36,inferred,4.0,0.3,0.875,2.216,1.4737,0.003472
OBS_322,MEGALO-PERISTERI  IOANNINA(717),39.698,21.082,macroseismic,Stations_USGS,,0.040575,0.8059,0.045181,1.0131,,,0.02045,1.0822,900.0,inferred,4.0,0.3,0.875,2.216,1.4737,0.003473
OBS_314,PHYTEIA  IMATHIA(790),40.55,22.114,macroseismic,Stations_USGS,,0.040495,0.8059,0.045065,1.0131,,,0.020497,1.0822,705.94,inferred,4.0,0.3,0.875,2.216,1.4737,0.003485
OBS_445,NEA-EPHESOS  PIERIA(1516),40.221,22.518,macroseismic,Stations_USGS,,0.040014,0.8059,0.044378,1.0131,,,0.020788,1.0822,236.84,inferred,4.0,0.3,0.875,2.216,1.4737,0.003559
OBS_510,KLOKOTOS  TRIKALA(819),39.571,22.014,macroseismic,Stations_USGS,,0.039915,0.8059,0.044236,1.0131,,,0.020848,1.0822,332.59,inferred,4.0,0.3,0.875,2.216,1.4737,0.003575
OBS_452,TRILOPHOS  PIERIA(694),40.366,22.468,macroseismic,Stations_USGS,,0.039744,0.8059,0.043992,1.0131,,,0.020954,1.0822,460.66,inferred,4.0,0.3,0.875,2.216,1.4737,0.003602
OBS_313,PALATITSIA  IMATHIA(927),40.478,22.359,macroseismic,Stations_USGS,,0.039712,0.8059,0.043947,1.0131,,,0.020974,1.0822,602.05,inferred,4.0,0.3,0.875,2.216,1.4737,0.003607
OBS_437,ANO-AGIOS-IOANNIS  PIERIA(558),40.325,22.496,macroseismic,Stations_USGS,,0.0397,0.8059,0.043929,1.0131,,,0.020982,1.0822,419.54,inferred,4.0,0.3,0.875,2.216,1.4737,0.003609
OBS_363,MAKRYCHORI  LARISSA(1773),39.778,22.479,macroseismic,Stations_USGS,,0.039544,0.8059,0.043707,1.0131,,,0.021079,1.0822,482.75,inferred,4.0,0.3,0.875,2.216,1.4737,0.003635
OBS_448,PALAIOSTANI  PIERIA(664),40.403,22.455,macroseismic,Stations_USGS,,0.039515,0.8059,0.043666,1.0131,,,0.021097,1.0822,380.7,inferred,4.0,0.3,0.875,2.216,1.4737,0.003639
OBS_449,PANTELEIMON  PIERIA(1104),39.993,22.572,macroseismic,Stations_USGS,,0.039494,0.8059,0.043636,1.0131,,,0.02111,1.0822,900.0,inferred,4.0,0.3,0.875,2.216,1.4737,0.003643
OBS_440,KATERINI  PIERIA(45281),40.347,22.505,macroseismic,Stations_USGS,,0.039367,0.8059,0.043455,1.0131,,,0.02119,1.0822,369.68,inferred,4.0,0.3,0.875,2.216,1.4737,0.003663
OBS_446,NEA-TRAPEZOUS  PIERIA(504),40.334,22.518,macroseismic,Stations_USGS,,0.039281,0.8059,0.043333,1.0131,,,0.021245,1.0822,336.92,inferred,4.0,0.3,0.875,2.216,1.4737,0.003678
OBS_441,KATO-AGIOS-IOANNIS  PIERIA(678),40.296,22.539,macroseismic,Stations_USGS,,0.039234,0.8059,0.043267,1.0131,,,0.021275,1.0822,277.04,inferred,4.0,0.3,0.875,2.216,1.4737,0.003685
OBS_514,PHIKI  TRIKALA(1379),39.518,21.657,macroseismic,Stations_USGS,,0.039078,0.8059,0.043045,1.0131,,,0.021375,1.0822,288.71,inferred,4.0,0.3,0.875,2.216,1.4737,0.003711
OBS_373,TERPSITHEA  LARISSA(1244),39.628,22.337,macroseismic,Stations_USGS,,0.03906,0.8059,0.043019,1.0131,,,0.021387,1.0822,383.24,inferred,4.0,0.3,0.875,2.216,1.4737,0.003714
OBS_451,PLATAMONAS  PIERIA(1586),39.985,22.6,macroseismic,Stations_USGS,,0.039001,0.8059,0.042936,1.0131,,,0.021425,1.0822,900.0,inferred,4.0,0.3,0.875,2.216,1.4737,0.003724
OBS_450,PERISTASI  PIERIA(1730),40.259,22.571,macroseismic,Stations_USGS,,0.038941,0.8059,0.04285,1.0131,,,0.021464,1.0822,253.5,inferred,4.0,0.3,0.875,2.216,1.4737,0.003735
OBS_439,KALLITHEA  PIERIA(1970),40.283,22.57,macroseismic,Stations_USGS,,0.038832,0.8059,0.042697,1.0131,,,0.021534,1.0822,268.14,inferred,4.0,0.3,0.875,2.216,1.4737,0.003753
OBS_508,ELATI  TRIKALA(688),39.489,21.529,macroseismic,Stations_USGS,,0.038766,0.8059,0.042602,1.0131,,,0.021578,1.0822,894.97,inferred,4.0,0.3,0.875,2.216,1.4737,0.003764
OBS_311,NEA-NIKOMIDEIA  IMATHIA(813),40.588,22.258,macroseismic,Stations_USGS,,0.038764,0.8059,0.0426,1.0131,,,0.021579,1.0822,270.37,inferred,4.0,0.3,0.875,2.216,1.4737,0.003765
OBS_317,STAVROS  IMATHIA(1529),40.585,22.304,macroseismic,Stations_USGS,,0.038466,0.8059,0.042178,1.0131,,,0.021776,1.0822,218.12,inferred,4.0,0.3,0.875,2.216,1.4737,0.003816
OBS_362,KOILADA  LARISSA(715),39.569,22.298,macroseismic,Stations_USGS,,0.038369,0.8059,0.042041,1.0131,,,0.021841,1.0822,320.09,inferred,4.0,0.3,0.875,2.216,1.4737,0.003834
OBS_371,PYRGETOS  LARISSA(1759),39.925,22.629,macroseismic,Stations_USGS,,0.038365,0.8059,0.042036,1.0131,,,0.021843,1.0822,357.78,inferred,4.0,0.3,0.875,2.216,1.4737,0.003834
OBS_306,AGIOS-GEORGIOS  IMATHIA(1472),40.624,22.221,macroseismic,Stations_USGS,,0.038362,0.8059,0.042032,1.0131,,,0.021845,1.0822,271.79,inferred,4.0,0.3,0.875,2.216,1.4737,0.003835
OBS_308,CHARIESSA  IMATHIA(1112),40.653,22.17,macroseismic,Stations_USGS,,0.038177,0.8059,0.041672,1.0131,,,0.022018,1.0822,271.05,inferred,4.0,0.3,0.875,2.216,1.4737,0.00388
OBS_346,NESTORIO  KASTORIA(1332),40.422,20.923,macroseismic,Stations_USGS,,0.038152,0.8059,0.041736,1.0131,,,0.021987,1.0822,672.94,inferred,4.0,0.3,0.875,2.216,1.4737,0.003872
OBS_368,OMOLIO  LARISSA(838),39.891,22.64,macroseismic,Stations_USGS,,0.038049,0.8059,0.041597,1.0131,,,0.022054,1.0822,805.05,inferred,4.0,0.3,0.875,2.216,1.4737,0.00389
OBS_316,RODOCHORI  IMATHIA(772),40.683,22.008,macroseismic,Stations_USGS,,0.037931,0.8059,0.041527,1.0131,,,0.022088,1.0822,778.84,inferred,4.0,0.3,0.875,2.216,1.4737,0.003899
OBS_358,ELEFTHERES  LARISSA(419),39.563,22.332,macroseismic,Stations_USGS,,0.037927,0.8059,0.041524,1.0131,,,0.022089,1.0822,307.19,inferred,4.0,0.3,0.875,2.216,1.4737,0.003899
OBS_309,EPISKOPI  IMATHIA(951),40.588,22.365,macroseismic,Stations_USGS,,0.037742,0.8059,0.041415,1.0131,,,0.022143,1.0822,210.79,inferred,4.0,0.3,0.875,2.216,1.4737,0.003913
OBS_325,PETROVOUNI  IOANNINA(136),39.582,21.009,macroseismic,Stations_USGS,,0.037585,0.8059,0.041322,1.0131,,,0.022188,1.0822,900.0,inferred,4.0,0.3,0.875,2.216,1.4737,0.003925
OBS_319,ZERVOCHORI  IMATHIA(1518),40.65,22.233,macroseismic,Stations_USGS,,0.037552,0.8059,0.041302,1.0131,,,0.022198,1.0822,250.49,inferred,4.0,0.3,0.875,2.216,1.4737,0.003928
OBS_509,GOMPHOI  TRIKALA(1187),39.462,21.702,macroseismic,Stations_USGS,,0.037541,0.8059,0.041296,1.0131,,,0.022201,1.0822,282.04,inferred,4.0,0.3,0.875,2.216,1.4737,0.003929
OBS_369,OSSA  LARISSA(651),39.735,22.574,macroseismic,Stations_USGS,,0.037398,0.8059,0.041211,1.0131,,,0.022243,1.0822,491.53,inferred,4.0,0.3,0.875,2.216,1.4737,0.00394
OBS_364,MAVROVOUNI  LARISSA(391),39.523,22.271,macroseismic,Stations_USGS,,0.037373,0.8059,0.041196,1.0131,,,0.02225,1.0822,324.84,inferred,4.0,0.3,0.875,2.216,1.4737,0.003942
OBS_312,PALAIO-SKYLLITSI  IMATHIA(647),40.62,22.324,macroseismic,Stations_USGS,,0.037336,0.8059,0.041174,1.0131,,,0.022261,1.0822,212.55,inferred,4.0,0.3,0.875,2.216,1.4737,0.003945
OBS_406,GRAMMATIKO  PELLA(389),40.702,21.909,macroseismic,Stations_USGS,,0.037172,0.8059,0.041076,1.0131,,,0.022309,1.0822,631.94,inferred,4.0,0.3,0.875,2.216,1.4737,0.003958
OBS_361,KALOCHORI  LARISSA(987),39.7,22.552,macroseismic,Stations_USGS,,0.037171,0.8059,0.041076,1.0131,,,0.02231,1.0822,671.48,inferred,4.0,0.3,0.875,2.216,1.4737,0.003958
OBS_443,MAKRYGIALOS  PIERIA(1504),40.406,22.593,macroseismic,Stations_USGS,,0.03713,0.8059,0.041052,1.0131,,,0.022322,1.0822,411.91,inferred,4.0,0.3,0.875,2.216,1.4737,0.003961
OBS_426,XINO-NERO  PHLORINA(1371),40.698,21.61,macroseismic,Stations_USGS,,0.0371,0.8059,0.041034,1.0131,,,0.022331,1.0822,696.49,inferred,4.0,0.3,0.875,2.216,1.4737,0.003963
OBS_307,ANGELOCHORI  IMATHIA(2635),40.67,22.225,macroseismic,Stations_USGS,,0.036867,0.8059,0.040895,1.0131,,,0.0224,1.0822,236.92,inferred,4.0,0.3,0.875,2.216,1.4737,0.003982
OBS_444,METHONI  PIERIA(1060),40.448,22.574,macroseismic,Stations_USGS,,0.0368,0.8059,0.040854,1.0131,,,0.02242,1.0822,511.86,inferred,4.0,0.3,0.875,2.216,1.4737,0.003987
OBS_315,POLYPLATANOS  IMATHIA(0),40.68,22.2,macroseismic,Stations_USGS,,0.036758,0.8059,0.040829,1.0131,,,0.022433,1.0822,247.72,inferred,4.0,0.3,0.875,2.216,1.4737,0.003991
OBS_513,NERAIDA  TRIKALA(244),39.452,21.237,macroseismic,Stations_USGS,,0.036584,0.8059,0.040725,1.0131,,,0.022485,1.0822,876.63,inferred,4.0,0.3,0.875,2.216,1.4737,0.004005
OBS_337,MAKRYCHORI  KARDITSA(1085),39.447,21.982,macroseismic,Stations_USGS,,0.036478,0.8059,0.040661,1.0131,,,0.022518,1.0822,213.79,inferred,4.0,0.3,0.875,2.216,1.4737,0.004013
OBS_336,MAGOULITSA  KARDITSA(792),39.444,21.76,macroseismic,Stations_USGS,,0.036455,0.8059,0.040647,1.0131,,,0.022525,1.0822,246.84,inferred,4.0,0.3,0.875,2.216,1.4737,0.004015
OBS_321,IOANNINA  IOANNINA(56699),39.664,20.857,macroseismic,Stations_USGS,,0.036142,0.8059,0.040458,1.0131,,,0.022621,1.0822,375.14,inferred,4.0,0.3,0.875,2.216,1.4737,0.004041
OBS_372,SPILIA  LARISSA(324),39.81,22.67,macroseismic,Stations_USGS,,0.036016,0.8059,0.040383,1.0131,,,0.022659,1.0822,900.0,inferred,4.0,0.3,0.875,2.216,1.4737,0.004051
OBS_392,AKROLIMNI  PELLA(1192),40.688,22.265,macroseismic,Stations_USGS,,0.035734,0.8059,0.040211,1.0131,,,0.022748,1.0822,211.57,inferred,4.0,0.3,0.875,2.216,1.4737,0.004075
OBS_367,NIKAIA  LARISSA(2840),39.565,22.455,macroseismic,Stations_USGS,,0.035632,0.8059,0.04015,1.0131,,,0.02278,1.0822,272.67,inferred,4.0,0.3,0.875,2.216,1.4737,0.004084
OBS_326,RAPHTANAIOI  IOANNINA(158),39.497,21.031,macroseismic,Stations_USGS,,0.03526,0.8059,0.039923,1.0131,,,0.022898,1.0822,818.23,inferred,4.0,0.3,0.875,2.216,1.4737,0.004115
OBS_329,DRAKOTRYPA  KARDITSA(824),39.389,21.599,macroseismic,Stations_USGS,,0.035131,0.8059,0.039844,1.0131,,,0.022939,1.0822,900.0,inferred,4.0,0.3,0.875,2.216,1.4737,0.004127
OBS_343,PHANARI  KARDITSA(958),39.41,21.806,macroseismic,Stations_USGS,,0.03503,0.8059,0.039782,1.0131,,,0.022972,1.0822,637.38,inferred,4.0,0.3,0.875,2.216,1.4737,0.004135
OBS_398,ASPRO  PELLA(851),40.732,22.205,macroseismic,Stations_USGS,,0.034817,0.8059,0.039651,1.0131,,,0.023041,1.0822,219.16,inferred,4.0,0.3,0.875,2.216,1.4737,0.004154
OBS_344,PHYLLO  KARDITSA(973),39.425,22.179,macroseismic,Stations_USGS,,0.034698,0.8059,0.039578,1.0131,,,0.02308,1.0822,211.53,inferred,4.0,0.3,0.875,2.216,1.4737,0.004165
OBS_338,MATARANKA  KARDITSA(1796),39.402,22.071,macroseismic,Stations_USGS,,0.03451,0.8059,0.039462,1.0131,,,0.023142,1.0822,226.31,inferred,4.0,0.3,0.875,2.216,1.4737,0.004181
OBS_330,KANALIA  KARDITSA(744),39.384,21.818,macroseismic,Stations_USGS,,0.034088,0.8059,0.039201,1.0131,,,0.023283,1.0822,567.31,inferred,4.0,0.3,0.875,2.216,1.4737,0.00422
OBS_410,LIPARO  PELLA(550),40.746,22.247,macroseismic,Stations_USGS,,0.033983,0.8059,0.039136,1.0131,,,0.023318,1.0822,212.76,inferred,4.0,0.3,0.875,2.216,1.4737,0.004229
OBS_341,OXYA  KARDITSA(703),39.352,21.596,macroseismic,Stations_USGS,,0.033824,0.8059,0.039037,1.0131,,,0.023372,1.0822,573.42,inferred,4.0,0.3,0.875,2.216,1.4737,0.004244
OBS_342,PALAIOKKLISI  KARDITSA(956),39.376,21.869,macroseismic,Stations_USGS,,0.033811,0.8059,0.039029,1.0131,,,0.023377,1.0822,238.23,inferred,4.0,0.3,0.875,2.216,1.4737,0.004245
OBS_359,GLAFKI  LARISSA(912),39.596,22.591,macroseismic,Stations_USGS,,0.033762,0.8059,0.038999,1.0131,,,0.023393,1.0822,229.67,inferred,4.0,0.3,0.875,2.216,1.4737,0.00425
OBS_289,ATHAMANI  ARTA(964),39.378,21.216,macroseismic,Stations_USGS,,0.033743,0.8059,0.038987,1.0131,,,0.0234,1.0822,780.04,inferred,4.0,0.3,0.875,2.216,1.4737,0.004252
OBS_318,TRIKALA  IMATHIA(1725),40.597,22.56,macroseismic,Stations_USGS,,0.033727,0.8059,0.038977,1.0131,,,0.023405,1.0822,202.43,inferred,4.0,0.3,0.875,2.216,1.4737,0.004253
OBS_310,KLEIDI  IMATHIA(1412),40.56,22.605,macroseismic,Stations_USGS,,0.033682,0.8059,0.038949,1.0131,,,0.023421,1.0822,202.78,inferred,4.0,0.3,0.875,2.216,1.4737,0.004257
OBS_365,NEES-KARYES  LARISSA(718),39.497,22.455,macroseismic,Stations_USGS,,0.033674,0.8059,0.038944,1.0131,,,0.023424,1.0822,342.32,inferred,4.0,0.3,0.875,2.216,1.4737,0.004258
OBS_391,AGRAS  PELLA(1005),40.797,21.986,macroseismic,Stations_USGS,,0.033607,0.8059,0.038902,1.0131,,,0.023447,1.0822,601.78,inferred,4.0,0.3,0.875,2.216,1.4737,0.004264
OBS_291,VOURGARELI(DROSOPIGI)  ARTA(1014),39.383,21.165,macroseismic,Stations_USGS,,0.03344,0.8059,0.038797,1.0131,,,0.023504,1.0822,900.0,inferred,4.0,0.3,0.875,2.216,1.4737,0.00428
OBS_334,KYPSELI  KARDITSA(876),39.373,22.153,macroseismic,Stations_USGS,,0.033133,0.8059,0.038605,1.0131,,,0.023611,1.0822,218.35,inferred,4.0,0.3,0.875,2.216,1.4737,0.004309
OBS_331,KARDITSA  KARDITSA(30289),39.35,21.92,macroseismic,Stations_USGS,,0.032949,0.8059,0.038489,1.0131,,,0.023676,1.0822,232.64,inferred,4.0,0.3,0.875,2.216,1.4737,0.004327
OBS_374,ZAPPEIO  LARISSA(760),39.46,22.436,macroseismic,Stations_USGS,,0.032942,0.8059,0.038485,1.0131,,,0.023679,1.0822,306.35,inferred,4.0,0.3,0.875,2.216,1.4737,0.004328
OBS_424,PHLORINA  PHLORINA(12622),40.788,21.399,macroseismic,Stations_USGS,,0.032896,0.8059,0.038456,1.0131,,,0.023695,1.0822,761.14,inferred,4.0,0.3,0.875,2.216,1.4737,0.004332
OBS_390,AGIOS-ATHANASIOS  PELLA(436),40.828,21.761,macroseismic,Stations_USGS,,0.032632,0.8059,0.038289,1.0131,,,0.023789,1.0822,889.12,inferred,4.0,0.3,0.875,2.216,1.4737,0.004358
OBS_327,ZITSA  IOANNINA(890),39.766,20.647,macroseismic,Stations_USGS,,0.032631,0.8059,0.038289,1.0131,,,0.02379,1.0822,441.13,inferred,4.0,0.3,0.875,2.216,1.4737,0.004358
OBS_412,MELISSI  PELLA(879),40.763,22.348,macroseismic,Stations_USGS,,0.032497,0.8059,0.038203,1.0131,,,0.023838,1.0822,229.71,inferred,4.0,0.3,0.875,2.216,1.4737,0.004372
OBS_333,KARPOCHORI  KARDITSA(1152),39.333,22.016,macroseismic,Stations_USGS,,0.032369,0.8059,0.038122,1.0131,,,0.023884,1.0822,229.21,inferred,4.0,0.3,0.875,2.216,1.4737,0.004384
OBS_339,MESENIKOLAS  KARDITSA(679),39.328,21.764,macroseismic,Stations_USGS,,0.032361,0.8059,0.038117,1.0131,,,0.023888,1.0822,884.35,inferred,4.0,0.3,0.875,2.216,1.4737,0.004385
OBS_421,TRIPHYLLI(GYPSOCHORI)  PELLA(971),40.797,22.262,macroseismic,Stations_USGS,,0.032329,0.8059,0.038097,1.0131,,,0.023899,1.0822,212.05,inferred,4.0,0.3,0.875,2.216,1.4737,0.004388
OBS_415,PALAIOS-MYLOTOPOS  PELLA(819),40.797,22.316,macroseismic,Stations_USGS,,0.031882,0.8059,0.037812,1.0131,,,0.024064,1.0822,266.29,inferred,4.0,0.3,0.875,2.216,1.4737,0.004434
OBS_345,SOPHADES  KARDITSA(5497),39.323,22.11,macroseismic,Stations_USGS,,0.031817,0.8059,0.03777,1.0131,,,0.024088,1.0822,219.46,inferred,4.0,0.3,0.875,2.216,1.4737,0.004441
OBS_366,NEO-PERIVOLI  LARISSA(604),39.493,22.596,macroseismic,Stations_USGS,,0.031424,0.8059,0.037518,1.0131,,,0.024236,1.0822,445.4,inferred,4.0,0.3,0.875,2.216,1.4737,0.004482
OBS_324,PARAKALAMOS  IOANNINA(949),39.844,20.555,macroseismic,Stations_USGS,,0.031242,0.8059,0.037401,1.0131,,,0.024305,1.0822,531.54,inferred,4.0,0.3,0.875,2.216,1.4737,0.004501
OBS_423,KATO-KLEINES  PHLORINA(529),40.854,21.407,macroseismic,Stations_USGS,,0.03103,0.8059,0.037263,1.0131,,,0.024387,1.0822,267.02,inferred,4.0,0.3,0.875,2.216,1.4737,0.004524
OBS_394,APSALOS  PELLA(1254),40.88,22.122,macroseismic,Stations_USGS,,0.03083,0.8059,0.037133,1.0131,,,0.024465,1.0822,627.26,inferred,4.0,0.3,0.875,2.216,1.4737,0.004545
OBS_402,DROSERO  PELLA(558),40.856,22.258,macroseismic,Stations_USGS,,0.030781,0.8059,0.037102,1.0131,,,0.024484,1.0822,563.14,inferred,4.0,0.3,0.875,2.216,1.4737,0.004551
OBS_395,ARAVISSOS  PELLA(1512),40.846,22.305,macroseismic,Stations_USGS,,0.030712,0.8059,0.037057,1.0131,,,0.024512,1.0822,632.7,inferred,4.0,0.3,0.875,2.216,1.4737,0.004558
OBS_416,PELLA  PELLA(2374),40.755,22.526,macroseismic,Stations_USGS,,0.030697,0.8059,0.037047,1.0131,,,0.024518,1.0822,457.97,inferred,4.0,0.3,0.875,2.216,1.4737,0.00456
OBS_497,NEA-MICHANIONA  THESSALONIKI(5884),40.476,22.833,macroseismic,Stations_USGS,,0.03063,0.8059,0.037003,1.0131,,,0.024544,1.0822,600.0,inferred,4.0,0.3,0.875,2.216,1.4737,0.004567
OBS_405,GIANNITSA  PELLA(25392),40.803,22.44,macroseismic,Stations_USGS,,0.030572,0.8059,0.036966,1.0131,,,0.024567,1.0822,383.54,inferred,4.0,0.3,0.875,2.216,1.4737,0.004574
OBS_425,POLYPLATANO  PHLORINA(369),40.874,21.425,macroseismic,Stations_USGS,,0.030567,0.8059,0.036962,1.0131,,,0.024569,1.0822,247.58,inferred,4.0,0.3,0.875,2.216,1.4737,0.004574
OBS_486,CHALKIDONA  THESSALONIKI(3144),40.726,22.593,macroseismic,Stations_USGS,,0.030464,0.8059,0.036895,1.0131,,,0.02461,1.0822,281.17,inferred,4.0,0.3,0.875,2.216,1.4737,0.004586
OBS_389,ACHLADOCHORI  PELLA(501),40.848,22.346,macroseismic,Stations_USGS,,0.030356,0.8059,0.036824,1.0131,,,0.024653,1.0822,506.69,inferred,4.0,0.3,0.875,2.216,1.4737,0.004598
OBS_409,LAKKA  PELLA(430),40.88,22.244,macroseismic,Stations_USGS,,0.030269,0.8059,0.036767,1.0131,,,0.024688,1.0822,802.35,inferred,4.0,0.3,0.875,2.216,1.4737,0.004608
OBS_419,SARAKINOI  PELLA(449),40.918,21.887,macroseismic,Stations_USGS,,0.030126,0.8059,0.036674,1.0131,,,0.024745,1.0822,900.0,inferred,4.0,0.3,0.875,2.216,1.4737,0.004624
OBS_328,ANAVRA  KARDITSA(1227),39.256,22.125,macroseismic,Stations_USGS,,0.029963,0.8059,0.036566,1.0131,,,0.024812,1.0822,231.67,inferred,4.0,0.3,0.875,2.216,1.4737,0.004643
OBS_422,XIPHIANI  PELLA(879),40.92,22.068,macroseismic,Stations_USGS,,0.029958,0.8059,0.036563,1.0131,,,0.024814,1.0822,302.96,inferred,4.0,0.3,0.875,2.216,1.4737,0.004643
OBS_393,ALOROS  PELLA(583),40.919,22.098,macroseismic,Stations_USGS,,0.029912,0.8059,0.036533,1.0131,,,0.024833,1.0822,385.77,inferred,4.0,0.3,0.875,2.216,1.4737,0.004648
OBS_411,MEGAPLATANOS  PELLA(506),40.934,21.977,macroseismic,Stations_USGS,,0.029725,0.8059,0.036409,1.0131,,,0.02491,1.0822,615.84,inferred,4.0,0.3,0.875,2.216,1.4737,0.00467
OBS_418,RACHONA  PELLA(770),40.811,22.534,macroseismic,Stations_USGS,,0.029458,0.8059,0.036232,1.0131,,,0.025021,1.0822,365.76,inferred,4.0,0.3,0.875,2.216,1.4737,0.004701
OBS_490,EPANOMI  THESSALONIKI(5562),40.389,22.944,macroseismic,Stations_USGS,,0.02943,0.8059,0.036214,1.0131,,,0.025032,1.0822,322.38,inferred,4.0,0.3,0.875,2.216,1.4737,0.004705
OBS_492,KOUPHALIA  THESSALONIKI(7558),40.796,22.576,macroseismic,Stations_USGS,,0.02931,0.8059,0.036134,1.0131,,,0.025083,1.0822,407.27,inferred,4.0,0.3,0.875,2.216,1.4737,0.004719
OBS_400,CHRYSI  PELLA(461),40.943,22.129,macroseismic,Stations_USGS,,0.029253,0.8059,0.036096,1.0131,,,0.025107,1.0822,511.05,inferred,4.0,0.3,0.875,2.216,1.4737,0.004726
OBS_499,PERAIA  THESSALONIKI(2949),40.486,22.923,macroseismic,Stations_USGS,,0.028993,0.8059,0.035923,1.0131,,,0.025218,1.0822,395.8,inferred,4.0,0.3,0.875,2.216,1.4737,0.004757
OBS_414,MYLOTOPOS  PELLA(2071),40.92,22.314,macroseismic,Stations_USGS,,0.028948,0.8059,0.035892,1.0131,,,0.025237,1.0822,893.73,inferred,4.0,0.3,0.875,2.216,1.4737,0.004762
OBS_420,THEODORAKEION  PELLA(745),40.947,22.208,macroseismic,Stations_USGS,,0.028885,0.8059,0.03585,1.0131,,,0.025264,1.0822,855.82,inferred,4.0,0.3,0.875,2.216,1.4737,0.00477
OBS_397,ARIDAIA  PELLA(4939),40.97,22.068,macroseismic,Stations_USGS,,0.028781,0.8059,0.035781,1.0131,,,0.025309,1.0822,284.3,inferred,4.0,0.3,0.875,2.216,1.4737,0.004783
OBS_507,TRILOPHO  THESSALONIKI(1993),40.43,22.972,macroseismic,Stations_USGS,,0.028668,0.8059,0.035705,1.0131,,,0.025358,1.0822,403.27,inferred,4.0,0.3,0.875,2.216,1.4737,0.004797
OBS_403,DYTIKO  PELLA(476),40.853,22.535,macroseismic,Stations_USGS,,0.028639,0.8059,0.035685,1.0131,,,0.025371,1.0822,397.67,inferred,4.0,0.3,0.875,2.216,1.4737,0.0048
OBS_404,EXAPLATANOS  PELLA(2069),40.972,22.125,macroseismic,Stations_USGS,,0.028611,0.8059,0.035667,1.0131,,,0.025383,1.0822,293.43,inferred,4.0,0.3,0.875,2.216,1.4737,0.004804
OBS_335,LEONTARI  KARDITSA(1376),39.197,22.151,macroseismic,Stations_USGS,,0.028501,0.8059,0.035593,1.0131,,,0.025431,1.0822,278.86,inferred,4.0,0.3,0.875,2.216,1.4737,0.004818
OBS_399,ATHYRA  PELLA(1613),40.83,22.599,macroseismic,Stations_USGS,,0.028453,0.8059,0.03556,1.0131,,,0.025453,1.0822,287.37,inferred,4.0,0.3,0.875,2.216,1.4737,0.004824
OBS_332,KAROPLESIO  KARDITSA(476),39.176,21.773,macroseismic,Stations_USGS,,0.028427,0.8059,0.035543,1.0131,,,0.025464,1.0822,596.3,inferred,4.0,0.3,0.875,2.216,1.4737,0.004827
OBS_401,DOROTHEA  PELLA(658),40.991,22.074,macroseismic,Stations_USGS,,0.028309,0.8059,0.035463,1.0131,,,0.025516,1.0822,275.74,inferred,4.0,0.3,0.875,2.216,1.4737,0.004842
OBS_301,AGRAPHA  EVRYTANIA(311),39.152,21.676,macroseismic,Stations_USGS,,0.028185,0.8059,0.035379,1.0131,,,0.025572,1.0822,900.0,inferred,4.0,0.3,0.875,2.216,1.4737,0.004858
OBS_385,STEPHANOVIKEIO  MAGNISIA(1835),39.452,22.783,macroseismic,Stations_USGS,,0.028153,0.8059,0.035358,1.0131,,,0.025586,1.0822,225.19,inferred,4.0,0.3,0.875,2.216,1.4737,0.004862
OBS_413,MILIA  PELLA(1295),40.995,22.132,macroseismic,Stations_USGS,,0.0281,0.8059,0.035321,1.0131,,,0.02561,1.0822,285.23,inferred,4.0,0.3,0.875,2.216,1.4737,0.004868
OBS_305,RAPTOPOULO  EVRYTANIA(979),39.135,21.464,macroseismic,Stations_USGS,,0.028093,0.8059,0.035316,1.0131,,,0.025613,1.0822,838.56,inferred,4.0,0.3,0.875,2.216,1.4737,0.004869
OBS_501,PROCHOMA  THESSALONIKI(2233),40.811,22.667,macroseismic,Stations_USGS,,0.02809,0.8059,0.035314,1.0131,,,0.025614,1.0822,424.96,inferred,4.0,0.3,0.875,2.216,1.4737,0.00487
OBS_408,KONSTANTIA  PELLA(724),40.989,22.199,macroseismic,Stations_USGS,,0.028023,0.8059,0.035269,1.0131,,,0.025645,1.0822,900.0,inferred,4.0,0.3,0.875,2.216,1.4737,0.004878
OBS_340,NERAIDA  KARDITSA(540),39.156,21.816,macroseismic,Stations_USGS,,0.027903,0.8059,0.035187,1.0131,,,0.025699,1.0822,760.83,inferred,4.0,0.3,0.875,2.216,1.4737,0.004894
OBS_386,VELESTINO  MAGNISIA(3852),39.362,22.686,macroseismic,Stations_USGS,,0.027885,0.8059,0.035175,1.0131,,,0.025707,1.0822,418.12,inferred,4.0,0.3,0.875,2.216,1.4737,0.004896
OBS_487,DIAVATA(IONIA)  THESSALONIKI(4463),40.681,22.855,macroseismic,Stations_USGS,,0.027803,0.8059,0.03512,1.0131,,,0.025744,1.0822,278.69,inferred,4.0,0.3,0.875,2.216,1.4737,0.004907
OBS_496,MENEMENI  THESSALONIKI(12932),40.657,22.884,macroseismic,Stations_USGS,,0.027727,0.8059,0.035067,1.0131,,,0.025779,1.0822,232.34,inferred,4.0,0.3,0.875,2.216,1.4737,0.004917
OBS_407,IDA  PELLA(671),41.008,22.177,macroseismic,Stations_USGS,,0.027707,0.8059,0.035054,1.0131,,,0.025788,1.0822,628.79,inferred,4.0,0.3,0.875,2.216,1.4737,0.004919
OBS_417,PHILOTEIA  PELLA(677),41.028,22.146,macroseismic,Stations_USGS,,0.027395,0.8059,0.03484,1.0131,,,0.025933,1.0822,346.21,inferred,4.0,0.3,0.875,2.216,1.4737,0.004961
OBS_283,PATIOPOULO  AITOLOAKARNANIA(685),39.108,21.271,macroseismic,Stations_USGS,,0.027221,0.8059,0.034721,1.0131,,,0.026014,1.0822,900.0,inferred,4.0,0.3,0.875,2.216,1.4737,0.004984
OBS_290,GRAMMENITSA  ARTA(1341),39.187,20.964,macroseismic,Stations_USGS,,0.027209,0.8059,0.034713,1.0131,,,0.02602,1.0822,395.21,inferred,4.0,0.3,0.875,2.216,1.4737,0.004986
OBS_505,THESSALONIKI  THESSALONIKI(383967),40.622,22.957,macroseismic,Stations_USGS,,0.027175,0.8059,0.034689,1.0131,,,0.026036,1.0822,437.64,inferred,4.0,0.3,0.875,2.216,1.4737,0.004991
OBS_455,RIZOVOUNI  PREVEZA(845),39.248,20.824,macroseismic,Stations_USGS,,0.027165,0.8059,0.034683,1.0131,,,0.026041,1.0822,616.54,inferred,4.0,0.3,0.875,2.216,1.4737,0.004992
OBS_302,GRANITSA  EVRYTANIA(532),39.089,21.514,macroseismic,Stations_USGS,,0.027143,0.8059,0.034668,1.0131,,,0.026051,1.0822,680.49,inferred,4.0,0.3,0.875,2.216,1.4737,0.004995
OBS_502,PYLAIA  THESSALONIKI(20785),40.592,22.989,macroseismic,Stations_USGS,,0.027054,0.8059,0.034606,1.0131,,,0.026093,1.0822,484.31,inferred,4.0,0.3,0.875,2.216,1.4737,0.005007
OBS_357,RYZIA  KILKIS(1282),40.926,22.581,macroseismic,Stations_USGS,,0.026978,0.8059,0.034553,1.0131,,,0.02613,1.0822,219.45,inferred,4.0,0.3,0.875,2.216,1.4737,0.005018
OBS_483,AGIOS-PAVLOS  THESSALONIKI(7221),40.636,22.968,macroseismic,Stations_USGS,,0.026896,0.8059,0.034497,1.0131,,,0.026169,1.0822,668.53,inferred,4.0,0.3,0.875,2.216,1.4737,0.005029
OBS_506,TRIANDRIA  THESSALONIKI(11822),40.628,22.975,macroseismic,Stations_USGS,,0.026889,0.8059,0.034492,1.0131,,,0.026172,1.0822,600.32,inferred,4.0,0.3,0.875,2.216,1.4737,0.00503
OBS_396,ARCHANGELOS  PELLA(666),41.048,22.285,macroseismic,Stations_USGS,,0.026578,0.8059,0.034276,1.0131,,,0.026323,1.0822,573.73,inferred,4.0,0.3,0.875,2.216,1.4737,0.005073
OBS_288,ARTA  ARTA(21286),39.138,20.993,macroseismic,Stations_USGS,,0.02654,0.8059,0.034249,1.0131,,,0.026342,1.0822,655.19,inferred,4.0,0.3,0.875,2.216,1.4737,0.005079
OBS_498,PANORAMA  THESSALONIKI(10275),40.585,23.036,macroseismic,Stations_USGS,,0.026519,0.8059,0.034235,1.0131,,,0.026352,1.0822,455.06,inferred,4.0,0.3,0.875,2.216,1.4737,0.005082
OBS_489,EFKARPIA  THESSALONIKI(3480),40.693,22.952,macroseismic,Stations_USGS,,0.026502,0.8059,0.034223,1.0131,,,0.02636,1.0822,422.88,inferred,4.0,0.3,0.875,2.216,1.4737,0.005084
OBS_430,DOMOKOS  PHTHIOTIDA(1939),39.126,22.316,macroseismic,Stations_USGS,,0.026481,0.8059,0.034209,1.0131,,,0.02637,1.0822,491.75,inferred,4.0,0.3,0.875,2.216,1.4737,0.005087
OBS_349,AXIOUPOLI  KILKIS(3081),41.003,22.507,macroseismic,Stations_USGS,,0.026238,0.8059,0.034039,1.0131,,,0.02649,1.0822,459.25,inferred,4.0,0.3,0.875,2.216,1.4737,0.005122
OBS_304,PHOURNA  EVRYTANIA(734),39.064,21.893,macroseismic,Stations_USGS,,0.026115,0.8059,0.033953,1.0131,,,0.026552,1.0822,680.4,inferred,4.0,0.3,0.875,2.216,1.4737,0.00514
OBS_377,ALMYROS  MAGNISIA(8916),39.202,22.63,macroseismic,Stations_USGS,,0.02589,0.8059,0.033794,1.0131,,,0.026666,1.0822,401.35,inferred,4.0,0.3,0.875,2.216,1.4737,0.005173
OBS_356,POLYKASTRO  KILKIS(5260),40.998,22.59,macroseismic,Stations_USGS,,0.025794,0.8059,0.033727,1.0131,,,0.026714,1.0822,405.86,inferred,4.0,0.3,0.875,2.216,1.4737,0.005187
OBS_294,NEA-TRIGLIA  CHALKIDIKI(2657),40.327,23.207,macroseismic,Stations_USGS,,0.025763,0.8059,0.033705,1.0131,,,0.02673,1.0822,503.57,inferred,4.0,0.3,0.875,2.216,1.4737,0.005192
OBS_286,AGIA-PARASKEVI  ARTA(1281),39.088,20.981,macroseismic,Stations_USGS,,0.025655,0.8059,0.033629,1.0131,,,0.026786,1.0822,223.39,inferred,4.0,0.3,0.875,2.216,1.4737,0.005208
OBS_355,MAVRONERI  KILKIS(1094),40.893,22.807,macroseismic,Stations_USGS,,0.025605,0.8059,0.033593,1.0131,,,0.026812,1.0822,426.14,inferred,4.0,0.3,0.875,2.216,1.4737,0.005215
OBS_381,MAKRINITSA  MAGNISIA(651),39.426,22.985,macroseismic,Stations_USGS,,0.025534,0.8059,0.033543,1.0131,,,0.026848,1.0822,594.88,inferred,4.0,0.3,0.875,2.216,1.4737,0.005226
OBS_387,VOLOS  MAGNISIA(77192),39.349,22.924,macroseismic,Stations_USGS,,0.025315,0.8059,0.033388,1.0131,,,0.026962,1.0822,446.29,inferred,4.0,0.3,0.875,2.216,1.4737,0.005259
OBS_488,DRYMOS  THESSALONIKI(2469),40.787,22.974,macroseismic,Stations_USGS,,0.025293,0.8059,0.033372,1.0131,,,0.026974,1.0822,436.06,inferred,4.0,0.3,0.875,2.216,1.4737,0.005263
OBS_287,ANEZA  ARTA(1677),39.078,20.932,macroseismic,Stations_USGS,,0.025242,0.8059,0.033335,1.0131,,,0.027001,1.0822,215.03,inferred,4.0,0.3,0.875,2.216,1.4737,0.005271
OBS_453,LOUROS  PREVEZA(2073),39.149,20.767,macroseismic,Stations_USGS,,0.02524,0.8059,0.033334,1.0131,,,0.027002,1.0822,248.39,inferred,4.0,0.3,0.875,2.216,1.4737,0.005271
OBS_380,KROKIO  MAGNISIA(992),39.22,22.756,macroseismic,Stations_USGS,,0.025196,0.8059,0.033303,1.0131,,,0.027025,1.0822,329.21,inferred,4.0,0.3,0.875,2.216,1.4737,0.005278
OBS_382,NEA-ANCHIALOS  MAGNISIA(5421),39.302,22.88,macroseismic,Stations_USGS,,0.025182,0.8059,0.033293,1.0131,,,0.027033,1.0822,895.17,inferred,4.0,0.3,0.875,2.216,1.4737,0.00528
OBS_378,ANAKASIA  MAGNISIA(847),39.375,22.978,macroseismic,Stations_USGS,,0.025079,0.8059,0.033219,1.0131,,,0.027087,1.0822,713.73,inferred,4.0,0.3,0.875,2.216,1.4737,0.005296
OBS_297,PORTARIA  CHALKIDIKI(1267),40.28,23.297,macroseismic,Stations_USGS,,0.024761,0.8059,0.032991,1.0131,,,0.027258,1.0822,379.51,inferred,4.0,0.3,0.875,2.216,1.4737,0.005346
OBS_379,ANAVRA  MAGNISIA(899),39.097,22.574,macroseismic,Stations_USGS,,0.024736,0.8059,0.032973,1.0131,,,0.027272,1.0822,603.7,inferred,4.0,0.3,0.875,2.216,1.4737,0.00535
OBS_388,ZAGORA  MAGNISIA(2636),39.44,23.08,macroseismic,Stations_USGS,,0.0247,0.8059,0.032947,1.0131,,,0.027292,1.0822,900.0,inferred,4.0,0.3,0.875,2.216,1.4737,0.005356
OBS_495,LANKADAS  THESSALONIKI(6113),40.747,23.083,macroseismic,Stations_USGS,,0.024615,0.8059,0.032887,1.0131,,,0.027338,1.0822,306.13,inferred,4.0,0.3,0.875,2.216,1.4737,0.00537
OBS_493,KRITHIA(KRITHEA)  THESSALONIKI(1391),40.846,22.986,macroseismic,Stations_USGS,,0.024585,0.8059,0.032865,1.0131,,,0.027354,1.0822,297.4,inferred,4.0,0.3,0.875,2.216,1.4737,0.005375
OBS_351,KAMPANIS  KILKIS(1101),40.909,22.908,macroseismic,Stations_USGS,,0.024581,0.8059,0.032862,1.0131,,,0.027356,1.0822,473.02,inferred,4.0,0.3,0.875,2.216,1.4737,0.005375
OBS_376,AGRIA  MAGNISIA(4544),39.343,23.006,macroseismic,Stations_USGS,,0.024495,0.8059,0.0328,1.0131,,,0.027404,1.0822,503.18,inferred,4.0,0.3,0.875,2.216,1.4737,0.005389
OBS_352,KASTANIES  KILKIS(617),41.022,22.754,macroseismic,Stations_USGS,,0.024396,0.8059,0.032728,1.0131,,,0.027458,1.0822,312.66,inferred,4.0,0.3,0.875,2.216,1.4737,0.005405
OBS_298,SIMANTRA  CHALKIDIKI(1980),40.343,23.319,macroseismic,Stations_USGS,,0.024372,0.8059,0.03271,1.0131,,,0.027472,1.0822,410.28,inferred,4.0,0.3,0.875,2.216,1.4737,0.00541
OBS_491,GERAKAROU  THESSALONIKI(1249),40.62,23.209,macroseismic,Stations_USGS,,0.024314,0.8059,0.032668,1.0131,,,0.027504,1.0822,420.17,inferred,4.0,0.3,0.875,2.216,1.4737,0.005419
OBS_293,NEA-PHOKAIA  CHALKIDIKI(1525),40.117,23.352,macroseismic,Stations_USGS,,0.024289,0.8059,0.032651,1.0131,,,0.027518,1.0822,289.86,inferred,4.0,0.3,0.875,2.216,1.4737,0.005423
OBS_300,VAVDOS  CHALKIDIKI(782),40.416,23.315,macroseismic,Stations_USGS,,0.024197,0.8059,0.032584,1.0131,,,0.02757,1.0822,567.41,inferred,4.0,0.3,0.875,2.216,1.4737,0.005438
OBS_375,AGIOS-LAVRENTIOS  MAGNISIA(714),39.357,23.064,macroseismic,Stations_USGS,,0.024108,0.8059,0.032519,1.0131,,,0.02762,1.0822,900.0,inferred,4.0,0.3,0.875,2.216,1.4737,0.005453
OBS_383,PLATANOS  MAGNISIA(915),39.138,22.768,macroseismic,Stations_USGS,,0.024089,0.8059,0.032505,1.0131,,,0.027631,1.0822,588.81,inferred,4.0,0.3,0.875,2.216,1.4737,0.005456
OBS_454,PARGA  PREVEZA(1900),39.285,20.412,macroseismic,Stations_USGS,,0.024011,0.8059,0.032448,1.0131,,,0.027675,1.0822,596.92,inferred,4.0,0.3,0.875,2.216,1.4737,0.00547
OBS_433,MAKRAKOMI  PHTHIOTIDA(2717),38.938,22.102,macroseismic,Stations_USGS,,0.023998,0.8059,0.032439,1.0131,,,0.027682,1.0822,551.29,inferred,4.0,0.3,0.875,2.216,1.4737,0.005472
OBS_303,KARPENISII  EVRYTANIA(6178),38.926,21.803,macroseismic,Stations_USGS,,0.023963,0.8059,0.032414,1.0131,,,0.027702,1.0822,900.0,inferred,4.0,0.3,0.875,2.216,1.4737,0.005478
OBS_485,ASSIROS  THESSALONIKI(2202),40.843,23.072,macroseismic,Stations_USGS,,0.023877,0.8059,0.03235,1.0131,,,0.027751,1.0822,521.71,inferred,4.0,0.3,0.875,2.216,1.4737,0.005492
OBS_354,LEIPSYDRIO  KILKIS(513),40.942,22.968,macroseismic,Stations_USGS,,0.023772,0.8059,0.032274,1.0131,,,0.027811,1.0822,395.56,inferred,4.0,0.3,0.875,2.216,1.4737,0.00551
OBS_353,KILKIS  KILKIS(13540),40.997,22.901,macroseismic,Stations_USGS,,0.023691,0.8059,0.032214,1.0131,,,0.027859,1.0822,362.59,inferred,4.0,0.3,0.875,2.216,1.4737,0.005524
OBS_350,CHERSO  KILKIS(1292),41.094,22.776,macroseismic,Stations_USGS,,0.023421,0.8059,0.032016,1.0131,,,0.028016,1.0822,233.9,inferred,4.0,0.3,0.875,2.216,1.4737,0.005571
OBS_285,THYRIO  AITOLOAKARNANIA(1330),38.865,20.987,macroseismic,Stations_USGS,,0.022638,0.8059,0.031434,1.0131,,,0.02849,1.0822,661.63,inferred,4.0,0.3,0.875,2.216,1.4737,0.005713
OBS_494,KRYONERI  THESSALONIKI(1354),40.826,23.284,macroseismic,Stations_USGS,,0.022308,0.8059,0.031186,1.0131,,,0.028697,1.0822,710.27,inferred,4.0,0.3,0.875,2.216,1.4737,0.005776
OBS_436,STYLIDA  PHTHIOTIDA(5088),38.917,22.633,macroseismic,Stations_USGS,,0.022254,0.8059,0.031145,1.0131,,,0.028732,1.0822,562.29,inferred,4.0,0.3,0.875,2.216,1.4737,0.005786
OBS_279,MONASTIRAKI  AITOLOAKARNANIA(1802),38.847,20.918,macroseismic,Stations_USGS,,0.022209,0.8059,0.031111,1.0131,,,0.02876,1.0822,616.93,inferred,4.0,0.3,0.875,2.216,1.4737,0.005795
OBS_384,PTELEOS  MAGNISIA(1810),39.023,22.925,macroseismic,Stations_USGS,,0.021951,0.8059,0.030915,1.0131,,,0.028926,1.0822,497.53,inferred,4.0,0.3,0.875,2.216,1.4737,0.005845
OBS_429,ANTHILI  PHTHIOTIDA(1759),38.839,22.51,macroseismic,Stations_USGS,,0.021839,0.8059,0.03083,1.0131,,,0.028999,1.0822,203.31,inferred,4.0,0.3,0.875,2.216,1.4737,0.005867
OBS_435,PELASGIA  PHTHIOTIDA(1800),38.953,22.852,macroseismic,Stations_USGS,,0.021663,0.8059,0.030696,1.0131,,,0.029115,1.0822,558.0,inferred,4.0,0.3,0.875,2.216,1.4737,0.005902
OBS_278,LEPENOU  AITOLOAKARNANIA(2445),38.726,21.269,macroseismic,Stations_USGS,,0.021627,0.8059,0.030668,1.0131,,,0.029139,1.0822,615.66,inferred,4.0,0.3,0.875,2.216,1.4737,0.00591
OBS_281,PALAIROS  AITOLOAKARNANIA(2302),38.795,20.91,macroseismic,Stations_USGS,,0.021624,0.8059,0.030666,1.0131,,,0.029141,1.0822,900.0,inferred,4.0,0.3,0.875,2.216,1.4737,0.00591
OBS_503,SOCHOS  THESSALONIKI(3423),40.821,23.381,macroseismic,Stations_USGS,,0.021621,0.8059,0.030664,1.0131,,,0.029143,1.0822,504.35,inferred,4.0,0.3,0.875,2.216,1.4737,0.005911
OBS_282,PAPPADATOS  AITOLOAKARNANIA(1059),38.732,21.195,macroseismic,Stations_USGS,,0.021595,0.8059,0.030644,1.0131,,,0.029161,1.0822,341.75,inferred,4.0,0.3,0.875,2.216,1.4737,0.005916
OBS_500,PHILADELPHIO  THESSALONIKI(1060),40.753,23.469,macroseismic,Stations_USGS,,0.021343,0.8059,0.03045,1.0131,,,0.02933,1.0822,517.95,inferred,4.0,0.3,0.875,2.216,1.4737,0.005968
OBS_434,MOLOS  PHTHIOTIDA(3003),38.813,22.639,macroseismic,Stations_USGS,,0.021168,0.8059,0.030316,1.0131,,,0.029449,1.0822,341.22,inferred,4.0,0.3,0.875,2.216,1.4737,0.006004
OBS_479,TERPNI  SERRES(2316),40.885,23.406,macroseismic,Stations_USGS,,0.021086,0.8059,0.030252,1.0131,,,0.029506,1.0822,585.98,inferred,4.0,0.3,0.875,2.216,1.4737,0.006022
OBS_296,NIKITAS  CHALKIDIKI(2454),40.214,23.689,macroseismic,Stations_USGS,,0.021042,0.8059,0.030218,1.0131,,,0.029536,1.0822,445.2,inferred,4.0,0.3,0.875,2.216,1.4737,0.006031
OBS_273,AGRINIO  AITOLOAKARNANIA(40934),38.656,21.434,macroseismic,Stations_USGS,,0.020989,0.8059,0.030177,1.0131,,,0.029572,1.0822,478.59,inferred,4.0,0.3,0.875,2.216,1.4737,0.006042
OBS_464,KERKINI  SERRES(1740),41.183,23.081,macroseismic,Stations_USGS,,0.020956,0.8059,0.030151,1.0131,,,0.029596,1.0822,602.84,inferred,4.0,0.3,0.875,2.216,1.4737,0.006049
OBS_292,MEGALI-PANAGIA  CHALKIDIKI(2620),40.416,23.675,macroseismic,Stations_USGS,,0.020919,0.8059,0.030123,1.0131,,,0.029621,1.0822,452.09,inferred,4.0,0.3,0.875,2.216,1.4737,0.006057
OBS_272,AGIOS-KONSTANTINOS  AITOLOAKARNANIA(5395),38.636,21.396,macroseismic,Stations_USGS,,0.020774,0.8059,0.03001,1.0131,,,0.029723,1.0822,451.99,inferred,4.0,0.3,0.875,2.216,1.4737,0.006089
OBS_459,CHEIMARROS  SERRES(672),41.109,23.229,macroseismic,Stations_USGS,,0.020732,0.8059,0.029977,1.0131,,,0.029753,1.0822,558.8,inferred,4.0,0.3,0.875,2.216,1.4737,0.006098
OBS_484,ARETHOUSA  THESSALONIKI(1149),40.732,23.571,macroseismic,Stations_USGS,,0.020717,0.8059,0.029965,1.0131,,,0.029764,1.0822,387.13,inferred,4.0,0.3,0.875,2.216,1.4737,0.006101
OBS_457,AMPELOI  SERRES(594),40.999,23.36,macroseismic,Stations_USGS,,0.020705,0.8059,0.029956,1.0131,,,0.029772,1.0822,438.99,inferred,4.0,0.3,0.875,2.216,1.4737,0.006104
OBS_277,KAINOURGIO  AITOLOAKARNANIA(3249),38.62,21.481,macroseismic,Stations_USGS,,0.020632,0.8059,0.029899,1.0131,,,0.029824,1.0822,469.33,inferred,4.0,0.3,0.875,2.216,1.4737,0.006119
OBS_467,LIVADIA  SERRES(1102),41.243,23.076,macroseismic,Stations_USGS,,0.020518,0.8059,0.02981,1.0131,,,0.029906,1.0822,304.67,inferred,4.0,0.3,0.875,2.216,1.4737,0.006145
OBS_280,NEA-AVORANI  AITOLOAKARNANIA(943),38.607,21.452,macroseismic,Stations_USGS,,0.020502,0.8059,0.029798,1.0131,,,0.029917,1.0822,402.86,inferred,4.0,0.3,0.875,2.216,1.4737,0.006148
OBS_471,NIGRITA  SERRES(6186),40.899,23.5,macroseismic,Stations_USGS,,0.020412,0.8059,0.029726,1.0131,,,0.029982,1.0822,491.16,inferred,4.0,0.3,0.875,2.216,1.4737,0.006168
OBS_460,CHRYSOCHORAPHA  SERRES(1454),41.172,23.216,macroseismic,Stations_USGS,,0.020365,0.8059,0.029689,1.0131,,,0.030016,1.0822,205.43,inferred,4.0,0.3,0.875,2.216,1.4737,0.006179
OBS_275,DOKIMIO  AITOLOAKARNANIA(2198),38.595,21.361,macroseismic,Stations_USGS,,0.020357,0.8059,0.029683,1.0131,,,0.030022,1.0822,244.29,inferred,4.0,0.3,0.875,2.216,1.4737,0.006181
OBS_462,KARPERI  SERRES(1271),41.125,23.302,macroseismic,Stations_USGS,,0.02024,0.8059,0.029591,1.0131,,,0.030108,1.0822,213.67,inferred,4.0,0.3,0.875,2.216,1.4737,0.006207
OBS_458,ANAGENNISI  SERRES(976),41.1,23.337,macroseismic,Stations_USGS,,0.020214,0.8059,0.02957,1.0131,,,0.030127,1.0822,214.89,inferred,4.0,0.3,0.875,2.216,1.4737,0.006213
OBS_295,NEOS-MARMARAS  CHALKIDIKI(2598),40.091,23.817,macroseismic,Stations_USGS,,0.020113,0.8059,0.029491,1.0131,,,0.030201,1.0822,549.05,inferred,4.0,0.3,0.875,2.216,1.4737,0.006236
OBS_431,KAMMENA-VOURLA  PHTHIOTIDA(2469),38.738,22.781,macroseismic,Stations_USGS,,0.020041,0.8059,0.029434,1.0131,,,0.030255,1.0822,871.17,inferred,4.0,0.3,0.875,2.216,1.4737,0.006253
OBS_504,STAVROS  THESSALONIKI(2641),40.639,23.721,macroseismic,Stations_USGS,,0.020037,0.8059,0.029431,1.0131,,,0.030257,1.0822,900.0,inferred,4.0,0.3,0.875,2.216,1.4737,0.006253
OBS_475,PONTISMENO  SERRES(1701),41.205,23.262,macroseismic,Stations_USGS,,0.019922,0.8059,0.029339,1.0131,,,0.030343,1.0822,211.56,inferred,4.0,0.3,0.875,2.216,1.4737,0.00628
OBS_463,KATO-KAMILA  SERRES(1497),41.025,23.477,macroseismic,Stations_USGS,,0.019891,0.8059,0.029315,1.0131,,,0.030367,1.0822,189.27,inferred,4.0,0.3,0.875,2.216,1.4737,0.006287
OBS_474,PHLAMPOURO  SERRES(1024),40.932,23.571,macroseismic,Stations_USGS,,0.019829,0.8059,0.029266,1.0131,,,0.030413,1.0822,256.56,inferred,4.0,0.3,0.875,2.216,1.4737,0.006302
OBS_276,GRAMMATIKOU  AITOLOAKARNANIA(1037),38.534,21.5,macroseismic,Stations_USGS,,0.019824,0.8059,0.029262,1.0131,,,0.030417,1.0822,485.76,inferred,4.0,0.3,0.875,2.216,1.4737,0.006303
OBS_461,KALA-DENDRA  SERRES(1444),41.098,23.42,macroseismic,Stations_USGS,,0.019793,0.8059,0.029236,1.0131,,,0.030441,1.0822,196.55,inferred,4.0,0.3,0.875,2.216,1.4737,0.006311
OBS_480,VALTERO  SERRES(1456),41.181,23.322,macroseismic,Stations_USGS,,0.019789,0.8059,0.029233,1.0131,,,0.030444,1.0822,221.29,inferred,4.0,0.3,0.875,2.216,1.4737,0.006311
OBS_469,MITROUSI  SERRES(2314),41.061,23.461,macroseismic,Stations_USGS,,0.019784,0.8059,0.029229,1.0131,,,0.030448,1.0822,192.07,inferred,4.0,0.3,0.875,2.216,1.4737,0.006313
OBS_428,AGIOS-KONSTANTINOS  PHTHIOTIDA(2790),38.741,22.868,macroseismic,Stations_USGS,,0.019782,0.8059,0.029228,1.0131,,,0.030449,1.0822,900.0,inferred,4.0,0.3,0.875,2.216,1.4737,0.006313
OBS_478,SKOTOUSSA  SERRES(1619),41.132,23.385,macroseismic,Stations_USGS,,0.019775,0.8059,0.029222,1.0131,,,0.030455,1.0822,212.79,inferred,4.0,0.3,0.875,2.216,1.4737,0.006315
OBS_284,STAMNA  AITOLOAKARNANIA(1291),38.526,21.287,macroseismic,Stations_USGS,,0.019683,0.8059,0.029149,1.0131,,,0.030525,1.0822,350.74,inferred,4.0,0.3,0.875,2.216,1.4737,0.006337
OBS_472,PATRIKI  SERRES(487),40.919,23.615,macroseismic,Stations_USGS,,0.019638,0.8059,0.029113,1.0131,,,0.030559,1.0822,260.73,inferred,4.0,0.3,0.875,2.216,1.4737,0.006347
OBS_465,KOIMISI  SERRES(1653),41.221,23.309,macroseismic,Stations_USGS,,0.019603,0.8059,0.029085,1.0131,,,0.030586,1.0822,200.24,inferred,4.0,0.3,0.875,2.216,1.4737,0.006356
OBS_299,STRATONI  CHALKIDIKI(1421),40.518,23.845,macroseismic,Stations_USGS,,0.019535,0.8059,0.029031,1.0131,,,0.030638,1.0822,600.0,inferred,4.0,0.3,0.875,2.216,1.4737,0.006372
OBS_482,VYRONEIA  SERRES(1285),41.292,23.228,macroseismic,Stations_USGS,,0.01951,0.8059,0.02901,1.0131,,,0.030658,1.0822,900.0,inferred,4.0,0.3,0.875,2.216,1.4737,0.006378
OBS_481,VAMVAKOPHYTO  SERRES(1169),41.175,23.391,macroseismic,Stations_USGS,,0.019496,0.8059,0.028999,1.0131,,,0.030669,1.0822,438.47,inferred,4.0,0.3,0.875,2.216,1.4737,0.006382
OBS_466,LEFKONAS  SERRES(1741),41.102,23.485,macroseismic,Stations_USGS,,0.019441,0.8059,0.028955,1.0131,,,0.030711,1.0822,415.09,inferred,4.0,0.3,0.875,2.216,1.4737,0.006395
OBS_456,ACHINOS  SERRES(803),40.931,23.655,macroseismic,Stations_USGS,,0.019363,0.8059,0.028892,1.0131,,,0.030772,1.0822,233.09,inferred,4.0,0.3,0.875,2.216,1.4737,0.006414
OBS_470,NEOCHORI-STRYMONA  SERRES(1217),41.038,23.571,macroseismic,Stations_USGS,,0.019326,0.8059,0.028863,1.0131,,,0.030801,1.0822,246.95,inferred,4.0,0.3,0.875,2.216,1.4737,0.006423
OBS_432,KATO-TITHOREA  PHTHIOTIDA(2813),38.612,22.72,macroseismic,Stations_USGS,,0.019213,0.8059,0.028771,1.0131,,,0.03089,1.0822,354.06,inferred,4.0,0.3,0.875,2.216,1.4737,0.006451
OBS_476,PSYCHIKO  SERRES(985),40.987,23.638,macroseismic,Stations_USGS,,0.019212,0.8059,0.028771,1.0131,,,0.030891,1.0822,221.97,inferred,4.0,0.3,0.875,2.216,1.4737,0.006451
OBS_477,SERRES  SERRES(50390),41.087,23.548,macroseismic,Stations_USGS,,0.019204,0.8059,0.028764,1.0131,,,0.030898,1.0822,358.46,inferred,4.0,0.3,0.875,2.216,1.4737,0.006453
OBS_468,MAVROTHALASSA  SERRES(1767),40.908,23.756,macroseismic,Stations_USGS,,0.018911,0.8059,0.028526,1.0131,,,0.031133,1.0822,252.84,inferred,4.0,0.3,0.875,2.216,1.4737,0.006527
OBS_274,AITOLIKO  AITOLOAKARNANIA(5381),38.428,21.318,macroseismic,Stations_USGS,,0.018889,0.8059,0.028509,1.0131,,,0.03115,1.0822,391.78,inferred,4.0,0.3,0.875,2.216,1.4737,0.006533
OBS_427,CHRISSO(CHRYSO)  PHOKIDA(968),38.482,22.46,macroseismic,Stations_USGS,,0.018737,0.8059,0.028385,1.0131,,,0.031275,1.0822,817.54,inferred,4.0,0.3,0.875,2.216,1.4737,0.006572
OBS_473,PENTAPOLI  SERRES(2012),41.043,23.69,macroseismic,Stations_USGS,,0.018708,0.8059,0.028361,1.0131,,,0.031299,1.0822,422.53,inferred,4.0,0.3,0.875,2.216,1.4737,0.00658
OBS_347,MOUSTHENI  KAVALA(868),40.858,24.11,macroseismic,Stations_USGS,,0.017341,0.8059,0.027224,1.0131,,,0.032492,1.0822,577.08,inferred,4.0,0.3,0.875,2.216,1.4737,0.00696
OBS_348,PALAIOCHORI  KAVALA(1587),40.956,24.179,macroseismic,Stations_USGS,,0.016809,0.8059,0.02677,1.0131,,,0.032995,1.0822,785.73,inferred,4.0,0.3,0.875,2.216,1.4737,0.007122
OBS_650,GALAXIDI  PHOKIDA(1369),38.386,22.348,macroseismic,Stations_USGS,,,,,,,,,,900.0,inferred,1.0,0.3,,,,
OBS_585,PANAGIA  PREVEZA(561),39.347,20.856,macroseismic,Stations_USGS,,,,,,,,,,578.48,inferred,3.0,0.3,,,,
OBS_639,EVZONOI  KILKIS(1514),41.127,22.652,macroseismic,Stations_USGS,,,,,,,,,,389.77,inferred,,,,,,
OBS_580,ATALANTI  PHTHIOTIDA(6446),38.64,23.005,macroseismic,Stations_USGS,,,,,,,,,,900.0,inferred,3.0,0.3,,,,
OBS_617,PENTALOPHO  AITOLOAKARNANIA(1233),38.5,21.215,macroseismic,Stations_USGS,,,,,,,,,,391.77,inferred,,,,,,
OBS_516,DESPHINA  PHOKIDA(2389),38.38,22.554,macroseismic,Stations_USGS,,,,,,,,,,696.71,inferred,3.5,0.3,,,,
OBS_613,LOUSIKA  ACHAIA(852),38.101,21.587,macroseismic,Stations_USGS,,,,,,,,,,416.05,inferred,,,,,,
OBS_553,KALOCHORI  KASTORIA(459),40.488,21.117,macroseismic,Stations_USGS,,,,,,,,,,518.65,inferred,3.0,0.3,,,,
OBS_543,DRAMA  DRAMA(38546),41.229,24.199,macroseismic,Stations_USGS,,,,,,,,,,533.53,inferred,3.0,0.3,,,,
OBS_570,NEA-IONIA  MAGNISIA(28537),39.394,22.914,macroseismic,Stations_USGS,,,,,,,,,,568.6,inferred,3.0,0.3,,,,
OBS_640,AGIOS-VASILEIOS  KORINTHIA(1320),37.794,22.78,macroseismic,Stations_USGS,,,,,,,,,,863.0,inferred,1.0,0.3,,,,
OBS_583,GORGOMYLOS  PREVEZA(1107),39.316,20.931,macroseismic,Stations_USGS,,,,,,,,,,859.42,inferred,3.0,0.3,,,,
OBS_517,CHALANDRITSA  ACHAIA(1165),38.094,21.758,macroseismic,Stations_USGS,,,,,,,,,,444.47,inferred,3.0,0.3,,,,
OBS_541,CHORISTI  DRAMA(2364),41.135,24.204,macroseismic,Stations_USGS,,,,,,,,,,301.46,inferred,3.0,0.3,,,,
OBS_612,KLEITORIA  ACHAIA(999),37.949,22.205,macroseismic,Stations_USGS,,,,,,,,,,900.0,inferred,1.0,0.3,,,,
OBS_592,EFKARPIA  SERRES(825),40.854,23.788,macroseismic,Stations_USGS,,,,,,,,,,392.88,inferred,3.0,0.3,,,,
OBS_564,PERIGIALI  KORINTHIA(1194),37.919,22.838,macroseismic,Stations_USGS,,,,,,,,,,384.2,inferred,3.0,0.3,,,,
OBS_550,MANOLADA  ELIA(1453),38.059,21.339,macroseismic,Stations_USGS,,,,,,,,,,198.81,inferred,3.0,0.3,,,,
OBS_557,GRIVA  KILKIS(779),40.955,22.392,macroseismic,Stations_USGS,,,,,,,,,,900.0,inferred,3.0,0.3,,,,
OBS_577,SOSANDRA  PELLA(1174),40.997,22.029,macroseismic,Stations_USGS,,,,,,,,,,461.54,inferred,3.0,0.3,,,,
OBS_542,DOXATO  DRAMA(3594),41.085,24.219,macroseismic,Stations_USGS,,,,,,,,,,274.86,inferred,3.0,0.3,,,,
OBS_601,PROPHITIS  THESSALONIKI(1206),40.72,23.281,macroseismic,Stations_USGS,,,,,,,,,,387.37,inferred,3.0,0.3,,,,
OBS_652,MALESINA  PHTHIOTIDA(4956),38.637,23.243,macroseismic,Stations_USGS,,,,,,,,,,604.99,inferred,,,,,,
OBS_568,KERAMIDI  MAGNISIA(737),39.549,22.908,macroseismic,Stations_USGS,,,,,,,,,,689.58,inferred,3.0,0.3,,,,
OBS_563,KORINTHOS  KORINTHIA(27412),37.931,22.936,macroseismic,Stations_USGS,,,,,,,,,,383.69,inferred,3.0,0.3,,,,
OBS_548,AMALIADA  ELIA(15857),37.8,21.343,macroseismic,Stations_USGS,,,,,,,,,,334.52,inferred,3.0,0.3,,,,
OBS_565,NIKI  LARISSA(577),39.537,22.7,macroseismic,Stations_USGS,,,,,,,,,,221.54,inferred,3.0,0.3,,,,
OBS_596,PARAMYTHIA  THESPROTIA(2555),39.48,20.513,macroseismic,Stations_USGS,,,,,,,,,,900.0,inferred,3.0,0.3,,,,
OBS_609,DAPHNI  ACHAIA(1333),37.813,22.045,macroseismic,Stations_USGS,,,,,,,,,,454.96,inferred,1.0,0.3,,,,
OBS_605,GLYPHADA  ATHINA(63306),37.884,23.772,macroseismic,Stations_USGS,,,,,,,,,,846.76,inferred,2.0,0.3,,,,
OBS_631,ELEFSINA  DYTIKI-ATTIKI(22793),38.046,23.535,macroseismic,Stations_USGS,,,,,,,,,,283.54,inferred,,,,,,
OBS_655,NEO-PETRITSI  SERRES(2479),41.333,23.281,macroseismic,Stations_USGS,,,,,,,,,,766.63,inferred,,,,,,
OBS_544,KALAMPAKI  DRAMA(3388),41.034,24.168,macroseismic,Stations_USGS,,,,,,,,,,251.23,inferred,3.0,0.3,,,,
OBS_645,AGIOS-VLASIOS  MAGNISIA(930),39.321,23.062,macroseismic,Stations_USGS,,,,,,,,,,648.01,inferred,,,,,,
OBS_641,CHILIOMODI  KORINTHIA(1718),37.807,22.867,macroseismic,Stations_USGS,,,,,,,,,,258.57,inferred,,,,,,
OBS_515,KAMPI  ARTA(965),39.216,20.897,macroseismic,Stations_USGS,,,,,,,,,,570.42,inferred,3.5,0.3,,,,
OBS_555,THASOS  KAVALA(2614),40.768,24.691,macroseismic,Stations_USGS,,,,,,,,,,803.74,inferred,3.0,0.3,,,,
OBS_647,LAFKOS  MAGNISIA(948),39.124,23.191,macroseismic,Stations_USGS,,,,,,,,,,620.61,inferred,,,,,,
OBS_623,VYRONAS  ATHINA(58523),37.95,23.774,macroseismic,Stations_USGS,,,,,,,,,,623.6,inferred,1.0,0.3,,,,
OBS_644,VELO  KORINTHIA(3237),37.975,22.754,macroseismic,Stations_USGS,,,,,,,,,,348.77,inferred,,,,,,
OBS_627,PALAIOCHORI  CHALKIDIKI(1620),40.477,23.647,macroseismic,Stations_USGS,,,,,,,,,,494.31,inferred,,,,,,
OBS_606,NEA-RODA  CHALKIDIKI(1152),40.377,23.934,macroseismic,Stations_USGS,,,,,,,,,,335.37,inferred,2.0,0.3,,,,
OBS_529,PARAVOLA  AITOLOAKARNANIA(2115),38.622,21.525,macroseismic,Stations_USGS,,,,,,,,,,900.0,inferred,3.0,0.3,,,,
OBS_556,CHRYSOPETRA  KILKIS(1081),40.891,22.968,macroseismic,Stations_USGS,,,,,,,,,,423.2,inferred,3.0,0.3,,,,
OBS_535,PETAS  ARTA(3652),39.171,21.046,macroseismic,Stations_USGS,,,,,,,,,,537.8,inferred,3.0,0.3,,,,
OBS_569,MILIES  MAGNISIA(1304),39.328,23.158,macroseismic,Stations_USGS,,,,,,,,,,854.66,inferred,3.0,0.3,,,,
OBS_582,AGIA  PREVEZA(918),39.323,20.353,macroseismic,Stations_USGS,,,,,,,,,,900.0,inferred,3.0,0.3,,,,
OBS_603,SCHIMATARI  VIOTIA(7302),38.341,23.613,macroseismic,Stations_USGS,,,,,,,,,,431.45,inferred,3.0,0.3,,,,
OBS_622,PENTELI  ATHINA(3197),38.045,23.901,macroseismic,Stations_USGS,,,,,,,,,,637.63,inferred,1.0,0.3,,,,
OBS_575,PERIKLEIA  PELLA(444),41.12,22.282,macroseismic,Stations_USGS,,,,,,,,,,515.99,inferred,3.0,0.3,,,,
OBS_653,ZELI  PHTHIOTIDA(1033),38.676,22.858,macroseismic,Stations_USGS,,,,,,,,,,569.22,inferred,,,,,,
OBS_554,CHRYSOUPOLI  KAVALA(7208),40.971,24.715,macroseismic,Stations_USGS,,,,,,,,,,223.37,inferred,3.0,0.3,,,,
OBS_536,AGIOS-NIKOLAOS  CHALKIDIKI(2260),40.185,23.781,macroseismic,Stations_USGS,,,,,,,,,,742.62,inferred,3.0,0.3,,,,
OBS_524,GAVALOU  AITOLOAKARNANIA(1376),38.495,21.539,macroseismic,Stations_USGS,,,,,,,,,,899.2,inferred,3.0,0.3,,,,
OBS_625,IERISSOS  CHALKIDIKI(2964),40.415,23.833,macroseismic,Stations_USGS,,,,,,,,,,578.87,inferred,,,,,,
OBS_527,MENIDI  AITOLOAKARNANIA(1514),39.042,21.158,macroseismic,Stations_USGS,,,,,,,,,,622.28,inferred,3.0,0.3,,,,
OBS_586,PREVEZA  PREVEZA(15119),38.99,20.754,macroseismic,Stations_USGS,,,,,,,,,,283.21,inferred,3.0,0.3,,,,
OBS_630,ASPROPYRGOS  DYTIKI-ATTIKI(15715),38.102,23.582,macroseismic,Stations_USGS,,,,,,,,,,489.72,inferred,1.0,0.3,,,,
OBS_591,CHRYSO  SERRES(1809),41.056,23.648,macroseismic,Stations_USGS,,,,,,,,,,423.01,inferred,3.0,0.3,,,,
OBS_522,ANGELOKASTRO  AITOLOAKARNANIA(1849),38.578,21.289,macroseismic,Stations_USGS,,,,,,,,,,449.3,inferred,3.0,0.3,,,,
OBS_574,TRIKERI  MAGNISIA(1629),39.124,23.087,macroseismic,Stations_USGS,,,,,,,,,,537.71,inferred,3.0,0.3,,,,
OBS_614,ZIRIA  ACHAIA(895),38.303,21.938,macroseismic,Stations_USGS,,,,,,,,,,523.89,inferred,,,,,,
OBS_533,KOMPOTI  ARTA(2200),39.084,21.081,macroseismic,Stations_USGS,,,,,,,,,,369.87,inferred,3.0,0.3,,,,
OBS_615,ANALIPSI  AITOLOAKARNANIA(1074),38.487,21.716,macroseismic,Stations_USGS,,,,,,,,,,709.89,inferred,,,,,,
OBS_626,OURANOUPOLI  CHALKIDIKI(771),40.335,23.99,macroseismic,Stations_USGS,,,,,,,,,,550.02,inferred,,,,,,
OBS_594,VERGI  SERRES(1025),40.946,23.368,macroseismic,Stations_USGS,,,,,,,,,,532.74,inferred,3.0,0.3,,,,
OBS_523,EVINOCHORI  AITOLOAKARNANIA(2012),38.361,21.529,macroseismic,Stations_USGS,,,,,,,,,,246.23,inferred,3.0,0.3,,,,
OBS_646,ARGALASTI  MAGNISIA(1967),39.235,23.244,macroseismic,Stations_USGS,,,,,,,,,,468.63,inferred,,,,,,
OBS_572,SESKLO  MAGNISIA(915),39.345,22.833,macroseismic,Stations_USGS,,,,,,,,,,492.91,inferred,3.0,0.3,,,,
OBS_526,MATARANKA  AITOLOAKARNANIA(2057),38.514,21.477,macroseismic,Stations_USGS,,,,,,,,,,900.0,inferred,3.0,0.3,,,,
OBS_590,ANO-POROIA  SERRES(1434),41.296,23.054,macroseismic,Stations_USGS,,,,,,,,,,900.0,inferred,3.0,0.3,,,,
