STATION_ID,STATION_NAME,LATITUDE,LONGITUDE,EPICENTRAL_DISTANCE,STATION_TYPE,REFERENCES,PGA_VALUE,PGA_LN_SIGMA,PGA_E,PGA_N,PGA_V,SA(0.3)_VALUE,SA(0.3)_LN_SIGMA,SA(0.3)_E,SA(0.3)_N,SA(0.3)_V,SA(0.6)_VALUE,SA(0.6)_LN_SIGMA,SA(0.6)_E,SA(0.6)_N,SA(0.6)_V,SA(1.0)_VALUE,SA(1.0)_LN_SIGMA,SA(1.0)_E,SA(1.0)_N,SA(1.0)_V,SA(3.0)_VALUE,SA(3.0)_LN_SIGMA,SA(3.0)_E,SA(3.0)_N,SA(3.0)_V,COMMENTS,SOIL_TYPE,VS30,VS30_TYPE,MMI_VALUE,MMI_STDDEV,PGV_LN_SIGMA,PGV_VALUE
QKAS,QKAS,45.914,16.103,56.0,seismic,CSS,0.247561672,0.0,1.62923,2.42858,1.22292,0.570697248,0.0,3.46642,5.59854,1.90221,0.117633028,0.0,1.05194,1.15398,0.50608,0.046417941,0.0,0.45536,0.31592,0.23925,0.007068298,0.0,0.06934,0.04413,0.03645,"The values in the cells IM_(E_N_or Z) are in m/s2
The other in values of g (9.81 m/s2)",,,,,,,
QGAJ,QGAJ,45.811,15.968,51.0,seismic,CSS,0.130097859,0.0,1.27626,1.12536,0.36794,0.242986748,0.0,2.3837,1.94006,0.78544,0.18675841,0.0,1.8321,1.33628,0.56911,0.066977574,0.0,0.65705,0.43002,0.16252,0.007524975,0.0,0.07382,0.04768,0.01902,"The values in the cells IM_(E_N_or Z) are in m/s2
The other in values of g (9.81 m/s2)",,,,,,,
QUHS,QUHS,45.808,15.999,47.0,seismic,CSS,0.127057085,0.0,0.95798,1.24643,0.42659,0.232019368,0.0,2.27611,1.50063,0.9734,0.127443425,0.0,1.03636,1.25022,0.57159,0.061876656,0.0,0.5538,0.60701,0.24068,0.02045158,0.0,0.20063,0.17522,0.07476,"The values in the cells IM_(E_N_or Z) are in m/s2
The other in values of g (9.81 m/s2)",,,,,,,
QCRE,QCRE,45.843205,16.0198,50.0,seismic,CSS,0.111377166,0.0,0.83667,1.09261,0.37614,0.414425076,0.0,1.42097,4.06551,0.71852,0.14775739,0.0,1.4495,0.98204,0.74986,0.060512742,0.0,0.59363,0.38574,0.26244,0.01262895,0.0,0.11028,0.12389,0.05541,"The values in the cells IM_(E_N_or Z) are in m/s2
The other in values of g (9.81 m/s2)",,,,,,,
QZAG,QZAG,45.827,15.987,49.0,seismic,CSS,0.107938838,0.0,1.05888,0.9843,0.57366,0.237314985,0.0,1.75276,2.32806,1.09635,0.126845056,0.0,1.01335,1.24435,0.77429,0.062553517,0.0,0.61078,0.61365,0.35232,0.016831804,0.0,0.16085,0.16512,0.07082,"The values in the cells IM_(E_N_or Z) are in m/s2
The other in values of g (9.81 m/s2)",,,,,,,
QARH,QARH,45.777,15.993,44.0,seismic,CSS,0.095195719,0.0,0.79891,0.93387,0.45667,0.216026504,0.0,1.93017,2.11922,0.79532,0.203117227,0.0,1.99258,1.55333,0.81531,0.090017329,0.0,0.88307,0.72117,0.27529,0.019060143,0.0,0.18698,0.17293,0.06052,"The values in the cells IM_(E_N_or Z) are in m/s2
The other in values of g (9.81 m/s2)",,,,,,,
QCER,QCER,45.026848,16.329597,43.0,seismic,CSS,0.045266055,0.0,0.44406,0.42808,0.27002,0.101762487,0.0,0.99829,0.98928,0.65471,0.038974516,0.0,0.34837,0.38234,0.17655,0.019892966,0.0,0.19515,0.14802,0.10853,0.012857288,0.0,0.11687,0.12613,0.08118,"The values in the cells IM_(E_N_or Z) are in m/s2
The other in values of g (9.81 m/s2)",,,,,,,
QPTJ,QPTJ,45.907,15.968,58.0,seismic,CSS,0.03969419,0.0,0.27857,0.3894,0.19734,0.073696228,0.0,0.72296,0.50537,0.36218,0.065876656,0.0,0.64625,0.31015,0.28537,0.021293578,0.0,0.20889,0.16667,0.13095,0.002501529,0.0,0.02454,0.02424,0.01942,"The values in the cells IM_(E_N_or Z) are in m/s2
The other in values of g (9.81 m/s2)",,,,,,,
CRES,Cresnjevec  SL,45.826,15.4569,,seismic,ESM,0.02468932,0.0,,,,0.0760140533912311,0.0,,,,0.0352660631645381,0.0,,,,0.0126605655301529,0.0,,,,,,,,,,A (inferred from topography),,A (inferred from topography),,,,
KOGS,Kog  SL,46.4481,16.2504,,seismic,ESM,0.02253764,0.0,,,,0.0419306490412946,0.0,,,,0.0163735480106267,0.0,,,,0.0110297470526785,0.0,,,,,,,,,,B (inferred from topography),,B (inferred from topography),,,,
SABO,Monte Sabotino  Italy,45.9875,13.6336,,seismic,ESM,0.018558874,0.0,,,,0.0463687260519858,0.0,,,,0.0413545551129225,0.0,,,,0.0283357721458665,0.0,,,,,,,,,,B (inferred from geology),,B (inferred from geology),,,,
LJU,Ljubljana  SL,46.0438,14.5278,,seismic,ESM,0.013620621,0.0,,,,0.034055843002761,0.0,,,,0.016478962989043,0.0,,,,0.0104040736566438,0.0,,,,,,,,,,B (inferred from topography),,B (inferred from topography),,,,
VISS,Visnje  SL,45.8033,14.8393,,seismic,ESM,0.012597989,0.0,,,,0.0239418415848855,0.0,,,,0.0190516413723596,0.0,,,,0.008950846250575,0.0,,,,,,,,,,B (inferred from topography),,B (inferred from topography),,,,
BLY,Banja Luka  Bosnia and Herzegovina,44.7488,17.1839,,seismic,ESM,0.011811716,0.0,,,,0.0352962785247432,0.0,,,,0.0208814452528522,0.0,,,,0.0136315711550077,0.0,,,,,,,,,,A (inferred from topography),,A (inferred from topography),,,,
VNDS,Vrh nad Dolskim  SL,46.1016,14.7014,,seismic,ESM,0.010818329,0.0,,,,0.0291404252825216,0.0,,,,0.0222821360025884,0.0,,,,0.0105522685060372,0.0,,,,,,,,,,B (inferred from topography),,B (inferred from topography),,,,
CRNS,Crni vrh  SL,46.0807,14.2613,,seismic,ESM,0.010605062,0.0,,,,0.0443908877079724,0.0,,,,0.023135639226761,0.0,,,,0.0087155875119532,0.0,,,,,,,,,,A (inferred from topography),,A (inferred from topography),,,,
BOJS,Bojanci  SL,45.5043,15.2518,,seismic,ESM,0.009616958,0.0,,,,0.0270984487251436,0.0,,,,0.0105731436756461,0.0,,,,0.0057760253914094,0.0,,,,,,,,,,B (inferred from topography),,B (inferred from topography),,,,
DST2,Trieste Universita DST  Italy,45.6589,13.8013,,seismic,ESM,0.008516007,0.0,,,,0.0341155187044966,0.0,,,,0.0071780654218976,0.0,,,,0.0043401817723589,0.0,,,,,,,,,,B (inferred from geology),,B (inferred from geology),,,,
CEY,Cerknica  SL,45.7381,14.4221,,seismic,ESM,0.00744574,0.0,,,,0.0224830448410693,0.0,,,,0.0106725550781643,0.0,,,,0.0054648729143706,0.0,,,,,,,,,,B (inferred from topography),,B (inferred from topography),,,,
FREG,Fregona,46.011092,12.312986,,seismic,ESM,0.007338764,0.0,,,,0.0211755435071247,0.0,,,,0.0166671952319897,0.0,,,,0.0052510357692093,0.0,,,,,,,,,,B,400.0,B,,,,
MOZS,Mozjanca  SL,46.2941,14.4433,,seismic,ESM,0.00722384,0.0,,,,0.019164613547218,0.0,,,,0.0131109473726214,0.0,,,,0.0090901769325426,0.0,,,,,,,,,,B (inferred from topography),,B (inferred from topography),,,,
PERS,Pernice  SL,46.6365,15.1139,,seismic,ESM,0.006793067,0.0,,,,0.0275353039504385,0.0,,,,0.0132327453646048,0.0,,,,0.0042291801489314,0.0,,,,,,,,,,B (inferred from topography),,B (inferred from topography),,,,
CADS,Cadrg  SL,46.2281,13.7368,,seismic,ESM,0.004847258,0.0,,,,0.0170905489882979,0.0,,,,0.0079269718305429,0.0,,,,0.0039607218576737,0.0,,,,,,,,,,A (inferred from topography),,A (inferred from topography),,,,
DRE,Drenchia  Italy,46.1733,13.645,,seismic,ESM,0.004819058,0.0,,,,0.0155902096588577,0.0,,,,0.0132103134887424,0.0,,,,0.0042352853763655,0.0,,,,,,,,,,B (inferred from geology),,B (inferred from geology),,,,
ACOM,Acomizza  Italy,46.548,13.5137,,seismic,ESM,0.004506664,0.0,,,,0.0186042548841361,0.0,,,,0.0082180293339287,0.0,,,,0.0062222717004904,0.0,,,,,,,,,,A (inferred from geology),,A (inferred from geology),,,,
SENI,Senigallia,43.7052,13.2331,,seismic,ESM,0.003694369,0.0,,,,0.0105916336852941,0.0,,,,0.0073084081584564,0.0,,,,0.0048767806892402,0.0,,,,,,,,,,C,242.0,C,,,,
GORS,Gorjuse  SL,46.3174,13.9999,,seismic,ESM,0.003673613,0.0,,,,0.0108727765581041,0.0,,,,0.0055675047504473,0.0,,,,0.0028906849185834,0.0,,,,,,,,,,A (inferred from topography),,A (inferred from topography),,,,
VOJS,Vojsko  SL,46.0322,13.8877,,seismic,ESM,0.003483724,0.0,,,,0.0105636128225032,0.0,,,,0.0063807090576163,0.0,,,,0.0057031278862565,0.0,,,,,,,,,,A (inferred from topography),,A (inferred from topography),,,,
FRE8,Fregona,46.015,12.3552,,seismic,ESM,0.003463424,0.0,,,,0.0084179636750909,0.0,,,,0.0090037933918748,0.0,,,,0.0055672870889765,0.0,,,,,,,,,,A (inferred from geology),,A (inferred from geology),,,,
CIMA,Civitanova Marche,43.305297,13.670091,,seismic,ESM,0.0034275,0.0,,,,0.0046445767924138,0.0,,,,0.0065282291488817,0.0,,,,0.011856143534854,0.0,,,,,,,,,,B,443.0,B,,,,
STAL,Staligial,46.2601,12.7104,,seismic,ESM,0.002876782,0.0,,,,0.0097963266855882,0.0,,,,0.0050141287237306,0.0,,,,0.0027942434817779,0.0,,,,,,,,,,B (inferred from geology),,B (inferred from geology),,,,
SKDS,Skadanscina  SL,45.5464,14.0143,,seismic,ESM,0.002733275,0.0,,,,0.0090753259205615,0.0,,,,0.0053980191052227,0.0,,,,0.0052056673733253,0.0,,,,,,,,,,B (inferred from topography),,B (inferred from topography),,,,
COR1,Corinaldo,43.63183,13.00033,,seismic,ESM,0.002716788,0.0,,,,0.0036810710551353,0.0,,,,0.0065925782113662,0.0,,,,0.0066106983500448,0.0,,,,,,,,,,D (inferred from geology),,D (inferred from geology),,,,
FANO,Fano,43.843471,13.018354,,seismic,ESM,0.002588938,0.0,,,,0.0039052803713032,0.0,,,,0.0063482878975108,0.0,,,,0.0105736276313558,0.0,,,,,,,,,,C (inferred from topography),,C (inferred from topography),,,,
MPRI,Monte Prat  Italy,46.2408,12.9877,,seismic,ESM,0.002476609,0.0,,,,0.0078858081846238,0.0,,,,0.0065609755378085,0.0,,,,0.0050471728800362,0.0,,,,,,,,,,B (inferred from geology),,B (inferred from geology),,,,
GUMA,Gualdo di Macerata,43.0627,13.3352,,seismic,ESM,0.002338371,0.0,,,,0.004850023759288,0.0,,,,0.0078994213399428,0.0,,,,0.0035895421805561,0.0,,,,,,,,,,B,488.0,B,,,,
FCOR,Fonte Corniale  PU,43.76911,12.81459,,seismic,ESM,0.002050908,0.0,,,,0.002145633058751,0.0,,,,0.0052903316618478,0.0,,,,0.0037857199474847,0.0,,,,,,,,,,B (inferred from topography),,B (inferred from topography),,,,
MCIF,Montecalvo in Foglia,43.811583,12.631683,,seismic,ESM,0.001863305,0.0,,,,0.0033782720468125,0.0,,,,0.0041909934624203,0.0,,,,0.0047175672999088,0.0,,,,,,,,,,B (inferred from topography),,B (inferred from topography),,,,
BOO,Bordano  Italy,46.3195,13.0984,,seismic,ESM,0.001858483,0.0,,,,0.0047210023699632,0.0,,,,0.0037548899704182,0.0,,,,0.0020189817766359,0.0,,,,,,,,,,D (inferred from geology),,D (inferred from geology),,,,
MTL1,Matelica,43.256732,13.009601,,seismic,ESM,0.00174744,0.0,,,,0.0021170747822243,0.0,,,,0.0047224693309195,0.0,,,,0.0044729974470069,0.0,,,,,,,,,,C (inferred from geology),,C (inferred from geology),,,,
MNTP,Montappone,43.137378,13.469252,,seismic,ESM,0.001746706,0.0,,,,0.0034949338371298,0.0,,,,0.0038702863360671,0.0,,,,0.004301885876977,0.0,,,,,,,,,,C (inferred from geology),,C (inferred from geology),,,,
MLN,Malnisio  Italy,46.1495,12.6154,,seismic,ESM,0.001607296,0.0,,,,0.0032845209822789,0.0,,,,0.0042400809479372,0.0,,,,0.0027386895288362,0.0,,,,,,,,,,B (inferred from geology),,B (inferred from geology),,,,
TREM,ISOLE TREMITI   SAN NICOLA,42.123,15.51,,seismic,ESM,0.00140924,0.0,,,,0.0016666593025855,0.0,,,,0.0041878685197716,0.0,,,,0.0043041822281478,0.0,,,,,,,,,,B (inferred from geology),,B (inferred from geology),,,,
CLUD,Cludinico  Italy,46.4569,12.8814,,seismic,ESM,0.001342133,0.0,,,,0.0022439303980652,0.0,,,,0.0030000584861845,0.0,,,,0.0036516746557543,0.0,,,,,,,,,,A (inferred from geology),,A (inferred from geology),,,,
FUSE,Fusea  Italy,46.4142,13.0011,,seismic,ESM,0.00122085,0.0,,,,0.0032847161741097,0.0,,,,0.0033299147238883,0.0,,,,0.0029414734079029,0.0,,,,,,,,,,B (inferred from geology),,B (inferred from geology),,,,
PRED,Cave del Predil  Italy,46.4428,13.565,,seismic,ESM,0.001208557,0.0,,,,0.0037211705719687,0.0,,,,0.0038217981650393,0.0,,,,0.0019452918553832,0.0,,,,,,,,,,A (inferred from geology),,A (inferred from geology),,,,
BANR,Banloc,45.3828,21.137,,seismic,ESM,0.001121028,0.0,,,,0.0016838248289031,0.0,,,,0.002854749045433,0.0,,,,0.0029781193719976,0.0,,,,,,,,,,C (inferred from topography),,C (inferred from topography),,,,
CIMO,Cimolais  Italy,46.3116,12.4448,,seismic,ESM,0.001006037,0.0,,,,0.0021021192353456,0.0,,,,0.0014607611943507,0.0,,,,0.0012158631342865,0.0,,,,,,,,,,C (inferred from geology),,C (inferred from geology),,,,
MPAG,Monte Paganuccio,43.6292,12.7595,,seismic,ESM,0.000824875,0.0,,,,0.0012802992743729,0.0,,,,0.0022536592448884,0.0,,,,0.0025087164876841,0.0,,,,,,,,,,A (inferred from geology),,A (inferred from geology),,,,
SSFR,Montelago di Sassoferrato,43.43628,12.78225,,seismic,ESM,0.000764959,0.0,,,,0.0027560718929608,0.0,,,,0.0012580016172787,0.0,,,,0.0014200009097134,0.0,,,,,,,,,,C (inferred from geology),,C (inferred from geology),,,,
MSAG,Monte S. Angelo,41.712,15.9096,,seismic,ESM,0.000707634,0.0,,,,0.00159762770508,0.0,,,,0.0021899016712574,0.0,,,,0.0012071748278104,0.0,,,,,,,,,,A (inferred from geology),,A (inferred from geology),,,,
TERO,TERAMO,42.62279,13.60393,,seismic,ESM,0.000545585,0.0,,,,0.0007240091432021,0.0,,,,0.0014274553350277,0.0,,,,0.0013699176629893,0.0,,,,,,,,,,A,912.0,A,,,,
BZS,Buzias,45.6188,21.6401,,seismic,ESM,0.000338597,0.0,,,,0.0005346216350539,0.0,,,,0.0007969093463367,0.0,,,,0.0005992535557833,0.0,,,,,,,,,,A (inferred from topography),,A (inferred from topography),,,,
MDVR,Moldovita,44.7815,21.7128,,seismic,ESM,0.00029214,0.0,,,,0.0006565347463612,0.0,,,,0.0006235199277687,0.0,,,,0.0006824561686618,0.0,,,,,,,,,,B (inferred from topography),,B (inferred from topography),,,,
SIRR,Siria,46.2653,21.663,,seismic,ESM,0.000279322,0.0,,,,0.0006421531183362,0.0,,,,0.0004832565832536,0.0,,,,0.000558294316119,0.0,,,,,,,,,,B (inferred from topography),,B (inferred from topography),,,,
UTM:(33T 060 503 10000),,45.4606,16.343,,macroseismic,Stations_USGS,1.138778,0.8059,,,,1.662997,1.0131,,,,,,,,,0.923788,1.0822,,,,0.173339,1.4737,,,,,,225.29,inferred,8.7,0.3,0.875,82.8618
UTM:(33T 056 508 10000),,45.9155,15.8382,,macroseismic,Stations_USGS,0.243661,0.8059,,,,0.500912,1.0131,,,,,,,,,0.322252,1.0822,,,,0.065841,1.4737,,,,,,398.48,inferred,7.0,0.3,0.875,24.0093
UTM:(33T 058 506 10000),,45.7333,16.0925,,macroseismic,Stations_USGS,0.23838,0.8059,,,,0.462296,1.0131,,,,,,,,,0.229554,1.0822,,,,0.046738,1.4737,,,,,,228.69,inferred,6.7,0.3,0.875,19.2949
UTM:(33T 058 507 10000),,45.8233,16.0943,,macroseismic,Stations_USGS,0.183702,0.8059,,,,0.376352,1.0131,,,,,,,,,0.189276,1.0822,,,,0.039087,1.4737,,,,,,294.92,inferred,6.4,0.3,0.875,15.5062
UTM:(33T 058 505 10000),,45.6433,16.0907,,macroseismic,Stations_USGS,0.181121,0.8059,,,,0.348759,1.0131,,,,,,,,,0.134189,1.0822,,,,0.027599,1.4737,,,,,,323.61,inferred,6.1,0.3,0.875,12.4615
UTM:(33T 056 507 10000),,45.8255,15.8368,,macroseismic,Stations_USGS,0.17531,0.8059,,,,0.367213,1.0131,,,,,,,,,0.194779,1.0822,,,,0.040363,1.4737,,,,,,579.85,inferred,6.4,0.3,0.875,15.5062
UTM:(33T 059 506 10000),,45.732,16.221,,macroseismic,Stations_USGS,0.165233,0.8059,,,,0.332326,1.0131,,,,,,,,,0.141957,1.0822,,,,0.029396,1.4737,,,,,,222.59,inferred,6.1,0.3,0.875,12.4615
UTM:(33T 057 506 10000),,45.7345,15.964,,macroseismic,Stations_USGS,0.159191,0.8059,,,,0.325881,1.0131,,,,,,,,,0.145235,1.0822,,,,0.030157,1.4737,,,,,,209.13,inferred,6.1,0.3,0.875,12.4615
UTM:(33T 060 506 10000),,45.7306,16.3495,,macroseismic,Stations_USGS,0.15218,0.8059,,,,0.31105,1.0131,,,,,,,,,0.132743,1.0822,,,,0.027609,1.4737,,,,,,244.37,inferred,6.0,0.3,0.875,11.5857
UTM:(33T 055 508 10000),,45.9163,15.7092,,macroseismic,Stations_USGS,0.144532,0.8059,,,,0.31692,1.0131,,,,,,,,,0.173314,1.0822,,,,0.036308,1.4737,,,,,,505.28,inferred,6.2,0.3,0.875,13.4034
UTM:(33T 055 507 10000),,45.8263,15.7081,,macroseismic,Stations_USGS,0.140787,0.8059,,,,0.305498,1.0131,,,,,,,,,0.156594,1.0822,,,,0.032813,1.4737,,,,,,339.42,inferred,6.1,0.3,0.875,12.4615
UTM:(33T 057 507 10000),,45.8245,15.9655,,macroseismic,Stations_USGS,0.140583,0.8059,,,,0.298354,1.0131,,,,,,,,,0.139352,1.0822,,,,0.029154,1.4737,,,,,,456.36,inferred,6.0,0.3,0.875,11.5857
UTM:(33T 054 511 10000),,46.1871,15.5831,,macroseismic,Stations_USGS,0.137955,0.8059,,,,0.316417,1.0131,,,,,,,,,0.200577,1.0822,,,,0.042236,1.4737,,,,,,545.12,inferred,,,0.875,14.4165
UTM:(33T 057 497 10000),,44.9245,15.9503,,macroseismic,Stations_USGS,0.130558,0.8059,,,,0.286973,1.0131,,,,,,,,,0.145816,1.0822,,,,0.030673,1.4737,,,,,,287.67,inferred,6.0,0.3,0.875,11.5857
UTM:(33T 056 506 10000),,45.7355,15.8355,,macroseismic,Stations_USGS,0.126654,0.8059,,,,0.269784,1.0131,,,,,,,,,0.117433,1.0822,,,,0.024674,1.4737,,,,,,191.84,inferred,5.8,0.3,0.875,10.0146
UTM:(33T 060 511 10000),,46.1805,16.3605,,macroseismic,Stations_USGS,0.126466,0.8059,,,,0.288746,1.0131,,,,,,,,,0.167236,1.0822,,,,0.035323,1.4737,,,,,,386.62,inferred,6.1,0.3,0.875,12.4615
UTM:(33T 065 502 10000),,45.3613,16.9791,,macroseismic,Stations_USGS,0.124601,0.8059,,,,0.273673,1.0131,,,,,,,,,0.13341,1.0822,,,,0.028113,1.4737,,,,,,441.57,inferred,5.9,0.3,0.875,10.7716
UTM:(33T 050 511 10000),,46.1885,15.0648,,macroseismic,Stations_USGS,0.100694,0.8059,,,,0.244677,1.0131,,,,,,,,,0.152018,1.0822,,,,0.032543,1.4737,,,,,,565.5,inferred,5.9,0.3,0.875,10.7716
UTM:(33T 057 509 10000),,46.0044,15.9687,,macroseismic,Stations_USGS,0.093432,0.8059,,,,0.214644,1.0131,,,,,,,,,0.099455,1.0822,,,,0.021264,1.4737,,,,,,492.83,inferred,5.5,0.3,0.875,8.0482
UTM:(33T 064 508 10000),,45.9033,16.8694,,macroseismic,Stations_USGS,0.089942,0.8059,,,,0.210392,1.0131,,,,,,,,,0.101803,1.0822,,,,0.021827,1.4737,,,,,,311.98,inferred,5.5,0.3,0.875,8.0482
UTM:(33T 067 495 10000),,44.727,17.2099,,macroseismic,Stations_USGS,0.086637,0.8059,,,,0.21107,1.0131,,,,,,,,,0.117159,1.0822,,,,0.025232,1.4737,,,,,,428.92,inferred,5.6,0.3,0.875,8.6565
UTM:(33T 058 511 10000),,46.1832,16.1014,,macroseismic,Stations_USGS,0.08198,0.8059,,,,0.195848,1.0131,,,,,,,,,0.095804,1.0822,,,,0.020647,1.4737,,,,,,661.82,inferred,5.4,0.3,0.875,7.4826
UTM:(33T 056 511 10000),,46.1855,15.8423,,macroseismic,Stations_USGS,0.080848,0.8059,,,,0.194422,1.0131,,,,,,,,,0.096624,1.0822,,,,0.020845,1.4737,,,,,,767.33,inferred,5.4,0.3,0.875,7.4826
UTM:(33T 059 510 10000),,46.0919,16.2289,,macroseismic,Stations_USGS,0.079966,0.8059,,,,0.188927,1.0131,,,,,,,,,0.086488,1.0822,,,,0.018642,1.4737,,,,,,385.04,inferred,5.3,0.3,0.875,6.9567
UTM:(33T 056 496 10000),,44.8354,15.8224,,macroseismic,Stations_USGS,0.074951,0.8059,,,,0.178469,1.0131,,,,,,,,,0.080011,1.0822,,,,0.017299,1.4737,,,,,,235.7,inferred,5.2,0.3,0.875,6.4678
UTM:(33T 054 503 10000),,45.4671,15.5756,,macroseismic,Stations_USGS,0.074122,0.8059,,,,0.169485,1.0131,,,,,,,,,0.063681,1.0822,,,,0.013733,1.4737,,,,,,312.46,inferred,5.0,0.3,0.875,5.5907
UTM:(33T 068 494 10000),,44.6345,17.3325,,macroseismic,Stations_USGS,0.065222,0.8059,,,,0.165888,1.0131,,,,,,,,,0.087128,1.0822,,,,0.019033,1.4737,,,,,,649.78,inferred,5.2,0.3,0.875,6.4678
UTM:(33T 053 508 10000),,45.9177,15.4513,,macroseismic,Stations_USGS,0.061,0.8059,,,,0.13005,1.0131,,,,,,,,,0.063801,1.0822,,,,0.013935,1.4737,,,,,,364.56,inferred,4.9,0.3,0.875,5.1978
UTM:(33T 055 515 10000),,46.5463,15.7174,,macroseismic,Stations_USGS,0.056561,0.8059,,,,0.124801,1.0131,,,,,,,,,0.07516,1.0822,,,,0.016536,1.4737,,,,,,548.34,inferred,5.0,0.3,0.875,5.5907
UTM:(33T 062 513 10000),,46.357,16.6248,,macroseismic,Stations_USGS,0.055811,0.8059,,,,0.11598,1.0131,,,,,,,,,0.067374,1.0822,,,,0.014812,1.4737,,,,,,218.19,inferred,4.9,0.3,0.875,5.1978
UTM:(33T 051 507 10000),,45.8284,15.1931,,macroseismic,Stations_USGS,0.055273,0.8059,,,,0.108294,1.0131,,,,,,,,,0.060259,1.0822,,,,0.013235,1.4737,,,,,,360.03,inferred,4.8,0.3,0.875,4.8326
UTM:(34T 030 493 10000),,44.5419,18.5453,,macroseismic,Stations_USGS,0.052888,0.8059,,,,0.121068,1.0131,,,,,,,,,0.088086,1.0822,,,,0.01951,1.4737,,,,,,510.6,inferred,5.1,0.3,0.875,6.0133
UTM:(33T 054 513 10000),,46.3671,15.585,,macroseismic,Stations_USGS,0.051716,0.8059,,,,0.099403,1.0131,,,,,,,,,0.062767,1.0822,,,,0.013854,1.4737,,,,,,321.88,inferred,4.8,0.3,0.875,4.8326
UTM:(33T 060 512 10000),,46.2704,16.3627,,macroseismic,Stations_USGS,0.05128,0.8059,,,,0.092961,1.0131,,,,,,,,,0.056096,1.0822,,,,0.012368,1.4737,,,,,,243.6,inferred,4.7,0.3,0.875,4.493
UTM:(34T 026 500 10000),,45.1593,18.01,,macroseismic,Stations_USGS,0.048733,0.8059,,,,0.09208,1.0131,,,,,,,,,0.065095,1.0822,,,,0.014431,1.4737,,,,,,259.93,inferred,4.8,0.3,0.875,4.8326
UTM:(33T 064 511 10000),,46.1731,16.8785,,macroseismic,Stations_USGS,0.047528,0.8059,,,,0.079695,1.0131,,,,,,,,,0.052253,1.0822,,,,0.011566,1.4737,,,,,,234.05,inferred,4.6,0.3,0.875,4.1772
UTM:(33T 059 507 10000),,45.822,16.223,,macroseismic,Stations_USGS,0.046908,0.8059,,,,0.062609,1.0131,,,,,,,,,0.024176,1.0822,,,,0.004402,1.4737,,,,,,322.55,inferred,4.2,0.3,0.875,2.8651
UTM:(33T 056 513 10000),,46.3654,15.845,,macroseismic,Stations_USGS,0.046481,0.8059,,,,0.077441,1.0131,,,,,,,,,0.052972,1.0822,,,,0.011745,1.4737,,,,,,336.68,inferred,4.6,0.3,0.875,4.1772
UTM:(33T 050 513 10000),,46.3685,15.065,,macroseismic,Stations_USGS,0.046241,0.8059,,,,0.081367,1.0131,,,,,,,,,0.059768,1.0822,,,,0.013279,1.4737,,,,,,539.84,inferred,4.7,0.3,0.875,4.493
UTM:(33T 071 497 10000),,44.8959,17.723,,macroseismic,Stations_USGS,0.04411,0.8059,,,,0.072393,1.0131,,,,,,,,,0.054699,1.0822,,,,0.012175,1.4737,,,,,,385.28,inferred,4.6,0.3,0.875,4.1772
UTM:(33T 060 514 10000),,46.4504,16.3672,,macroseismic,Stations_USGS,0.042899,0.8059,,,,0.066033,1.0131,,,,,,,,,0.04947,1.0822,,,,0.011015,1.4737,,,,,,389.58,inferred,4.5,0.3,0.875,3.8837
UTM:(33T 039 503 10000),,45.4606,13.657,,macroseismic,Stations_USGS,0.041533,0.8059,,,,0.070859,1.0131,,,,,,,,,0.063833,1.0822,,,,0.014295,1.4737,,,,,,544.57,inferred,4.7,0.3,0.875,4.493
SSM1,San Severino Marche,43.2288,13.177,,seismic,Stations_USGS,0.040828,0.0,,,,0.002071,0.0,,,,,,,,,0.001046,0.0,,,,0.00034,0.0,,,,,,760.0,inferred,2.8,0.63,0.0,0.2178
UTM:(33T 053 515 10000),,46.5476,15.4565,,macroseismic,Stations_USGS,0.040802,0.8059,,,,0.061905,1.0131,,,,,,,,,0.051013,1.0822,,,,0.0114,1.4737,,,,,,441.79,inferred,4.5,0.3,0.875,3.8837
UTM:(33T 052 512 10000),,46.2781,15.3245,,macroseismic,Stations_USGS,0.040153,0.8059,,,,0.057332,1.0131,,,,,,,,,0.045804,1.0822,,,,0.010231,1.4737,,,,,,383.62,inferred,4.4,0.3,0.875,3.6107
UTM:(33T 051 512 10000),,46.2784,15.1947,,macroseismic,Stations_USGS,0.039564,0.8059,,,,0.056252,1.0131,,,,,,,,,0.04622,1.0822,,,,0.010335,1.4737,,,,,,286.28,inferred,4.4,0.3,0.875,3.6107
UTM:(33T 054 515 10000),,46.547,15.587,,macroseismic,Stations_USGS,0.038661,0.8059,,,,0.054602,1.0131,,,,,,,,,0.046879,1.0822,,,,0.010501,1.4737,,,,,,495.77,inferred,4.4,0.3,0.875,3.6107
UTM:(33T 060 513 10000),,46.3604,16.3649,,macroseismic,Stations_USGS,0.02973,0.8059,,,,0.039577,1.0131,,,,,,,,,0.02787,1.0822,,,,0.005628,1.4737,,,,,,211.15,inferred,4.1,0.3,0.875,2.4497
UTM:(33T 061 513 10000),,46.3588,16.4949,,macroseismic,Stations_USGS,0.029405,0.8059,,,,0.039344,1.0131,,,,,,,,,0.028022,1.0822,,,,0.005674,1.4737,,,,,,217.17,inferred,4.1,0.3,0.875,2.4497
UTM:(33T 046 509 10000),,46.0077,14.5479,,macroseismic,Stations_USGS,0.027784,0.8059,,,,0.04036,1.0131,,,,,,,,,0.036114,1.0822,,,,0.008042,1.4737,,,,,,459.26,inferred,4.2,0.3,0.875,2.8651
UTM:(33T 045 510 10000),,46.0971,14.4178,,macroseismic,Stations_USGS,0.026175,0.8059,,,,0.039082,1.0131,,,,,,,,,0.037192,1.0822,,,,0.008405,1.4737,,,,,,538.0,inferred,4.2,0.3,0.875,2.8651
UTM:(33T 050 512 10000),,46.2785,15.0649,,macroseismic,Stations_USGS,0.025796,0.8059,,,,0.03666,1.0131,,,,,,,,,0.029891,1.0822,,,,0.006252,1.4737,,,,,,252.44,inferred,4.1,0.3,0.875,2.4497
UTM:(33T 064 518 10000),,46.8027,16.9003,,macroseismic,Stations_USGS,0.025619,0.8059,,,,0.038632,1.0131,,,,,,,,,0.037588,1.0822,,,,0.00854,1.4737,,,,,,483.26,inferred,4.2,0.3,0.875,2.8651
UTM:(33T 071 514 10000),,46.4243,17.7981,,macroseismic,Stations_USGS,0.025168,0.8059,,,,0.038263,1.0131,,,,,,,,,0.037919,1.0822,,,,0.008653,1.4737,,,,,,289.52,inferred,4.2,0.3,0.875,2.8651
UTM:(34T 028 510 10000),,46.0647,18.2201,,macroseismic,Stations_USGS,0.021335,0.8059,,,,0.033091,1.0131,,,,,,,,,0.032825,1.0822,,,,0.007195,1.4737,,,,,,335.24,inferred,4.1,0.3,0.875,2.4497
UTM:(33T 046 510 10000),,46.0977,14.5472,,macroseismic,Stations_USGS,0.020211,0.8059,,,,0.030385,1.0131,,,,,,,,,0.0269,1.0822,,,,0.005511,1.4737,,,,,,292.23,inferred,4.0,0.3,0.875,2.0945
UTM:(34T 036 525 10000),,47.4344,19.2097,,macroseismic,Stations_USGS,0.019637,0.8059,,,,0.0354,1.0131,,,,,,,,,0.049879,1.0822,,,,0.011398,1.4737,,,,,,760.0,inferred,4.3,0.3,0.875,3.351
UTM:(34T 028 498 10000),,44.9859,18.2728,,macroseismic,Stations_USGS,0.018772,0.8059,,,,0.029198,1.0131,,,,,,,,,0.027898,1.0822,,,,0.00582,1.4737,,,,,,469.81,inferred,4.0,0.3,0.875,2.0945
UTM:(34T 032 513 10000),,46.3459,18.7257,,macroseismic,Stations_USGS,0.018038,0.8059,,,,0.030225,1.0131,,,,,,,,,0.035658,1.0822,,,,0.008147,1.4737,,,,,,221.16,inferred,4.1,0.3,0.875,2.4497
UTM:(33T 037 507 10000),,45.8172,13.391,,macroseismic,Stations_USGS,0.015374,0.8059,,,,0.026216,1.0131,,,,,,,,,0.030785,1.0822,,,,0.006748,1.4737,,,,,,760.0,inferred,4.0,0.3,0.875,2.0945
SBPO,S.Benedetto Po,45.0511,10.9199,,seismic,Stations_USGS,0.005835,0.0,,,,0.002626,0.0,,,,,,,,,0.004005,0.0,,,,0.004127,0.0,,,,,,760.0,inferred,3.1,0.63,0.0,0.5472
ASOL,Asolo,45.8003,11.9023,,seismic,Stations_USGS,0.004791,0.0,,,,0.01521,0.0,,,,,,,,,0.008424,0.0,,,,0.003225,0.0,,,,,,760.0,inferred,3.2,0.63,0.0,0.6438
FERS,FERS,44.9035,11.5406,,seismic,Stations_USGS,0.003499,0.0,,,,0.005443,0.0,,,,,,,,,0.003838,0.0,,,,0.001291,0.0,,,,,,760.0,inferred,3.0,0.63,0.0,0.4362
CDCA,Citta di Castello,43.4584,12.2336,,seismic,Stations_USGS,0.003141,0.0,,,,0.004042,0.0,,,,,,,,,0.006516,0.0,,,,0.003054,0.0,,,,,,760.0,inferred,3.3,0.63,0.0,0.7533
PCRO,Pietralacroce (Ancona),43.6077,13.5323,,seismic,Stations_USGS,0.002798,0.0,,,,0.003361,0.0,,,,,,,,,0.004085,0.0,,,,0.002056,0.0,,,,,,487.88,inferred,3.3,0.63,0.0,0.6328
VENL,Venezia Lido,45.4167,12.3765,,seismic,Stations_USGS,0.002782,0.0,,,,0.008783,0.0,,,,,,,,,0.008746,0.0,,,,0.003036,0.0,,,,,,760.0,inferred,3.4,0.63,0.0,0.7732
COR1,COR1,43.6318,13.0003,,seismic,Stations_USGS,0.002771,0.0,,,,0.003068,0.0,,,,,,,,,0.006238,0.0,,,,0.003086,0.0,,,,,,760.0,inferred,3.5,0.63,0.0,0.8019
TEOL,Teolo,45.3617,11.6739,,seismic,Stations_USGS,0.002636,0.0,,,,0.004204,0.0,,,,,,,,,0.010037,0.0,,,,0.000456,0.0,,,,,,760.0,inferred,3.0,0.63,0.0,0.4208
IMOL,Imola,44.3595,11.7425,,seismic,Stations_USGS,0.002407,0.0,,,,0.001852,0.0,,,,,,,,,0.003963,0.0,,,,0.004175,0.0,,,,,,760.0,inferred,3.1,0.63,0.0,0.5356
SOKA,SOKA,46.678,15.0327,,seismic,Stations_USGS,0.00236,0.0,,,,0.006116,0.0,,,,,,,,,0.002952,0.0,,,,0.001019,0.0,,,,,,634.93,inferred,2.9,0.63,0.0,0.3824
OPPE,Oppeano,45.3082,11.1724,,seismic,Stations_USGS,0.002358,0.0,,,,0.004126,0.0,,,,,,,,,0.004725,0.0,,,,0.002273,0.0,,,,,,760.0,inferred,3.0,0.63,0.0,0.4613
SANR,Sandrigo,45.64,11.6099,,seismic,Stations_USGS,0.002229,0.0,,,,0.00437,0.0,,,,,,,,,0.004405,0.0,,,,0.002898,0.0,,,,,,760.0,inferred,2.9,0.63,0.0,0.3994
TRI,TRI,45.709,13.764,,seismic,Stations_USGS,0.002204,0.0,,,,0.005992,0.0,,,,,,,,,0.001513,0.0,,,,0.000777,0.0,,,,,,355.92,inferred,2.6,0.63,0.0,0.1636
CADA,Capodarco,43.1942,13.7614,,seismic,Stations_USGS,0.002203,0.0,,,,0.003556,0.0,,,,,,,,,0.008204,0.0,,,,0.002817,0.0,,,,,,760.0,inferred,3.2,0.63,0.0,0.5708
PP3,PP3,43.3778,13.6095,,seismic,Stations_USGS,0.002102,0.0,,,,0.003413,0.0,,,,,,,,,0.005458,0.0,,,,0.003293,0.0,,,,,,760.0,inferred,3.3,0.63,0.0,0.73
CTI,CASTELLO TESINO,46.0482,11.6497,,seismic,Stations_USGS,0.001861,0.0,,,,0.005191,0.0,,,,,,,,,0.002302,0.0,,,,0.000698,0.0,,,,,,760.0,inferred,2.7,0.63,0.0,0.2543
MNTV,Mantova,45.1495,10.7897,,seismic,Stations_USGS,0.001831,0.0,,,,0.002384,0.0,,,,,,,,,0.003548,0.0,,,,0.003922,0.0,,,,,,760.0,inferred,3.1,0.63,0.0,0.4775
MORH,MORH,46.215,18.6436,,seismic,Stations_USGS,0.001826,0.0,,,,0.003042,0.0,,,,,,,,,0.003321,0.0,,,,0.000787,0.0,,,,,,394.12,inferred,2.7,0.63,0.0,0.2568
TREG,Tregnago,45.523,11.1606,,seismic,Stations_USGS,0.001798,0.0,,,,0.004077,0.0,,,,,,,,,0.001444,0.0,,,,0.000641,0.0,,,,,,760.0,inferred,2.4,0.63,0.0,0.1828
MNTP,MNTP,43.1373,13.4692,,seismic,Stations_USGS,0.001782,0.0,,,,0.003562,0.0,,,,,,,,,0.003865,0.0,,,,0.003351,0.0,,,,,,760.0,inferred,3.3,0.63,0.0,0.7347
BRSN,BARISANO,44.2842,12.0802,,seismic,Stations_USGS,0.001717,0.0,,,,0.002346,0.0,,,,,,,,,0.003394,0.0,,,,0.003843,0.0,,,,,,760.0,inferred,3.3,0.63,0.0,0.6551
TRE1,Treia,43.3112,13.3128,,seismic,Stations_USGS,0.001708,0.0,,,,0.003294,0.0,,,,,,,,,0.002885,0.0,,,,0.001945,0.0,,,,,,760.0,inferred,3.2,0.63,0.0,0.5563
CPGN,Carpegna,43.8011,12.3205,,seismic,Stations_USGS,0.001694,0.0,,,,0.002395,0.0,,,,,,,,,0.001831,0.0,,,,0.001298,0.0,,,,,,760.0,inferred,2.7,0.63,0.0,0.2639
MODE,Modena,44.6297,10.9492,,seismic,Stations_USGS,0.001681,0.0,,,,0.002056,0.0,,,,,,,,,0.003065,0.0,,,,0.003379,0.0,,,,,,760.0,inferred,3.1,0.63,0.0,0.5012
CRND,Cornuda,45.8361,12.0131,,seismic,Stations_USGS,0.00168,0.0,,,,0.004008,0.0,,,,,,,,,0.00267,0.0,,,,0.001074,0.0,,,,,,760.0,inferred,2.7,0.63,0.0,0.2329
MML1,Monte Lago,43.1135,12.9717,,seismic,Stations_USGS,0.00163,0.0,,,,0.001118,0.0,,,,,,,,,0.001279,0.0,,,,0.000518,0.0,,,,,,760.0,inferred,2.3,0.63,0.0,0.142
MPLH,MPLH,47.1712,17.5348,,seismic,Stations_USGS,0.001441,0.0,,,,0.003429,0.0,,,,,,,,,0.001993,0.0,,,,0.001289,0.0,,,,,,436.51,inferred,2.9,0.63,0.0,0.4003
FAEN,Faenza,44.2895,11.877,,seismic,Stations_USGS,0.001428,0.0,,,,0.002421,0.0,,,,,,,,,0.004058,0.0,,,,0.002442,0.0,,,,,,760.0,inferred,3.1,0.63,0.0,0.3697
SAIV,Sant Angelo in Vado (PU),43.6648,12.413,,seismic,Stations_USGS,0.001427,0.0,,,,0.001084,0.0,,,,,,,,,0.001293,0.0,,,,0.000662,0.0,,,,,,760.0,inferred,2.5,0.63,0.0,0.137
MURB,MONTE URBINO,43.263,12.5246,,seismic,Stations_USGS,0.001395,0.0,,,,0.00349,0.0,,,,,,,,,0.002018,0.0,,,,0.00097,0.0,,,,,,760.0,inferred,2.6,0.63,0.0,0.223
GAG1,Gagliole,43.2381,13.0674,,seismic,Stations_USGS,0.001336,0.0,,,,0.002531,0.0,,,,,,,,,0.002889,0.0,,,,0.001291,0.0,,,,,,760.0,inferred,2.7,0.63,0.0,0.2944
NDIM,Novi di Modena,44.8873,10.8987,,seismic,Stations_USGS,0.001273,0.0,,,,0.001782,0.0,,,,,,,,,0.002383,0.0,,,,0.000925,0.0,,,,,,760.0,inferred,2.7,0.63,0.0,0.2684
ATCC,AVT - Casa Castalda,43.1851,12.6399,,seismic,Stations_USGS,0.001179,0.0,,,,0.00142,0.0,,,,,,,,,0.003115,0.0,,,,0.001593,0.0,,,,,,760.0,inferred,2.7,0.63,0.0,0.2548
ATFO,Monte Foce - Gubbio,43.3666,12.5715,,seismic,Stations_USGS,0.001069,0.0,,,,0.001655,0.0,,,,,,,,,0.003434,0.0,,,,0.001104,0.0,,,,,,760.0,inferred,2.7,0.63,0.0,0.2871
MELA,Melanico - S. Croce di Magliano,41.7059,15.127,,seismic,Stations_USGS,0.001063,0.0,,,,0.001519,0.0,,,,,,,,,0.00228,0.0,,,,0.001919,0.0,,,,,,760.0,inferred,2.9,0.63,0.0,0.2697
FEMA,Monte Fema,42.9621,13.0498,,seismic,Stations_USGS,0.001061,0.0,,,,0.00139,0.0,,,,,,,,,0.002303,0.0,,,,0.000584,0.0,,,,,,760.0,inferred,2.5,0.63,0.0,0.1882
ATPI,Pietralunga - Aviosuperficie,43.4507,12.4022,,seismic,Stations_USGS,0.000991,0.0,,,,0.001092,0.0,,,,,,,,,0.00275,0.0,,,,0.000568,0.0,,,,,,760.0,inferred,2.6,0.63,0.0,0.231
MMUR,Monte Murano,43.4418,12.9973,,seismic,Stations_USGS,0.000988,0.0,,,,0.002043,0.0,,,,,,,,,0.002085,0.0,,,,0.000716,0.0,,,,,,760.0,inferred,2.6,0.63,0.0,0.2275
ATPC,Poggio Castellaccio,43.4807,12.457,,seismic,Stations_USGS,0.000978,0.0,,,,0.00162,0.0,,,,,,,,,0.002868,0.0,,,,0.001036,0.0,,,,,,760.0,inferred,2.5,0.63,0.0,0.2091
ARSA,ARSA,47.2505,15.5232,,seismic,Stations_USGS,0.000973,0.0,,,,0.001862,0.0,,,,,,,,,0.001198,0.0,,,,0.000947,0.0,,,,,,769.2,inferred,2.5,0.63,0.0,0.1915
DJES,"Station Derdap-Kladovo, Serbia",44.6672,22.5197,,seismic,Stations_USGS,0.000966,0.0,,,,0.001569,0.0,,,,,,,,,0.001815,0.0,,,,0.001386,0.0,,,,,,760.0,inferred,3.1,0.63,0.0,0.4259
TRIV,Trivento,41.7666,14.5502,,seismic,Stations_USGS,0.000946,0.0,,,,0.000988,0.0,,,,,,,,,0.001763,0.0,,,,0.002732,0.0,,,,,,760.0,inferred,3.0,0.63,0.0,0.4357
APRC,Apricena (FG),41.7574,15.5431,,seismic,Stations_USGS,0.000874,0.0,,,,0.001141,0.0,,,,,,,,,0.001073,0.0,,,,0.001112,0.0,,,,,,760.0,inferred,2.6,0.63,0.0,0.22
MTRZ,Monterenzio,44.3128,11.4248,,seismic,Stations_USGS,0.000868,0.0,,,,0.001237,0.0,,,,,,,,,0.002324,0.0,,,,0.001174,0.0,,,,,,760.0,inferred,2.7,0.63,0.0,0.238
PIO1,Pioraco,43.1782,12.9838,,seismic,Stations_USGS,0.000821,0.0,,,,0.000941,0.0,,,,,,,,,0.001895,0.0,,,,0.000699,0.0,,,,,,760.0,inferred,2.5,0.63,0.0,0.1999
MDAR,Monte Daria,43.1927,13.1427,,seismic,Stations_USGS,0.000812,0.0,,,,0.001052,0.0,,,,,,,,,0.001612,0.0,,,,0.000899,0.0,,,,,,760.0,inferred,2.5,0.63,0.0,0.1888
SEF1,Sefro,43.1468,12.9476,,seismic,Stations_USGS,0.000809,0.0,,,,0.002312,0.0,,,,,,,,,0.00119,0.0,,,,0.000633,0.0,,,,,,760.0,inferred,2.4,0.63,0.0,0.1708
FOSV,Fossato di Vico,43.2948,12.7612,,seismic,Stations_USGS,0.000806,0.0,,,,0.001197,0.0,,,,,,,,,0.002175,0.0,,,,0.00061,0.0,,,,,,760.0,inferred,2.3,0.63,0.0,0.1545
RNI2,RIONERO SANNITICO,41.7033,14.1524,,seismic,Stations_USGS,0.000803,0.0,,,,0.00082,0.0,,,,,,,,,0.001413,0.0,,,,0.002058,0.0,,,,,,760.0,inferred,2.8,0.63,0.0,0.3146
SSFR,SSFR,43.4363,12.7822,,seismic,Stations_USGS,0.00078,0.0,,,,0.002809,0.0,,,,,,,,,0.001101,0.0,,,,0.001049,0.0,,,,,,760.0,inferred,2.6,0.63,0.0,0.2458
T1299,T1299,42.6342,13.2822,,seismic,Stations_USGS,0.000746,0.0,,,,0.000844,0.0,,,,,,,,,0.000965,0.0,,,,0.001401,0.0,,,,,,760.0,inferred,2.9,0.63,0.0,0.3467
INTR,INTRODACQUA,42.0115,13.9046,,seismic,Stations_USGS,0.000718,0.0,,,,0.000811,0.0,,,,,,,,,0.00223,0.0,,,,0.001446,0.0,,,,,,760.0,inferred,2.9,0.63,0.0,0.3515
MBAL,Monte Baldo Osservatorio Astronomico Novezzina,45.6975,10.8589,,seismic,Stations_USGS,0.0007,0.0,,,,0.001493,0.0,,,,,,,,,0.00138,0.0,,,,0.000336,0.0,,,,,,760.0,inferred,1.9,0.63,0.0,0.081
CESI,Cesi-Serravalle di Chienti,43.0049,12.9046,,seismic,Stations_USGS,0.000697,0.0,,,,0.000894,0.0,,,,,,,,,0.001716,0.0,,,,0.000827,0.0,,,,,,760.0,inferred,2.4,0.63,0.0,0.1676
VOBA,Vobarno,45.644,10.5038,,seismic,Stations_USGS,0.000678,0.0,,,,0.00165,0.0,,,,,,,,,0.000696,0.0,,,,0.000376,0.0,,,,,,760.0,inferred,1.9,0.63,0.0,0.0747
CAFI,Castiglion Fiorentino,43.3292,11.9663,,seismic,Stations_USGS,0.000657,0.0,,,,0.000703,0.0,,,,,,,,,0.001282,0.0,,,,0.000887,0.0,,,,,,760.0,inferred,2.5,0.63,0.0,0.2098
MTRA,Matera di Acquasanta Terme (AP),42.7567,13.3965,,seismic,Stations_USGS,0.000626,0.0,,,,0.000981,0.0,,,,,,,,,0.00119,0.0,,,,0.000659,0.0,,,,,,760.0,inferred,2.3,0.63,0.0,0.1431
SFI,SANTA SOFIA,43.9048,11.8469,,seismic,Stations_USGS,0.000603,0.0,,,,0.000791,0.0,,,,,,,,,0.001704,0.0,,,,0.001666,0.0,,,,,,760.0,inferred,2.5,0.63,0.0,0.1953
ATVO,AVT - Monte Valentino,43.3821,12.4066,,seismic,Stations_USGS,0.000572,0.0,,,,0.000729,0.0,,,,,,,,,0.001306,0.0,,,,0.000541,0.0,,,,,,760.0,inferred,2.4,0.63,0.0,0.1138
GAVE,Gavelli,42.6922,12.8942,,seismic,Stations_USGS,0.000572,0.0,,,,0.001219,0.0,,,,,,,,,0.000966,0.0,,,,0.000463,0.0,,,,,,760.0,inferred,2.2,0.63,0.0,0.1258
FIU1,Fiuminata,43.1886,12.9316,,seismic,Stations_USGS,0.000562,0.0,,,,0.000741,0.0,,,,,,,,,0.001443,0.0,,,,0.000667,0.0,,,,,,760.0,inferred,2.4,0.63,0.0,0.1824
LNSS,LEONESSA,42.6029,13.0403,,seismic,Stations_USGS,0.000553,0.0,,,,0.000947,0.0,,,,,,,,,0.001279,0.0,,,,0.000784,0.0,,,,,,760.0,inferred,2.3,0.63,0.0,0.1492
CING,CINGOLI,43.3756,13.1954,,seismic,Stations_USGS,0.000546,0.0,,,,0.000671,0.0,,,,,,,,,0.001382,0.0,,,,0.000612,0.0,,,,,,760.0,inferred,2.5,0.63,0.0,0.1987
ZCCA,ZOCCA,44.3509,10.9765,,seismic,Stations_USGS,0.000542,0.0,,,,0.000589,0.0,,,,,,,,,0.000924,0.0,,,,0.001744,0.0,,,,,,760.0,inferred,2.6,0.63,0.0,0.2245
FIR,Firenze,43.7744,11.2551,,seismic,Stations_USGS,0.000523,0.0,,,,0.000631,0.0,,,,,,,,,0.001713,0.0,,,,0.000881,0.0,,,,,,760.0,inferred,2.5,0.63,0.0,0.1942
PIEI,PIEIA,43.5357,12.535,,seismic,Stations_USGS,0.000519,0.0,,,,0.001428,0.0,,,,,,,,,0.000992,0.0,,,,0.000669,0.0,,,,,,760.0,inferred,2.3,0.63,0.0,0.103
SERM,Semide,45.01,11.2958,,seismic,Stations_USGS,0.000515,0.0,,,,0.000865,0.0,,,,,,,,,0.001303,0.0,,,,0.000823,0.0,,,,,,760.0,inferred,2.3,0.63,0.0,0.1484
FDMO,Fiordimonte,43.0365,13.0873,,seismic,Stations_USGS,0.000504,0.0,,,,0.000855,0.0,,,,,,,,,0.001273,0.0,,,,0.000845,0.0,,,,,,760.0,inferred,2.3,0.63,0.0,0.1452
SACS,San Casciano dei Bagni,42.8491,11.9097,,seismic,Stations_USGS,0.000482,0.0,,,,0.00051,0.0,,,,,,,,,0.000962,0.0,,,,0.000822,0.0,,,,,,760.0,inferred,2.3,0.63,0.0,0.1569
LPEL,Lama dei Peligni,42.0468,14.1832,,seismic,Stations_USGS,0.000476,0.0,,,,0.000666,0.0,,,,,,,,,0.000979,0.0,,,,0.000797,0.0,,,,,,760.0,inferred,2.5,0.63,0.0,0.1838
MIDA,MIRANDA,41.6419,14.254,,seismic,Stations_USGS,0.000457,0.0,,,,0.000486,0.0,,,,,,,,,0.000695,0.0,,,,0.001198,0.0,,,,,,760.0,inferred,2.4,0.63,0.0,0.1811
MGAB,Montegabbione,42.9126,12.1121,,seismic,Stations_USGS,0.000456,0.0,,,,0.000714,0.0,,,,,,,,,0.001226,0.0,,,,0.000917,0.0,,,,,,760.0,inferred,2.3,0.63,0.0,0.1572
NRCA,NORCIA,42.8336,13.1143,,seismic,Stations_USGS,0.000442,0.0,,,,0.000739,0.0,,,,,,,,,0.001287,0.0,,,,0.000521,0.0,,,,,,760.0,inferred,2.3,0.63,0.0,0.1542
MOMA,Monte Martano,42.8039,12.5701,,seismic,Stations_USGS,0.00043,0.0,,,,0.000649,0.0,,,,,,,,,0.000848,0.0,,,,0.000488,0.0,,,,,,760.0,inferred,2.3,0.63,0.0,0.1359
FIAM,FIAMIGNANO,42.268,13.1172,,seismic,Stations_USGS,0.000429,0.0,,,,0.000469,0.0,,,,,,,,,0.000738,0.0,,,,0.000597,0.0,,,,,,760.0,inferred,2.4,0.63,0.0,0.1445
OSSC,OSSC,43.5236,11.2458,,seismic,Stations_USGS,0.000405,0.0,,,,0.000395,0.0,,,,,,,,,0.000768,0.0,,,,0.000665,0.0,,,,,,760.0,inferred,2.3,0.63,0.0,0.1358
VVLD,VILLAVALLELONGA,41.8697,13.6232,,seismic,Stations_USGS,0.000369,0.0,,,,0.000371,0.0,,,,,,,,,0.001152,0.0,,,,0.000579,0.0,,,,,,760.0,inferred,2.3,0.63,0.0,0.1401
ZEN8,San Zeno di Montagna,45.6378,10.7319,,seismic,Stations_USGS,0.000364,0.0,,,,0.000966,0.0,,,,,,,,,0.000835,0.0,,,,0.000209,0.0,,,,,,760.0,inferred,1.9,0.63,0.0,0.0801
KHC,Kasperske Hory,49.1309,13.5782,,seismic,Stations_USGS,0.000329,0.0,,,,0.000905,0.0,,,,,,,,,0.000516,0.0,,,,0.000221,0.0,,,,,,760.0,inferred,2.0,0.63,0.0,0.0688
FUORN,"Ofenpass-Fuorn, GR",46.6203,10.2635,,seismic,Stations_USGS,0.000299,0.0,,,,0.000557,0.0,,,,,,,,,0.000641,0.0,,,,0.000228,0.0,,,,,,760.0,inferred,2.0,0.63,0.0,0.0965
SNTG,ESANATOGLIA,43.255,12.9406,,seismic,Stations_USGS,0.000166,0.0,,,,0.000181,0.0,,,,,,,,,0.000225,0.0,,,,0.000229,0.0,,,,,,760.0,inferred,1.6,0.63,0.0,0.0492
BRIS,BRISIGHELLA,44.2245,11.7666,,seismic,Stations_USGS,0.000131,0.0,,,,5e-06,0.0,,,,,,,,,5e-06,0.0,,,,1e-06,0.0,,,,,,760.0,inferred,,,0.0,0.0006
TIH,TIH,46.9001,17.8877,,seismic,Stations_USGS,9e-06,0.0,,,,1.6e-05,0.0,,,,,,,,,4e-06,0.0,,,,1e-06,0.0,,,,,,479.24,inferred,,,0.0,0.0005
Croatia.1,1,45.06698179,16.37750835,,seismic,Stations_USGS,,,,,,,,,,,,,,,,,,,,,,,,,,,,447.74,inferred,,,,
Croatia.2,2,45.08706838,16.38380158,,seismic,Stations_USGS,,,,,,,,,,,,,,,,,,,,,,,,,,,,509.57,inferred,,,,
Croatia.3,3,45.10393653,16.28570991,,seismic,Stations_USGS,,,,,,,,,,,,,,,,,,,,,,,,,,,,431.24,inferred,,,,
Croatia.4,4,45.12720399,16.41542468,,seismic,Stations_USGS,,,,,,,,,,,,,,,,,,,,,,,,,,,,364.96,inferred,,,,
Croatia.5,5,45.13512261,16.17030275,,seismic,Stations_USGS,,,,,,,,,,,,,,,,,,,,,,,,,,,,651.97,inferred,,,,
Croatia.6,6,45.14051868,16.44398392,,seismic,Stations_USGS,,,,,,,,,,,,,,,,,,,,,,,,,,,,436.0,inferred,,,,
Croatia.7,7,45.1484334,16.14498061,,seismic,Stations_USGS,,,,,,,,,,,,,,,,,,,,,,,,,,,,606.73,inferred,,,,
Croatia.8,8,45.15317662,16.46132378,,seismic,Stations_USGS,,,,,,,,,,,,,,,,,,,,,,,,,,,,497.82,inferred,,,,
Croatia.9,9,45.15624976,16.33325165,,seismic,Stations_USGS,,,,,,,,,,,,,,,,,,,,,,,,,,,,594.47,inferred,,,,
Croatia.10,10,45.18157537,16.1286575,,seismic,Stations_USGS,,,,,,,,,,,,,,,,,,,,,,,,,,,,585.05,inferred,,,,
Croatia.11,11,45.22101934,16.54834353,,seismic,Stations_USGS,,,,,,,,,,,,,,,,,,,,,,,,,,,,451.15,inferred,,,,
Croatia.12,12,45.22773472,16.16229563,,seismic,Stations_USGS,,,,,,,,,,,,,,,,,,,,,,,,,,,,530.37,inferred,,,,
Croatia.13,13,45.25420239,16.52936752,,seismic,Stations_USGS,,,,,,,,,,,,,,,,,,,,,,,,,,,,438.52,inferred,,,,
Croatia.14,14,45.26110381,16.17198605,,seismic,Stations_USGS,,,,,,,,,,,,,,,,,,,,,,,,,,,,375.16,inferred,,,,
Croatia.15,15,45.26459131,16.53896095,,seismic,Stations_USGS,,,,,,,,,,,,,,,,,,,,,,,,,,,,460.1,inferred,,,,
Croatia.16,16,45.2775006,16.54359953,,seismic,Stations_USGS,,,,,,,,,,,,,,,,,,,,,,,,,,,,436.82,inferred,,,,
Croatia.17,17,45.28106941,16.1385691,,seismic,Stations_USGS,,,,,,,,,,,,,,,,,,,,,,,,,,,,370.77,inferred,,,,
Croatia.18,18,45.29337351,15.96936446,,seismic,Stations_USGS,,,,,,,,,,,,,,,,,,,,,,,,,,,,446.99,inferred,,,,
Croatia.19,19,45.30892779,16.55299577,,seismic,Stations_USGS,,,,,,,,,,,,,,,,,,,,,,,,,,,,437.64,inferred,,,,
Croatia.20,20,45.32451305,15.69400151,,seismic,Stations_USGS,,,,,,,,,,,,,,,,,,,,,,,,,,,,377.74,inferred,,,,
Croatia.21,21,45.33333281,15.97252713,,seismic,Stations_USGS,,,,,,,,,,,,,,,,,,,,,,,,,,,,253.07,inferred,,,,
Croatia.22,22,45.33673285,16.08963271,,seismic,Stations_USGS,,,,,,,,,,,,,,,,,,,,,,,,,,,,385.01,inferred,,,,
Croatia.23,23,45.33674176,16.00731647,,seismic,Stations_USGS,,,,,,,,,,,,,,,,,,,,,,,,,,,,292.47,inferred,,,,
Croatia.24,24,45.33918719,16.5704822,,seismic,Stations_USGS,,,,,,,,,,,,,,,,,,,,,,,,,,,,340.88,inferred,,,,
Croatia.25,25,45.35348711,15.86320424,,seismic,Stations_USGS,,,,,,,,,,,,,,,,,,,,,,,,,,,,337.65,inferred,,,,
Croatia.26,26,45.36556143,15.78424296,,seismic,Stations_USGS,,,,,,,,,,,,,,,,,,,,,,,,,,,,340.46,inferred,,,,
Croatia.27,27,45.36560694,16.11968279,,seismic,Stations_USGS,,,,,,,,,,,,,,,,,,,,,,,,,,,,295.22,inferred,,,,
Croatia.28,28,45.3767475,16.49148298,,seismic,Stations_USGS,,,,,,,,,,,,,,,,,,,,,,,,,,,,340.31,inferred,,,,
Croatia.29,29,45.38570424,16.13930515,,seismic,Stations_USGS,,,,,,,,,,,,,,,,,,,,,,,,,,,,250.41,inferred,,,,
Croatia.30,30,45.38674081,16.16566071,,seismic,Stations_USGS,,,,,,,,,,,,,,,,,,,,,,,,,,,,397.8,inferred,,,,
Croatia.31,31,45.40339936,16.22091001,,seismic,Stations_USGS,,,,,,,,,,,,,,,,,,,,,,,,,,,,453.57,inferred,,,,
Croatia.32,32,45.41005858,16.41856872,,seismic,Stations_USGS,,,,,,,,,,,,,,,,,,,,,,,,,,,,250.16,inferred,,,,
Croatia.33,33,45.41449897,16.45335807,,seismic,Stations_USGS,,,,,,,,,,,,,,,,,,,,,,,,,,,,343.98,inferred,,,,
Croatia.34,34,45.41670949,16.19085053,,seismic,Stations_USGS,,,,,,,,,,,,,,,,,,,,,,,,,,,,408.31,inferred,,,,
Croatia.35,35,45.42336678,16.38224513,,seismic,Stations_USGS,,,,,,,,,,,,,,,,,,,,,,,,,,,,237.54,inferred,,,,
Croatia.36,36,45.44007637,16.27775964,,seismic,Stations_USGS,,,,,,,,,,,,,,,,,,,,,,,,,,,,280.85,inferred,,,,
Croatia.37,37,45.45336169,16.25570936,,seismic,Stations_USGS,,,,,,,,,,,,,,,,,,,,,,,,,,,,244.96,inferred,,,,
Croatia.38,38,45.47666254,16.0895938,,seismic,Stations_USGS,,,,,,,,,,,,,,,,,,,,,,,,,,,,494.66,inferred,,,,
Croatia.39,39,45.48439408,15.98988842,,seismic,Stations_USGS,,,,,,,,,,,,,,,,,,,,,,,,,,,,280.46,inferred,,,,
Croatia.40,40,45.48552188,16.16553436,,seismic,Stations_USGS,,,,,,,,,,,,,,,,,,,,,,,,,,,,275.79,inferred,,,,
Croatia.41,41,45.48882704,16.14022172,,seismic,Stations_USGS,,,,,,,,,,,,,,,,,,,,,,,,,,,,348.67,inferred,,,,
Croatia.42,42,45.50659963,16.19704281,,seismic,Stations_USGS,,,,,,,,,,,,,,,,,,,,,,,,,,,,208.93,inferred,,,,
Croatia.43,43,45.52546317,15.97095001,,seismic,Stations_USGS,,,,,,,,,,,,,,,,,,,,,,,,,,,,364.94,inferred,,,,
Croatia.44,44,45.56425774,16.02317198,,seismic,Stations_USGS,,,,,,,,,,,,,,,,,,,,,,,,,,,,316.15,inferred,,,,
Croatia.45,45,45.58303517,16.20984505,,seismic,Stations_USGS,,,,,,,,,,,,,,,,,,,,,,,,,,,,222.44,inferred,,,,
Croatia.46,46,45.58525337,16.04689898,,seismic,Stations_USGS,,,,,,,,,,,,,,,,,,,,,,,,,,,,266.64,inferred,,,,
Croatia.47,47,45.60293113,16.16553421,,seismic,Stations_USGS,,,,,,,,,,,,,,,,,,,,,,,,,,,,271.41,inferred,,,,
Croatia.48,48,45.61048326,16.13542898,,seismic,Stations_USGS,,,,,,,,,,,,,,,,,,,,,,,,,,,,265.69,inferred,,,,
Croatia.49,49,45.6208127,16.12422976,,seismic,Stations_USGS,,,,,,,,,,,,,,,,,,,,,,,,,,,,287.31,inferred,,,,
Croatia.50,50,45.62687574,16.06334442,,seismic,Stations_USGS,,,,,,,,,,,,,,,,,,,,,,,,,,,,405.73,inferred,,,,
Croatia.51,51,45.63386187,16.1149526,,seismic,Stations_USGS,,,,,,,,,,,,,,,,,,,,,,,,,,,,231.72,inferred,,,,
Croatia.52,52,45.64499181,16.05328058,,seismic,Stations_USGS,,,,,,,,,,,,,,,,,,,,,,,,,,,,293.14,inferred,,,,
Croatia.53,53,45.68476055,16.11376403,,seismic,Stations_USGS,,,,,,,,,,,,,,,,,,,,,,,,,,,,207.07,inferred,,,,
UTM:(32T 065 503 10000),,45.4513,10.9823,,macroseismic,Stations_USGS,,,,,,,,,,,,,,,,,,,,,,,,,,,,760.0,inferred,2.8,0.3,,
UTM:(32T 066 510 10000),,46.0786,11.1339,,macroseismic,Stations_USGS,,,,,,,,,,,,,,,,,,,,,,,,,,,,760.0,inferred,3.0,0.3,,
UTM:(32T 069 504 10000),,45.5312,11.4973,,macroseismic,Stations_USGS,,,,,,,,,,,,,,,,,,,,,,,,,,,,760.0,inferred,2.7,0.3,,
UTM:(32T 070 504 10000),,45.5283,11.6253,,macroseismic,Stations_USGS,,,,,,,,,,,,,,,,,,,,,,,,,,,,760.0,inferred,2.3,0.3,,
UTM:(32T 072 503 10000),,45.4323,11.8765,,macroseismic,Stations_USGS,,,,,,,,,,,,,,,,,,,,,,,,,,,,760.0,inferred,2.2,0.3,,
UTM:(33T 028 504 10000),,45.5253,12.2468,,macroseismic,Stations_USGS,,,,,,,,,,,,,,,,,,,,,,,,,,,,760.0,inferred,2.7,0.3,,
UTM:(33T 029 503 10000),,45.4384,12.3789,,macroseismic,Stations_USGS,,,,,,,,,,,,,,,,,,,,,,,,,,,,760.0,inferred,2.9,0.3,,
UTM:(33T 031 508 10000),,45.8937,12.6154,,macroseismic,Stations_USGS,,,,,,,,,,,,,,,,,,,,,,,,,,,,760.0,inferred,3.7,0.3,,
UTM:(33T 031 509 10000),,45.9836,12.6115,,macroseismic,Stations_USGS,,,,,,,,,,,,,,,,,,,,,,,,,,,,760.0,inferred,3.2,0.3,,
UTM:(33T 031 510 10000),,46.0735,12.6076,,macroseismic,Stations_USGS,,,,,,,,,,,,,,,,,,,,,,,,,,,,760.0,inferred,2.7,0.3,,
UTM:(33T 033 507 10000),,45.8088,12.8764,,macroseismic,Stations_USGS,,,,,,,,,,,,,,,,,,,,,,,,,,,,760.0,inferred,2.9,0.3,,
UTM:(33T 036 510 10000),,46.0852,13.2538,,macroseismic,Stations_USGS,,,,,,,,,,,,,,,,,,,,,,,,,,,,760.0,inferred,3.2,0.3,,
UTM:(33T 038 507 10000),,45.8189,13.5196,,macroseismic,Stations_USGS,,,,,,,,,,,,,,,,,,,,,,,,,,,,267.89,inferred,3.4,0.3,,
UTM:(33T 039 504 10000),,45.5506,13.6548,,macroseismic,Stations_USGS,,,,,,,,,,,,,,,,,,,,,,,,,,,,600.0,inferred,3.0,0.3,,
UTM:(33T 039 509 10000),,46.0005,13.644,,macroseismic,Stations_USGS,,,,,,,,,,,,,,,,,,,,,,,,,,,,900.0,inferred,3.3,0.3,,
UTM:(33T 040 496 10000),,44.8321,13.7982,,macroseismic,Stations_USGS,,,,,,,,,,,,,,,,,,,,,,,,,,,,600.0,inferred,3.1,0.3,,
UTM:(33T 040 504 10000),,45.552,13.7829,,macroseismic,Stations_USGS,,,,,,,,,,,,,,,,,,,,,,,,,,,,425.17,inferred,3.3,0.3,,
UTM:(33T 040 505 10000),,45.642,13.781,,macroseismic,Stations_USGS,,,,,,,,,,,,,,,,,,,,,,,,,,,,437.61,inferred,3.8,0.3,,
UTM:(33T 041 496 10000),,44.8333,13.9246,,macroseismic,Stations_USGS,,,,,,,,,,,,,,,,,,,,,,,,,,,,384.21,inferred,3.9,0.3,,
UTM:(33T 041 516 10000),,46.6331,13.8895,,macroseismic,Stations_USGS,,,,,,,,,,,,,,,,,,,,,,,,,,,,466.95,inferred,2.6,0.3,,
UTM:(33T 043 513 10000),,46.3654,14.155,,macroseismic,Stations_USGS,,,,,,,,,,,,,,,,,,,,,,,,,,,,372.89,inferred,3.1,0.3,,
UTM:(33T 044 502 10000),,45.3763,14.2975,,macroseismic,Stations_USGS,,,,,,,,,,,,,,,,,,,,,,,,,,,,712.55,inferred,2.4,0.3,,
UTM:(33T 044 511 10000),,46.1863,14.2873,,macroseismic,Stations_USGS,,,,,,,,,,,,,,,,,,,,,,,,,,,,714.73,inferred,3.2,0.3,,
UTM:(33T 044 512 10000),,46.2763,14.2861,,macroseismic,Stations_USGS,,,,,,,,,,,,,,,,,,,,,,,,,,,,394.07,inferred,3.2,0.3,,
UTM:(33T 044 516 10000),,46.6363,14.2814,,macroseismic,Stations_USGS,,,,,,,,,,,,,,,,,,,,,,,,,,,,486.66,inferred,3.4,0.3,,
UTM:(33T 045 501 10000),,45.287,14.4262,,macroseismic,Stations_USGS,,,,,,,,,,,,,,,,,,,,,,,,,,,,600.0,inferred,3.7,0.3,,
UTM:(33T 045 502 10000),,45.377,14.4253,,macroseismic,Stations_USGS,,,,,,,,,,,,,,,,,,,,,,,,,,,,445.64,inferred,3.5,0.3,,
UTM:(33T 045 509 10000),,46.0071,14.4188,,macroseismic,Stations_USGS,,,,,,,,,,,,,,,,,,,,,,,,,,,,210.67,inferred,3.9,0.3,,
UTM:(33T 045 512 10000),,46.2771,14.4159,,macroseismic,Stations_USGS,,,,,,,,,,,,,,,,,,,,,,,,,,,,309.72,inferred,3.3,0.3,,
UTM:(33T 046 511 10000),,46.1877,14.5465,,macroseismic,Stations_USGS,,,,,,,,,,,,,,,,,,,,,,,,,,,,257.38,inferred,3.6,0.3,,
UTM:(33T 047 511 10000),,46.1881,14.676,,macroseismic,Stations_USGS,,,,,,,,,,,,,,,,,,,,,,,,,,,,540.51,inferred,3.4,0.3,,
UTM:(33T 048 510 10000),,46.0984,14.8059,,macroseismic,Stations_USGS,,,,,,,,,,,,,,,,,,,,,,,,,,,,895.59,inferred,3.7,0.3,,
UTM:(33T 048 518 10000),,46.8183,14.8034,,macroseismic,Stations_USGS,,,,,,,,,,,,,,,,,,,,,,,,,,,,411.2,inferred,3.4,0.3,,
UTM:(33T 051 488 10000),,44.118,15.1875,,macroseismic,Stations_USGS,,,,,,,,,,,,,,,,,,,,,,,,,,,,600.0,inferred,2.9,0.3,,
UTM:(33T 053 520 10000),,46.9976,15.4603,,macroseismic,Stations_USGS,,,,,,,,,,,,,,,,,,,,,,,,,,,,236.47,inferred,2.5,0.3,,
UTM:(33T 053 521 10000),,47.0876,15.4611,,macroseismic,Stations_USGS,,,,,,,,,,,,,,,,,,,,,,,,,,,,472.69,inferred,3.3,0.3,,
UTM:(33T 054 512 10000),,46.2771,15.5841,,macroseismic,Stations_USGS,,,,,,,,,,,,,,,,,,,,,,,,,,,,900.0,inferred,3.7,0.3,,
UTM:(33T 054 514 10000),,46.457,15.586,,macroseismic,Stations_USGS,,,,,,,,,,,,,,,,,,,,,,,,,,,,496.74,inferred,3.7,0.3,,
UTM:(33T 056 514 10000),,46.4554,15.8464,,macroseismic,Stations_USGS,,,,,,,,,,,,,,,,,,,,,,,,,,,,468.17,inferred,3.9,0.3,,
UTM:(33T 057 516 10000),,46.6343,15.9798,,macroseismic,Stations_USGS,,,,,,,,,,,,,,,,,,,,,,,,,,,,316.69,inferred,3.6,0.3,,
UTM:(33T 058 516 10000),,46.6331,16.1105,,macroseismic,Stations_USGS,,,,,,,,,,,,,,,,,,,,,,,,,,,,204.9,inferred,3.9,0.3,,
UTM:(33T 061 481 10000),,43.4791,16.422,,macroseismic,Stations_USGS,,,,,,,,,,,,,,,,,,,,,,,,,,,,600.0,inferred,3.4,0.3,,
UTM:(33T 062 523 10000),,47.2565,16.6521,,macroseismic,Stations_USGS,,,,,,,,,,,,,,,,,,,,,,,,,,,,245.7,inferred,3.0,0.3,,
UTM:(33T 065 514 10000),,46.4407,17.0178,,macroseismic,Stations_USGS,,,,,,,,,,,,,,,,,,,,,,,,,,,,307.81,inferred,3.7,0.3,,
UTM:(33T 067 518 10000),,46.7955,17.2932,,macroseismic,Stations_USGS,,,,,,,,,,,,,,,,,,,,,,,,,,,,501.52,inferred,3.0,0.3,,
UTM:(33T 071 513 10000),,46.3344,17.7935,,macroseismic,Stations_USGS,,,,,,,,,,,,,,,,,,,,,,,,,,,,364.99,inferred,3.6,0.3,,
UTM:(33U 044 534 10000),,48.2558,14.259,,macroseismic,Stations_USGS,,,,,,,,,,,,,,,,,,,,,,,,,,,,760.0,inferred,3.3,0.3,,
UTM:(33U 045 554 10000),,50.0556,14.3714,,macroseismic,Stations_USGS,,,,,,,,,,,,,,,,,,,,,,,,,,,,760.0,inferred,2.0,0.3,,
UTM:(33U 046 542 10000),,48.9769,14.5217,,macroseismic,Stations_USGS,,,,,,,,,,,,,,,,,,,,,,,,,,,,760.0,inferred,3.2,0.3,,
UTM:(33U 059 533 10000),,48.1611,16.2775,,macroseismic,Stations_USGS,,,,,,,,,,,,,,,,,,,,,,,,,,,,760.0,inferred,2.0,0.3,,
UTM:(33U 059 534 10000),,48.2511,16.2798,,macroseismic,Stations_USGS,,,,,,,,,,,,,,,,,,,,,,,,,,,,760.0,inferred,2.5,0.3,,
UTM:(33U 060 533 10000),,48.1595,16.412,,macroseismic,Stations_USGS,,,,,,,,,,,,,,,,,,,,,,,,,,,,760.0,inferred,3.1,0.3,,
UTM:(33U 060 534 10000),,48.2495,16.4144,,macroseismic,Stations_USGS,,,,,,,,,,,,,,,,,,,,,,,,,,,,760.0,inferred,2.6,0.3,,
UTM:(33U 061 545 10000),,49.2369,16.5798,,macroseismic,Stations_USGS,,,,,,,,,,,,,,,,,,,,,,,,,,,,760.0,inferred,2.0,0.3,,
UTM:(33U 065 532 10000),,48.0594,17.0803,,macroseismic,Stations_USGS,,,,,,,,,,,,,,,,,,,,,,,,,,,,760.0,inferred,3.6,0.3,,
UTM:(33U 065 533 10000),,48.1493,17.0839,,macroseismic,Stations_USGS,,,,,,,,,,,,,,,,,,,,,,,,,,,,760.0,inferred,2.6,0.3,,
UTM:(33U 066 533 10000),,48.1468,17.2183,,macroseismic,Stations_USGS,,,,,,,,,,,,,,,,,,,,,,,,,,,,760.0,inferred,2.7,0.3,,
UTM:(34T 026 495 10000),,44.7098,18.0333,,macroseismic,Stations_USGS,,,,,,,,,,,,,,,,,,,,,,,,,,,,504.77,inferred,3.8,0.3,,
UTM:(34T 028 485 10000),,43.8168,18.3266,,macroseismic,Stations_USGS,,,,,,,,,,,,,,,,,,,,,,,,,,,,268.47,inferred,3.4,0.3,,
UTM:(34T 028 511 10000),,46.1546,18.2156,,macroseismic,Stations_USGS,,,,,,,,,,,,,,,,,,,,,,,,,,,,476.89,inferred,3.8,0.3,,
UTM:(34T 030 522 10000),,47.1496,18.4278,,macroseismic,Stations_USGS,,,,,,,,,,,,,,,,,,,,,,,,,,,,293.57,inferred,2.9,0.3,,
UTM:(34T 031 493 10000),,44.5446,18.6711,,macroseismic,Stations_USGS,,,,,,,,,,,,,,,,,,,,,,,,,,,,380.82,inferred,3.9,0.3,,
UTM:(34T 031 504 10000),,45.5339,18.6306,,macroseismic,Stations_USGS,,,,,,,,,,,,,,,,,,,,,,,,,,,,193.41,inferred,3.9,0.3,,
UTM:(34T 032 504 10000),,45.5365,18.7586,,macroseismic,Stations_USGS,,,,,,,,,,,,,,,,,,,,,,,,,,,,209.81,inferred,3.2,0.3,,
UTM:(34T 034 525 10000),,47.43,18.9446,,macroseismic,Stations_USGS,,,,,,,,,,,,,,,,,,,,,,,,,,,,760.0,inferred,3.1,0.3,,
UTM:(34T 034 526 10000),,47.5199,18.9411,,macroseismic,Stations_USGS,,,,,,,,,,,,,,,,,,,,,,,,,,,,760.0,inferred,2.2,0.3,,
UTM:(34T 035 495 10000),,44.7337,19.1687,,macroseismic,Stations_USGS,,,,,,,,,,,,,,,,,,,,,,,,,,,,311.26,inferred,3.5,0.3,,
UTM:(34T 035 525 10000),,47.4323,19.0771,,macroseismic,Stations_USGS,,,,,,,,,,,,,,,,,,,,,,,,,,,,760.0,inferred,2.9,0.3,,
UTM:(34T 035 526 10000),,47.5222,19.0739,,macroseismic,Stations_USGS,,,,,,,,,,,,,,,,,,,,,,,,,,,,760.0,inferred,2.8,0.3,,
UTM:(34T 039 501 10000),,45.2806,19.6612,,macroseismic,Stations_USGS,,,,,,,,,,,,,,,,,,,,,,,,,,,,760.0,inferred,3.7,0.3,,
UTM:(34T 040 501 10000),,45.2821,19.7887,,macroseismic,Stations_USGS,,,,,,,,,,,,,,,,,,,,,,,,,,,,760.0,inferred,3.2,0.3,,
UTM:(34T 043 512 10000),,46.2754,20.1564,,macroseismic,Stations_USGS,,,,,,,,,,,,,,,,,,,,,,,,,,,,760.0,inferred,2.7,0.3,,
UTM:(34T 045 495 10000),,44.7469,20.4315,,macroseismic,Stations_USGS,,,,,,,,,,,,,,,,,,,,,,,,,,,,760.0,inferred,2.9,0.3,,
UTM:(34T 045 496 10000),,44.837,20.4307,,macroseismic,Stations_USGS,,,,,,,,,,,,,,,,,,,,,,,,,,,,760.0,inferred,3.2,0.3,,
UTM:(34T 046 495 10000),,44.7475,20.5579,,macroseismic,Stations_USGS,,,,,,,,,,,,,,,,,,,,,,,,,,,,760.0,inferred,3.4,0.3,,
UTM:(34T 046 496 10000),,44.8375,20.5572,,macroseismic,Stations_USGS,,,,,,,,,,,,,,,,,,,,,,,,,,,,760.0,inferred,2.5,0.3,,
UTM:(34T 047 496 10000),,44.8379,20.6837,,macroseismic,Stations_USGS,,,,,,,,,,,,,,,,,,,,,,,,,,,,760.0,inferred,3.3,0.3,,
