STATION_ID,STATION_NAME,LONGITUDE,LATITUDE,STATION_TYPE,PGA_VALUE,PGA_LN_SIGMA,SOIL_TYPE,VS30,VS30_TYPE,VS30_USGS
A39,Bucharest-Building Research Institute,26.161,44.441,seismic,0.052206,0.0,D (inferred from geology),256.0,inferred_USGS,256.0
VRI,Vrancioaia,26.7277,45.8657,seismic,0.029884,0.0,B (inferred from topography),409.0,inferred_USGS,409.0
A1855,Birlad,27.626,46.266,seismic,0.027002,0.0,B (inferred from topography),625.0,inferred_USGS,625.0
A1856,Istrita,26.545,45.138,seismic,0.018819,0.0,A (inferred from topography),634.0,inferred_USGS,634.0
OBS_9,SCANTERA/VRANCEA (ROM) (Intensity VIII),27.024,45.883,macroseismic,0.458347,0.8059,,543.08,inferred,385.0
OBS_8,SARBI-TIFESTI (ROM) (Intensity VIII),27.078,45.857,macroseismic,0.457749,0.8059,,481.94,inferred,457.0
OBS_7,REPEDEA (ROM) (Intensity VIII),27.055,45.929,macroseismic,0.45702,0.8059,,418.78,inferred,445.0
OBS_5,PANCIU (ROM) (Intensity VIII),27.09,45.908,macroseismic,0.456874,0.8059,,456.07,inferred,407.0
OBS_2,MARASESTI (ROM) (Intensity VIII),27.23,45.88,macroseismic,0.453094,0.8059,,272.21,inferred,253.0
OBS_1,FOCSANI1 (ROM) (Intensity VIII),27.188,45.706,macroseismic,0.452202,0.8059,,254.73,inferred,248.0
OBS_6,PAUNESTI1 (ROM) (Intensity VIII),27.117,46.033,macroseismic,0.451635,0.8059,,507.49,inferred,451.0
OBS_3,MIRCESTII_NOI (ROM) (Intensity VIII),27.27,45.749,macroseismic,0.450472,0.8059,,266.18,inferred,262.0
OBS_4,ONESTI (ROM) (Intensity VIII),26.771,46.25,macroseismic,0.435931,0.8059,,356.85,inferred,433.0
CMN1,Campina-Centru,25.736,45.119,seismic,0.27612,0.0,,369.69,inferred,336.0
ONS,Onesti,26.762,46.25,seismic,0.24653,0.0,,356.85,inferred,280.0
PRS,Peris,26.019,44.676,seismic,0.24633,0.0,,221.91,inferred,207.0
OBS_168,NEREJU1 (ROM) (Intensity VII),26.713,45.712,macroseismic,0.245986,0.8059,,620.76,inferred,452.0
OBS_251,VIDRA1 (ROM) (Intensity VII),26.899,45.909,macroseismic,0.245875,0.8059,,461.63,inferred,400.0
OBS_13,ANDREIASU_DE_JOS1 (ROM) (Intensity VII),26.726,45.642,macroseismic,0.245715,0.8059,,538.12,inferred,662.0
OBS_166,NARUJA (ROM) (Intensity VII),26.778,45.827,macroseismic,0.245711,0.8059,,696.5,inferred,414.0
OBS_138,JARISTEA (ROM) (Intensity VII),27.067,45.795,macroseismic,0.24562,0.8059,,442.71,inferred,451.0
SOKOBS_7,Vrincioaia,26.7333,45.85,macroseismic,0.24503,0.8059,,239.9,inferred,494.0
OBS_253,VRANCIOAIA (ROM) (Intensity VII),26.728,45.864,macroseismic,0.244789,0.8059,,239.9,inferred,409.0
OBS_97,DUMITRESTII_FATA (ROM) (Intensity VII),26.937,45.586,macroseismic,0.244468,0.8059,,469.64,inferred,495.0
OBS_161,MOVILITA/VRANCEA (ROM) (Intensity VII),27.105,45.957,macroseismic,0.244317,0.8059,,462.3,inferred,390.0
OBS_243,VALEA_SALCIEI (ROM) (Intensity VII),26.826,45.495,macroseismic,0.242729,0.8059,,564.85,inferred,598.0
OBS_119,GURA_CALITEI3 (ROM) (Intensity VII),27.038,45.566,macroseismic,0.242687,0.8059,,632.98,inferred,568.0
OBS_56,CAMPURI (ROM) (Intensity VII),26.752,46.012,macroseismic,0.242546,0.8059,,580.11,inferred,411.0
OBS_196,PUTNA/VRANCEA (ROM) (Intensity VII),26.634,45.932,macroseismic,0.24215,0.8059,,852.21,inferred,852.0
OBS_246,VANATORI/FOCSANI (ROM) (Intensity VII),27.258,45.714,macroseismic,0.241475,0.8059,,245.73,inferred,240.0
OBS_79,COSMESTI (ROM) (Intensity VII),27.311,45.87,macroseismic,0.241355,0.8059,,317.58,inferred,448.0
OBS_205,RUGINESTI (ROM) (Intensity VII),27.13,46.074,macroseismic,0.240978,0.8059,,518.01,inferred,373.0
OBS_45,BUCIUMENI/GALATI (ROM) (Intensity VII),27.301,46.008,macroseismic,0.23974,0.8059,,437.99,inferred,377.0
OBS_121,GURA_TEGHII (ROM) (Intensity VII),26.416,45.83,macroseismic,0.23957,0.8059,,656.4,inferred,506.0
OBS_83,COTOFANESTI (ROM) (Intensity VII),26.995,46.148,macroseismic,0.239261,0.8059,,572.32,inferred,478.0
OBS_186,PODGORIA (ROM) (Intensity VII),27.025,45.425,macroseismic,0.238694,0.8059,,454.69,inferred,433.0
OBS_227,TECUCI1 (ROM) (Intensity VII),27.433,45.844,macroseismic,0.238014,0.8059,,233.95,inferred,270.0
OBS_230,TOPLICENI (ROM) (Intensity VII),27.011,45.4,macroseismic,0.237928,0.8059,,550.25,inferred,532.0
OBS_162,MUNTENI1 (ROM) (Intensity VII),27.428,45.922,macroseismic,0.237764,0.8059,,312.34,inferred,381.0
OBS_223,SURAIA (ROM) (Intensity VII),27.389,45.683,macroseismic,0.237657,0.8059,,208.45,inferred,214.0
OBS_38,BRAESTI/BUZAU (ROM) (Intensity VII),26.511,45.431,macroseismic,0.237601,0.8059,,483.62,inferred,524.0
OBS_147,MALU_ALB (ROM) (Intensity VII),27.464,45.801,macroseismic,0.23696,0.8059,,310.84,inferred,311.0
OBS_39,BRAESTI_ODAILE (ROM) (Intensity VII),26.526,45.405,macroseismic,0.236929,0.8059,,558.78,inferred,273.0
OBS_36,BOZIORU (ROM) (Intensity VII),26.492,45.382,macroseismic,0.235462,0.8059,,446.55,inferred,342.0
OBS_106,GALBENU (ROM) (Intensity VII),27.378,46.109,macroseismic,0.235192,0.8059,,517.37,inferred,656.0
OBS_76,CORBITA (ROM) (Intensity VII),27.315,46.163,macroseismic,0.234766,0.8059,,612.68,inferred,582.0
OBS_191,PRIPONESTI (ROM) (Intensity VII),27.437,46.085,macroseismic,0.234393,0.8059,,568.78,inferred,570.0
OBS_195,PUIESTII_DE_JOS (ROM) (Intensity VII),27.216,45.4,macroseismic,0.234251,0.8059,,208.77,inferred,244.0
OBS_237,VALEASEACA (ROM) (Intensity VII),27.085,46.259,macroseismic,0.233923,0.8059,,278.66,inferred,393.0
OBS_169,OITUZ (ROM) (Intensity VII),26.618,46.204,macroseismic,0.233825,0.8059,,458.25,inferred,443.0
OBS_70,CIORASTI2 (ROM) (Intensity VII),27.307,45.458,macroseismic,0.233801,0.8059,,232.84,inferred,231.0
OBS_110,GHIDIGENI (ROM) (Intensity VII),27.49,46.052,macroseismic,0.23375,0.8059,,435.59,inferred,542.0
OBS_256,ZARNESTII_DE_SLANIC (ROM) (Intensity VII),26.752,45.278,macroseismic,0.233719,0.8059,,618.88,inferred,581.0
OBS_74,CODRESTI (ROM) (Intensity VII),27.271,45.421,macroseismic,0.233639,0.8059,,238.59,inferred,227.0
OBS_213,SIRIU (ROM) (Intensity VII),26.258,45.482,macroseismic,0.232975,0.8059,,900.0,inferred,452.0
OBS_69,CIORASTI1 (ROM) (Intensity VII),27.31,45.431,macroseismic,0.232943,0.8059,,225.83,inferred,207.0
OBS_126,HURUIESTI (ROM) (Intensity VII),27.241,46.253,macroseismic,0.232457,0.8059,,553.51,inferred,452.0
OBS_144,LIESTI (ROM) (Intensity VII),27.538,45.625,macroseismic,0.23213,0.8059,,275.91,inferred,250.0
OBS_124,HELIADE_RADULESCU (ROM) (Intensity VII),27.116,45.291,macroseismic,0.231902,0.8059,,245.15,inferred,249.0
OBS_255,ZABALA1 (ROM) (Intensity VII),26.187,45.892,macroseismic,0.231817,0.8059,,511.01,inferred,325.0
OBS_170,OJDULA (ROM) (Intensity VII),26.258,45.987,macroseismic,0.231665,0.8059,,551.3,inferred,437.0
OBS_77,COROD (ROM) (Intensity VII),27.627,45.9,macroseismic,0.231589,0.8059,,570.68,inferred,479.0
OBS_43,BRETCU (ROM) (Intensity VII),26.303,46.045,macroseismic,0.231228,0.8059,,455.63,inferred,404.0
OBS_179,PATARLAGELE1 (ROM) (Intensity VII),26.36,45.319,macroseismic,0.230405,0.8059,,598.94,inferred,470.0
OBS_215,SLANIC_MOLDOVA (ROM) (Intensity VII),26.476,46.224,macroseismic,0.230196,0.8059,,616.17,inferred,755.0
OBS_189,POGONESTI (ROM) (Intensity VII),27.533,46.15,macroseismic,0.229955,0.8059,,541.61,inferred,593.0
OBS_143,LEMNIA (ROM) (Intensity VII),26.26,46.049,macroseismic,0.229935,0.8059,,267.31,inferred,276.0
OBS_111,GLAVANESTI (ROM) (Intensity VII),27.396,46.248,macroseismic,0.229889,0.8059,,630.72,inferred,621.0
OBS_86,CUDALBI1 (ROM) (Intensity VII),27.682,45.782,macroseismic,0.229696,0.8059,,267.52,inferred,306.0
OBS_88,DEALU_MORII (ROM) (Intensity VII),27.297,46.303,macroseismic,0.229434,0.8059,,636.49,inferred,636.0
OBS_164,NAMOLOASA (ROM) (Intensity VII),27.55,45.533,macroseismic,0.229388,0.8059,,181.91,inferred,182.0
OBS_136,IVESTI/COROIESTI (ROM) (Intensity VII),27.533,46.183,macroseismic,0.22895,0.8059,,594.56,inferred,550.0
OBS_132,INTORSURA_BUZAULUI (ROM) (Intensity VII),26.032,45.673,macroseismic,0.228233,0.8059,,484.18,inferred,305.0
OBS_73,CISLAU (ROM) (Intensity VII),26.376,45.244,macroseismic,0.22775,0.8059,,616.89,inferred,578.0
OBS_80,COSTACHE_NEGRI (ROM) (Intensity VII),27.725,45.706,macroseismic,0.227552,0.8059,,437.75,inferred,396.0
OBS_20,BALASESTI (ROM) (Intensity VII),27.672,46.101,macroseismic,0.227195,0.8059,,582.34,inferred,605.0
OBS_100,FARAOANI (ROM) (Intensity VII),26.9,46.433,macroseismic,0.225916,0.8059,,544.81,inferred,545.0
OBS_85,CRICOVUL_SARAT (ROM) (Intensity VII),26.363,45.187,macroseismic,0.225138,0.8059,,539.39,inferred,635.0
OBS_140,LAPOS (ROM) (Intensity VII),26.423,45.154,macroseismic,0.224705,0.8059,,681.46,inferred,406.0
OBS_198,RACOVITA/BRAILA (ROM) (Intensity VII),27.468,45.3,macroseismic,0.224662,0.8059,,215.04,inferred,215.0
OBS_207,SAGEATA (ROM) (Intensity VII),26.984,45.101,macroseismic,0.224575,0.8059,,232.8,inferred,248.0
OBS_23,BALENI1 (ROM) (Intensity VII),27.847,45.813,macroseismic,0.224183,0.8059,,592.5,inferred,554.0
OBS_218,STALPU/BUZAU (ROM) (Intensity VII),26.706,45.084,macroseismic,0.224152,0.8059,,265.08,inferred,251.0
OBS_154,MEREI2 (ROM) (Intensity VII),26.631,45.091,macroseismic,0.224086,0.8059,,335.21,inferred,285.0
OBS_248,VARF/BUZAU (ROM) (Intensity VII),26.504,45.116,macroseismic,0.224082,0.8059,,672.83,inferred,523.0
OBS_201,RESI/MOACSA (ROM) (Intensity VII),25.925,45.839,macroseismic,0.223987,0.8059,,249.87,inferred,287.0
OBS_199,REDIU (ROM) (Intensity VII),27.836,45.712,macroseismic,0.223908,0.8059,,587.19,inferred,526.0
OBS_184,PIETROASELE (ROM) (Intensity VII),26.577,45.093,macroseismic,0.223759,0.8059,,753.16,inferred,585.0
OBS_53,CAINEI-BAI (ROM) (Intensity VII),27.327,45.186,macroseismic,0.223722,0.8059,,233.78,inferred,241.0
OBS_221,STANISESTI/BACAU1 (ROM) (Intensity VII),27.304,46.433,macroseismic,0.223562,0.8059,,625.29,inferred,625.0
OBS_185,PISCU/GALATI (ROM) (Intensity VII),27.731,45.502,macroseismic,0.223376,0.8059,,364.87,inferred,365.0
OBS_153,MAXINENI (ROM) (Intensity VII),27.637,45.409,macroseismic,0.223328,0.8059,,216.54,inferred,198.0
OBS_178,PARINCEA (ROM) (Intensity VII),27.107,46.483,macroseismic,0.223074,0.8059,,652.68,inferred,594.0
OBS_224,SUTESTI (ROM) (Intensity VII),27.436,45.228,macroseismic,0.222981,0.8059,,276.06,inferred,226.0
OBS_82,COSTESTI/BUZAU (ROM) (Intensity VII),26.765,45.055,macroseismic,0.222909,0.8059,,237.16,inferred,233.0
OBS_180,PERIENI1 (ROM) (Intensity VII),27.613,46.309,macroseismic,0.222773,0.8059,,593.16,inferred,674.0
BLV,Bolintin Vale,25.757,44.444,seismic,0.22276,0.0,,228.62,inferred,225.0
OBS_139,JORASTI (ROM) (Intensity VII),27.869,45.992,macroseismic,0.222673,0.8059,,319.88,inferred,590.0
OBS_197,RACHITOASA1 (ROM) (Intensity VII),27.377,46.438,macroseismic,0.22232,0.8059,,754.7,inferred,645.0
OBS_63,CERNU/BACAU (ROM) (Intensity VII),26.588,46.471,macroseismic,0.221758,0.8059,,483.04,inferred,444.0
OBS_131,INDEPENDENTA/GALATI (ROM) (Intensity VII),27.761,45.472,macroseismic,0.221732,0.8059,,347.24,inferred,321.0
OBS_208,SCORTARU_NOU (ROM) (Intensity VII),27.617,45.329,macroseismic,0.221535,0.8059,,202.17,inferred,201.0
OBS_134,ISTRITA_DE_JOS (ROM) (Intensity VII),26.566,45.04,macroseismic,0.221184,0.8059,,264.36,inferred,268.0
OBS_54,CALUGARENI (ROM) (Intensity VII),26.377,45.085,macroseismic,0.221009,0.8059,,435.43,inferred,535.0
OBS_148,MANESIU (ROM) (Intensity VII),25.993,45.316,macroseismic,0.220951,0.8059,,460.95,inferred,551.0
OBS_26,BANEASA/GALATI (ROM) (Intensity VII),27.936,45.958,macroseismic,0.220778,0.8059,,542.31,inferred,412.0
OBS_158,MOINESTI1 (ROM) (Intensity VII),26.494,46.483,macroseismic,0.21996,0.8059,,609.27,inferred,551.0
OBS_108,GEMENELE/ROMANU (ROM) (Intensity VII),27.64,45.286,macroseismic,0.219678,0.8059,,207.37,inferred,224.0
SOKOBS_1,Bacau,26.9,46.5667,macroseismic,0.21946,0.8059,,281.84,inferred,282.0
OBS_101,FARTANESTI1 (ROM) (Intensity VII),27.991,45.79,macroseismic,0.219277,0.8059,,578.8,inferred,516.0
OBS_40,BRANISTEA/GALATI (ROM) (Intensity VII),27.836,45.443,macroseismic,0.218872,0.8059,,277.69,inferred,427.0
OBS_50,BUHOCI (ROM) (Intensity VII),27.01,46.579,macroseismic,0.218864,0.8059,,200.87,inferred,546.0
OBS_129,IANCA (ROM) (Intensity VII),27.481,45.135,macroseismic,0.218623,0.8059,,225.4,inferred,255.0
OBS_151,MARGINENI/BACAU1 (ROM) (Intensity VII),26.857,46.583,macroseismic,0.218599,0.8059,,523.19,inferred,526.0
OBS_160,MOVILA_MIRESII (ROM) (Intensity VII),27.621,45.218,macroseismic,0.218173,0.8059,,244.91,inferred,281.0
OBS_141,LARGU (ROM) (Intensity VII),27.141,44.977,macroseismic,0.217487,0.8059,,237.22,inferred,237.0
OBS_206,SACELE (ROM) (Intensity VII),25.712,45.617,macroseismic,0.217202,0.8059,,330.42,inferred,600.0
OBS_214,SLANIC1 (ROM) (Intensity VII),25.939,45.233,macroseismic,0.217181,0.8059,,583.73,inferred,540.0
OBS_58,CAVADINESTI (ROM) (Intensity VII),28.017,46.066,macroseismic,0.217052,0.8059,,451.93,inferred,703.0
OBS_204,ROMANU (ROM) (Intensity VII),27.745,45.29,macroseismic,0.217025,0.8059,,194.77,inferred,231.0
OBS_33,BOGDANITA (ROM) (Intensity VII),27.671,46.437,macroseismic,0.21701,0.8059,,673.24,inferred,509.0
OBS_37,BRADEANU (ROM) (Intensity VII),26.86,44.928,macroseismic,0.216879,0.8059,,208.6,inferred,212.0
OBS_98,EPURENI_VASLUI (ROM) (Intensity VII),27.91,46.254,macroseismic,0.216679,0.8059,,517.81,inferred,530.0
OBS_247,VARBILAU (ROM) (Intensity VII),25.963,45.181,macroseismic,0.216238,0.8059,,735.77,inferred,586.0
OBS_252,VLADESTI/GALATI (ROM) (Intensity VII),28.089,45.836,macroseismic,0.216186,0.8059,,285.96,inferred,591.0
OBS_239,VALEA_BOBULUI (ROM) (Intensity VII),26.237,45.021,macroseismic,0.216168,0.8059,,259.85,inferred,381.0
OBS_188,POGOANELE (ROM) (Intensity VII),26.991,44.917,macroseismic,0.215933,0.8059,,236.51,inferred,211.0
OBS_236,VALCELE (ROM) (Intensity VII),25.681,45.853,macroseismic,0.215921,0.8059,,527.26,inferred,430.0
OBS_105,FRUMUSITA1 (ROM) (Intensity VII),28.067,45.65,macroseismic,0.215772,0.8059,,375.71,inferred,477.0
OBS_211,SENDRENI (ROM) (Intensity VII),27.925,45.412,macroseismic,0.215652,0.8059,,235.52,inferred,312.0
OBS_16,BACAU2 (ROM) (Intensity VII),27.061,46.648,macroseismic,0.215551,0.8059,,298.33,inferred,584.0
OBS_212,SFARLEANCA (ROM) (Intensity VII),26.01,45.099,macroseismic,0.214688,0.8059,,337.8,inferred,308.0
OBS_163,MURGENI1 (ROM) (Intensity VII),28.022,46.206,macroseismic,0.214605,0.8059,,507.53,inferred,291.0
OBS_241,VALEA_DOFTANEIN (ROM) (Intensity VII),25.733,45.351,macroseismic,0.214379,0.8059,,565.92,inferred,504.0
OBS_72,CIRESU (ROM) (Intensity VII),27.367,44.969,macroseismic,0.214302,0.8059,,218.37,inferred,218.0
OBS_112,GLODEANU_SARAT1 (ROM) (Intensity VII),26.65,44.877,macroseismic,0.214256,0.8059,,260.64,inferred,246.0
OBS_21,BALCANI (ROM) (Intensity VII),26.555,46.638,macroseismic,0.214098,0.8059,,580.87,inferred,561.0
OBS_102,FELDIOARA (ROM) (Intensity VII),25.592,45.817,macroseismic,0.213385,0.8059,,311.84,inferred,238.0
OBS_149,MANTA (MLD) (Intensity VII),28.18,45.8,macroseismic,0.213261,0.8059,,293.94,inferred,512.0
OBS_167,NEGRI (ROM) (Intensity VII),26.978,46.707,macroseismic,0.213058,0.8059,,403.79,inferred,403.0
OBS_176,PAICU (MLD) (Intensity VII),28.16,46.04,macroseismic,0.212988,0.8059,,484.93,inferred,229.0
OBS_245,VALENI (MLD) (Intensity VII),28.17,45.64,macroseismic,0.212524,0.8059,,317.85,inferred,353.0
OBS_135,IVANESTI1 (ROM) (Intensity VII),27.462,46.645,macroseismic,0.212494,0.8059,,655.81,inferred,491.0
OBS_122,HALCHIU (ROM) (Intensity VII),25.547,45.765,macroseismic,0.212204,0.8059,,238.67,inferred,248.0
OBS_81,COSTESTI1 (ROM) (Intensity VII),27.759,46.532,macroseismic,0.211981,0.8059,,674.23,inferred,551.0
OBS_145,LIPOVAT (ROM) (Intensity VII),27.709,46.567,macroseismic,0.2117,0.8059,,714.76,inferred,688.0
OBS_209,SECARIA (ROM) (Intensity VII),25.685,45.272,macroseismic,0.211444,0.8059,,496.13,inferred,455.0
OBS_174,PADINA1 (ROM) (Intensity VII),27.115,44.829,macroseismic,0.211315,0.8059,,195.06,inferred,231.0
OBS_217,SOTRILE (ROM) (Intensity VII),25.714,45.214,macroseismic,0.210904,0.8059,,286.25,inferred,457.0
OBS_142,LAZA (ROM) (Intensity VII),27.592,46.646,macroseismic,0.210713,0.8059,,442.22,inferred,544.0
OBS_107,GARBOVI1 (ROM) (Intensity VII),26.77,44.787,macroseismic,0.210622,0.8059,,180.0,inferred,217.0
OBS_68,CIORANI1 (ROM) (Intensity VII),26.409,44.822,macroseismic,0.210264,0.8059,,248.6,inferred,242.0
OBS_60,CAZASU (ROM) (Intensity VII),27.977,45.244,macroseismic,0.210006,0.8059,,212.57,inferred,245.0
OBS_32,BLAGESTI1 (ROM) (Intensity VII),26.769,46.776,macroseismic,0.209722,0.8059,,606.85,inferred,596.0
OBS_240,VALEA_CANEPII1 (ROM) (Intensity VII),27.802,45.075,macroseismic,0.20967,0.8059,,196.09,inferred,208.0
OBS_94,DRAGANESTI1 (ROM) (Intensity VII),26.3,44.833,macroseismic,0.209588,0.8059,,222.54,inferred,223.0
OBS_55,CAMPINA (ROM) (Intensity VII),25.74,45.129,macroseismic,0.209439,0.8059,,369.69,inferred,343.0
OBS_64,CHISCANI (ROM) (Intensity VII),27.93,45.177,macroseismic,0.209402,0.8059,,253.2,inferred,273.0
CMN2,Campina-Meteo,25.733,45.141,seismic,0.20918,0.0,,369.69,inferred,405.0
OBS_117,GROPENI2 (ROM) (Intensity VII),27.907,45.13,macroseismic,0.208751,0.8059,,258.83,inferred,273.0
OBS_14,ARMASESTI (ROM) (Intensity VII),26.58,44.75,macroseismic,0.208511,0.8059,,276.46,inferred,282.0
OBS_24,BALUSESTI (ROM) (Intensity VII),26.995,46.814,macroseismic,0.208461,0.8059,,448.55,inferred,524.0
OBS_10,ADANCATA (ROM) (Intensity VII),26.434,44.767,macroseismic,0.208264,0.8059,,203.03,inferred,203.0
OBS_187,PODOLENI (ROM) (Intensity VII),26.618,46.798,macroseismic,0.208015,0.8059,,533.41,inferred,521.0
OBS_35,BORLESTI1 (ROM) (Intensity VII),26.512,46.778,macroseismic,0.207987,0.8059,,325.9,inferred,412.0
OBS_222,STREJNICUI/PLOIESTI (ROM) (Intensity VII),25.964,44.92,macroseismic,0.207838,0.8059,,278.64,inferred,279.0
OBS_152,MARMURENI (ROM) (Intensity VII),27.181,46.817,macroseismic,0.207819,0.8059,,591.17,inferred,695.0
OBS_30,BEREZENI (ROM) (Intensity VII),28.15,46.379,macroseismic,0.207645,0.8059,,705.35,inferred,697.0
OBS_125,HOCIUNGI/ROMAN (ROM) (Intensity VII),26.774,46.831,macroseismic,0.207473,0.8059,,187.41,inferred,367.0
OBS_235,URZICENI1 (ROM) (Intensity VII),26.645,44.718,macroseismic,0.207472,0.8059,,243.73,inferred,245.0
OBS_17,BACESTI (ROM) (Intensity VII),27.242,46.823,macroseismic,0.207263,0.8059,,662.5,inferred,649.0
OBS_232,TUFESTI (ROM) (Intensity VII),27.808,44.994,macroseismic,0.207205,0.8059,,218.35,inferred,283.0
OBS_42,BRAZI_PRAHOVA (ROM) (Intensity VII),26.013,44.874,macroseismic,0.207122,0.8059,,264.3,inferred,268.0
OBS_200,RENI (UKR) (Intensity VII),28.29,45.46,macroseismic,0.206764,0.8059,,386.67,inferred,448.0
OBS_210,SECUIENI (ROM) (Intensity VII),26.84,46.855,macroseismic,0.206685,0.8059,,294.99,inferred,315.0
OBS_41,BRAZI_DE_SUS (ROM) (Intensity VII),25.991,44.86,macroseismic,0.206301,0.8059,,264.3,inferred,257.0
OBS_254,VUCANESTI (MLD) (Intensity VII),28.4,45.68,macroseismic,0.206224,0.8059,,614.08,inferred,356.0
OBS_116,GRIVITA (ROM) (Intensity VII),27.29,44.735,macroseismic,0.206092,0.8059,,255.19,inferred,239.0
OBS_11,ALEXENI (ROM) (Intensity VII),26.711,44.678,macroseismic,0.206033,0.8059,,224.15,inferred,198.0
OBS_225,TANACU1 (ROM) (Intensity VII),27.819,46.683,macroseismic,0.205933,0.8059,,714.59,inferred,668.0
OBS_229,TINOSU (ROM) (Intensity VII),26.017,44.817,macroseismic,0.205263,0.8059,,243.49,inferred,311.0
OBS_190,POIENARI (ROM) (Intensity VII),27.124,46.889,macroseismic,0.205167,0.8059,,678.31,inferred,698.0
OBS_242,VALEA_LUNGA_VISINESTI (ROM) (Intensity VII),25.573,45.098,macroseismic,0.204833,0.8059,,416.71,inferred,487.0
OBS_250,VICTORIA/BRAILA1 (ROM) (Intensity VII),27.617,44.806,macroseismic,0.204639,0.8059,,224.81,inferred,234.0
OBS_130,IEDERA_VALEA (ROM) (Intensity VII),25.63,45.026,macroseismic,0.204364,0.8059,,491.6,inferred,299.0
OBS_87,DARMANESTI/DAMBOVITA1 (ROM) (Intensity VII),25.77,44.919,macroseismic,0.204287,0.8059,,285.06,inferred,280.0
OBS_27,BARCANESTI/URZICENI (ROM) (Intensity VII),26.65,44.637,macroseismic,0.204278,0.8059,,279.63,inferred,356.0
OBS_18,BALACIU1 (ROM) (Intensity VII),26.901,44.631,macroseismic,0.204195,0.8059,,269.63,inferred,270.0
OBS_202,ROMAN1 (ROM) (Intensity VII),26.933,46.925,macroseismic,0.204028,0.8059,,416.04,inferred,370.0
OBS_219,STANCUTA (ROM) (Intensity VII),27.836,44.896,macroseismic,0.20382,0.8059,,216.72,inferred,217.0
SOKOBS_6,Panduri (Bucharest),26.75,44.6167,macroseismic,0.203689,0.8059,,230.48,inferred,311.0
OBS_15,AXINTELE (ROM) (Intensity VII),26.746,44.614,macroseismic,0.203581,0.8059,,260.16,inferred,311.0
OBS_59,CAZANESTI/LALOMITA (ROM) (Intensity VII),27.01,44.619,macroseismic,0.20345,0.8059,,249.38,inferred,246.0
OBS_175,PADURENI (ROM) (Intensity VII),28.084,46.621,macroseismic,0.203102,0.8059,,742.41,inferred,678.0
OBS_66,CIOCHINA (ROM) (Intensity VII),27.061,44.593,macroseismic,0.202277,0.8059,,212.84,inferred,284.0
OBS_127,HUSI1 (ROM) (Intensity VII),28.06,46.674,macroseismic,0.202109,0.8059,,781.35,inferred,563.0
OBS_12,ANDRASESTI (ROM) (Intensity VII),27.164,44.587,macroseismic,0.201543,0.8059,,262.68,inferred,214.0
OBS_220,STANILESTI1 (ROM) (Intensity VII),28.173,46.618,macroseismic,0.201497,0.8059,,779.44,inferred,726.0
OBS_194,PUCIOASA1 (ROM) (Intensity VII),25.434,45.078,macroseismic,0.201313,0.8059,,342.27,inferred,385.0
OBS_28,BARGAOANI (ROM) (Intensity VII),26.65,46.993,macroseismic,0.200773,0.8059,,576.84,inferred,549.0
OBS_181,PERIS (ROM) (Intensity VII),26.014,44.679,macroseismic,0.200684,0.8059,,217.09,inferred,207.0
OBS_34,BOLGRAD (UKR) (Intensity VII),28.61,45.68,macroseismic,0.200659,0.8059,,600.0,inferred,603.0
OBS_156,MIRONEASA1 (ROM) (Intensity VII),27.434,46.968,macroseismic,0.200585,0.8059,,607.83,inferred,608.0
OBS_228,TIBANA (ROM) (Intensity VII),27.336,46.986,macroseismic,0.200584,0.8059,,685.2,inferred,560.0
OBS_183,PETRACHIOAIA (ROM) (Intensity VII),26.317,44.583,macroseismic,0.200493,0.8059,,233.06,inferred,223.0
BUZ,Buzau,26.809,45.147,seismic,0.20031,0.0,,237.94,inferred,214.0
OBS_109,GHERAESTI1 (ROM) (Intensity VII),26.823,47.022,macroseismic,0.200273,0.8059,,328.71,inferred,374.0
OBS_171,OKSAMYTNE (UKR) (Intensity VII),28.626,45.632,macroseismic,0.199966,0.8059,,531.8,inferred,582.0
OBS_48,BUESTI (ROM) (Intensity VII),27.185,44.545,macroseismic,0.199925,0.8059,,220.29,inferred,295.0
OBS_52,BUTIMANU (ROM) (Intensity VII),25.896,44.694,macroseismic,0.199618,0.8059,,230.95,inferred,228.0
OBS_91,DOLHESTI/IASI (ROM) (Intensity VII),27.896,46.875,macroseismic,0.198848,0.8059,,816.99,inferred,800.0
OBS_173,OSTROV/TULCEA (ROM) (Intensity VII),28.144,44.92,macroseismic,0.198671,0.8059,,225.23,inferred,384.0
OBS_96,DRANCENI (ROM) (Intensity VII),28.074,46.805,macroseismic,0.198311,0.8059,,781.16,inferred,788.0
OBS_90,DOBROVAT (ROM) (Intensity VII),27.717,46.963,macroseismic,0.198246,0.8059,,800.89,inferred,756.0
OBS_150,MARCULESTI (ROM) (Intensity VII),27.516,44.566,macroseismic,0.198019,0.8059,,260.14,inferred,297.0
OBS_29,BELCIUGATELE (ROM) (Intensity VII),26.434,44.484,macroseismic,0.197833,0.8059,,234.83,inferred,271.0
OBS_157,MOGOSESTI (ROM) (Intensity VII),27.516,47.039,macroseismic,0.197582,0.8059,,768.14,inferred,753.0
OBS_92,DOR_MARUNT (ROM) (Intensity VII),26.932,44.443,macroseismic,0.197293,0.8059,,219.41,inferred,226.0
OBS_159,MOSNA/IASI (ROM) (Intensity VII),27.954,46.921,macroseismic,0.196761,0.8059,,802.42,inferred,719.0
OBS_49,BUFTEA (ROM) (Intensity VII),25.944,44.57,macroseismic,0.196478,0.8059,,205.44,inferred,238.0
OBS_95,DRAGOS_VODA (ROM) (Intensity VII),27.15,44.433,macroseismic,0.196281,0.8059,,212.37,inferred,211.0
OBS_75,CONTESTI/DAMBROVITA (ROM) (Intensity VII),25.637,44.684,macroseismic,0.195641,0.8059,,237.67,inferred,249.0
OBS_193,PROSELNICI (ROM) (Intensity VII),27.483,47.108,macroseismic,0.195579,0.8059,,547.07,inferred,501.0
OBS_113,GOESTI (ROM) (Intensity VII),27.133,47.156,macroseismic,0.195526,0.8059,,691.15,inferred,694.0
OBS_177,PANTELIMON2 (ROM) (Intensity VII),26.202,44.459,macroseismic,0.195513,0.8059,,227.55,inferred,256.0
OBS_128,I.C.FRIMU (ROM) (Intensity VII),26.697,44.388,macroseismic,0.195461,0.8059,,303.51,inferred,317.0
OBS_93,DRAGALINA (ROM) (Intensity VII),27.333,44.433,macroseismic,0.195271,0.8059,,206.14,inferred,206.0
OBS_84,CRACAOANI (ROM) (Intensity VII),26.31,47.096,macroseismic,0.195208,0.8059,,462.18,inferred,436.0
OBS_31,BIRNOVA (ROM) (Intensity VII),27.639,47.084,macroseismic,0.195194,0.8059,,801.52,inferred,832.0
OBS_62,CERNICA (ROM) (Intensity VII),26.267,44.431,macroseismic,0.195098,0.8059,,600.0,inferred,600.0
OBS_238,VALEA_ARGOVEI (ROM) (Intensity VII),26.789,44.352,macroseismic,0.194356,0.8059,,208.69,inferred,365.0
OBS_44,BREZOAIA1 (ROM) (Intensity VII),25.764,44.563,macroseismic,0.194138,0.8059,,217.38,inferred,217.0
OBS_46,BUCURESTI1 (ROM) (Intensity VII),26.094,44.441,macroseismic,0.194089,0.8059,,289.92,inferred,273.0
SOKOBS_5,Incerc (Bucharest),26.1,44.4333,macroseismic,0.193908,0.8059,,289.92,inferred,290.0
OBS_192,PROGRESU (ROM) (Intensity VII),26.46,44.358,macroseismic,0.193829,0.8059,,227.45,inferred,236.0
OBS_118,GROZESTI (ROM) (Intensity VII),28.056,46.993,macroseismic,0.193514,0.8059,,288.54,inferred,261.0
OBS_231,TOPOLOG (ROM) (Intensity VII),28.379,44.877,macroseismic,0.193413,0.8059,,398.63,inferred,345.0
OBS_104,FRASINET (ROM) (Intensity VII),26.813,44.321,macroseismic,0.193362,0.8059,,298.91,inferred,293.0
SOKOBS_4,Iasi,27.6,47.1667,macroseismic,0.192982,0.8059,,692.38,inferred,692.0
OBS_137,IZMAIL (UKR) (Intensity VII),28.833,45.35,macroseismic,0.19263,0.8059,,210.18,inferred,219.0
OBS_47,BUCURESTI2 (ROM) (Intensity VII),26.084,44.382,macroseismic,0.192264,0.8059,,231.68,inferred,227.0
OBS_71,CIOROGARLA1 (ROM) (Intensity VII),25.886,44.445,macroseismic,0.192262,0.8059,,225.25,inferred,221.0
CHI2,Chisinau-Iss2,28.86,46.989,seismic,0.19204,0.0,,891.52,inferred,890.0
OBS_233,ULMU/CALARASI (ROM) (Intensity VII),26.918,44.269,macroseismic,0.191672,0.8059,,266.55,inferred,600.0
OBS_120,GURA_FOII (ROM) (Intensity VII),25.284,44.75,macroseismic,0.191662,0.8059,,372.41,inferred,286.0
OBS_165,NANA1 (ROM) (Intensity VII),26.583,44.267,macroseismic,0.191404,0.8059,,196.86,inferred,222.0
OBS_226,TAPALU (ROM) (Intensity VII),28.044,44.544,macroseismic,0.191216,0.8059,,231.86,inferred,425.0
OBS_146,MAGURELE/ILFOV (ROM) (Intensity VII),26.043,44.351,macroseismic,0.19105,0.8059,,217.27,inferred,267.0
OBS_244,VALEA_SEACA (ROM) (Intensity VII),26.665,47.291,macroseismic,0.191013,0.8059,,578.47,inferred,638.0
OBS_203,ROMANESTI/IASI (ROM) (Intensity VII),27.321,47.284,macroseismic,0.190945,0.8059,,453.09,inferred,464.0
OBS_115,GRADINARI (ROM) (Intensity VII),25.825,44.412,macroseismic,0.190748,0.8059,,248.62,inferred,217.0
OBS_234,UNGHENI (MLD) (Intensity VII),27.8,47.2,macroseismic,0.1905,0.8059,,475.96,inferred,476.0
OBS_61,CEACU1 (ROM) (Intensity VII),27.263,44.263,macroseismic,0.190474,0.8059,,317.39,inferred,317.0
OBS_57,CASIMCEA (ROM) (Intensity VII),28.378,44.719,macroseismic,0.190305,0.8059,,423.64,inferred,383.0
OBS_114,GOLAIESTI (ROM) (Intensity VII),27.701,47.241,macroseismic,0.190125,0.8059,,787.05,inferred,335.0
OBS_103,FETESTI/CALARASI (ROM) (Intensity VII),27.828,44.369,macroseismic,0.189258,0.8059,,384.0,inferred,387.0
OBS_99,FACAU/CLEJANI (ROM) (Intensity VII),25.843,44.292,macroseismic,0.187785,0.8059,,233.78,inferred,278.0
OBS_123,HARLAU (ROM) (Intensity VII),26.901,47.428,macroseismic,0.187392,0.8059,,485.16,inferred,615.0
OBS_172,OSTROV/CONSTANTA (ROM) (Intensity VII),27.369,44.107,macroseismic,0.185657,0.8059,,417.6,inferred,468.0
OBS_78,CORVURLUI (ROM) (Intensity VII),24.75,44.83,macroseismic,0.184375,0.8059,,413.46,inferred,336.0
OBS_25,BANEASA/CONSTANTA (ROM) (Intensity VII),27.7,44.064,macroseismic,0.182724,0.8059,,374.7,inferred,375.0
OBS_182,PESTERA (ROM) (Intensity VII),28.134,44.179,macroseismic,0.181882,0.8059,,329.47,inferred,340.0
OBS_67,CIOLANESTII_DIN_VALE (ROM) (Intensity VII),25.1,44.294,macroseismic,0.180257,0.8059,,300.11,inferred,227.0
OBS_249,VARTOAPELE_DE_SUS (ROM) (Intensity VII),25.199,44.191,macroseismic,0.179383,0.8059,,249.61,inferred,229.0
OBS_155,MERENI (ROM) (Intensity VII),28.383,44.032,macroseismic,0.176742,0.8059,,278.7,inferred,230.0
OBS_216,SMARDIOASA (ROM) (Intensity VII),25.433,43.85,macroseismic,0.174919,0.8059,,355.27,inferred,289.0
OBS_51,BUJORU (ROM) (Intensity VII),25.559,43.711,macroseismic,0.173143,0.8059,,230.95,inferred,241.0
OBS_19,BALANESTI (ROM) (Intensity VII),24.483,44.252,macroseismic,0.172861,0.8059,,226.1,inferred,351.0
OBS_89,DOBRICH (BUL) (Intensity VII),27.833,43.567,macroseismic,0.171644,0.8059,,327.9,inferred,328.0
OBS_257,ZIMNICEA (ROM) (Intensity VII),25.367,43.654,macroseismic,0.170982,0.8059,,223.35,inferred,280.0
OBS_22,BALCESTI1 (ROM) (Intensity VII),23.939,44.618,macroseismic,0.170849,0.8059,,393.81,inferred,366.0
OBS_65,CILIENI (ROM) (Intensity VII),24.616,43.903,macroseismic,0.16932,0.8059,,216.74,inferred,240.0
CFR,Carcaliu,28.136,45.178,seismic,0.16736,0.0,,199.03,inferred,208.0
OBS_133,ISALNITA1 (ROM) (Intensity VII),23.742,44.393,macroseismic,0.166601,0.8059,,299.17,inferred,302.0
RMS1,Rmn. Sarat Prim.,27.047,45.377,seismic,0.16367,0.0,,389.33,inferred,302.0
RMS2,Rmn. Sarat-Scoala,27.039,45.38,seismic,0.15908,0.0,,389.33,inferred,318.0
GLT1,Galati I1 Tiglina,28.028,45.427,seismic,0.15816,0.0,,313.9,inferred,315.0
OBS_261,CILIBAS (MLD) (Intensity VII),28.18,45.72,macroseismic,0.15597,0.8059,,443.64,inferred,550.0
OBS_260,CAHUL (MLD) (Intensity VII),28.2,45.9,macroseismic,0.155777,0.8059,,511.57,inferred,512.0
BIR,Barlad,27.666,46.228,seismic,0.155,0.0,,571.88,inferred,554.0
PND,Buc.-Panduri,26.065,44.426,seismic,0.15418,0.0,,282.37,inferred,272.0
VLM,Valeni de Munte,26.038,45.183,seismic,0.15122,0.0,,347.17,inferred,400.0
SOKOBS_2,Carcaliu,28.15,45.1833,macroseismic,0.149853,0.8059,,199.03,inferred,324.0
OBS_266,SADIC (MLD) (Intensity VII),28.52,46.27,macroseismic,0.146977,0.8059,,639.37,inferred,403.0
CHI3,Chisinau-Iss3,28.856,47.0,seismic,0.14663,0.0,,891.52,inferred,870.0
BRN,Branesti,26.329,44.46,seismic,0.1451,0.0,,245.52,inferred,266.0
SLB,Slobozia,27.35,44.565,seismic,0.14194,0.0,,253.29,inferred,208.0
IAS1,Iasi-Copou,27.576,47.169,seismic,0.13837,0.0,,764.37,inferred,769.0
CAH,Cahul,28.2,45.905,seismic,0.13816,0.0,,511.57,inferred,394.0
VLS,Vaslui,27.733,46.637,seismic,0.13633,0.0,,423.43,inferred,423.0
OBS_268,SILISTRA (BUL) (Intensity VII),27.67,44.17,macroseismic,0.135904,0.8059,,455.22,inferred,455.0
OBS_270,TUTRAKAN (BUL) (Intensity VII),26.617,44.05,macroseismic,0.135741,0.8059,,234.47,inferred,544.0
OBS_262,CORNESTI (MLD) (Intensity VII),28.0,47.36,macroseismic,0.135378,0.8059,,851.56,inferred,820.0
HIST_1,Bacau,26.9,46.567,seismic,0.134694,0.0,,281.84,inferred,282.0
OBS_258,ALFATAR (BUL) (Intensity VII),27.283,43.95,macroseismic,0.133345,0.8059,,335.16,inferred,311.0
OBS_263,GLAVINICA (BUL) (Intensity VII),26.833,43.917,macroseismic,0.133328,0.8059,,341.11,inferred,255.0
OBS_265,RUSE1 (BUL) (Intensity VII),25.971,43.856,macroseismic,0.130629,0.8059,,308.87,inferred,329.0
OBS_269,TERVEL (BUL) (Intensity VII),27.4,43.75,macroseismic,0.129685,0.8059,,346.74,inferred,406.0
OBS_271,VETOVO (BUL) (Intensity VII),26.267,43.7,macroseismic,0.129014,0.8059,,420.2,inferred,420.0
IAS2,Iasi-Centru,27.57,47.16,seismic,0.12878,0.0,,764.37,inferred,590.0
OBS_267,SENOVO (BUL) (Intensity VII),26.36,43.65,macroseismic,0.128418,0.8059,,383.68,inferred,399.0
OBS_259,BENKOVSKI/DOBRICH (BUL) (Intensity VII),27.483,43.6,macroseismic,0.127205,0.8059,,361.12,inferred,321.0
OBS_264,LOZNICA (BUL) (Intensity VII),26.6,43.36,macroseismic,0.124492,0.8059,,435.72,inferred,374.0
OBS_548,TARGU_SECUIESC (ROM) (Intensity VI),26.144,45.998,macroseismic,0.122439,0.8059,,280.06,inferred,312.0
OBS_489,POIAN (ROM) (Intensity VI),26.196,46.103,macroseismic,0.121619,0.8059,,446.45,inferred,446.0
OBS_579,VAMA_BUZAULUI (ROM) (Intensity VI),25.994,45.604,macroseismic,0.121562,0.8059,,462.01,inferred,428.0
OBS_566,TURIA (ROM) (Intensity VI),26.064,46.04,macroseismic,0.120608,0.8059,,292.9,inferred,385.0
FOC2,Focsani-Project SA,27.192,45.693,seismic,0.12031,0.0,,254.73,inferred,252.0
OBS_582,VARLEZI1 (ROM) (Intensity VI),27.85,45.9,macroseismic,0.120223,0.8059,,380.7,inferred,553.0
OBS_361,CUZA_VODA (ROM) (Intensity VI),27.785,45.595,macroseismic,0.120135,0.8059,,576.43,inferred,408.0
OBS_471,OZUN (ROM) (Intensity VI),25.849,45.801,macroseismic,0.119014,0.8059,,244.69,inferred,241.0
OBS_299,BERESTI1 (ROM) (Intensity VI),27.886,46.098,macroseismic,0.118413,0.8059,,604.07,inferred,357.0
OBS_315,BULDIA (ROM) (Intensity VI),25.806,45.675,macroseismic,0.118362,0.8059,,382.45,inferred,319.0
OBS_493,PREJMER (ROM) (Intensity VI),25.773,45.721,macroseismic,0.117797,0.8059,,272.41,inferred,282.0
CRL,Buc.-Carlton,26.102,44.436,seismic,0.11704,0.0,,289.92,inferred,290.0
OBS_580,VANATORI/GALATI (ROM) (Intensity VI),28.017,45.533,macroseismic,0.11571,0.8059,,568.25,inferred,304.0
OBS_306,BOD (ROM) (Intensity VI),25.641,45.764,macroseismic,0.11546,0.8059,,284.12,inferred,316.0
OBS_518,SANPETRU/BRASHOV (ROM) (Intensity VI),25.634,45.709,macroseismic,0.115377,0.8059,,269.06,inferred,277.0
TRM,Turnu Magurele,24.875,43.765,seismic,0.115,0.0,,261.79,inferred,271.0
OBS_310,BRASOV (ROM) (Intensity VI),25.607,45.658,macroseismic,0.114875,0.8059,,322.74,inferred,324.0
DRS,Buc.-Dr.Sarii/Ghencea,26.059,44.419,seismic,0.1148,0.0,,282.37,inferred,219.0
RUS,Russe,26.014,43.864,seismic,0.11473,0.0,,342.7,inferred,293.0
OBS_524,SCUTELNICI (ROM) (Intensity VI),26.917,44.85,macroseismic,0.114442,0.8059,,243.01,inferred,213.0
OBS_294,BATANII_MARI (ROM) (Intensity VI),25.692,46.089,macroseismic,0.114304,0.8059,,346.15,inferred,363.0
OBS_602,ZARNESTI (MLD) (Intensity VI),28.17,46.01,macroseismic,0.114294,0.8059,,389.66,inferred,344.0
CLS,Calarasi,27.33,44.189,seismic,0.11408,0.0,,215.09,inferred,240.0
OBS_511,ROSIORI/BACAU (ROM) (Intensity VI),27.084,46.722,macroseismic,0.113884,0.8059,,570.54,inferred,594.0
OBS_276,ALTA (ROM) (Intensity VI),25.592,45.975,macroseismic,0.11375,0.8059,,446.59,inferred,350.0
OBS_283,AZUGA (ROM) (Intensity VI),25.574,45.445,macroseismic,0.113403,0.8059,,845.97,inferred,625.0
OBS_290,BARAOLT1 (ROM) (Intensity VI),25.609,46.079,macroseismic,0.113173,0.8059,,396.11,inferred,341.0
OBS_280,APATA (ROM) (Intensity VI),25.535,45.952,macroseismic,0.113011,0.8059,,419.09,inferred,355.0
OBS_536,SMARDAN/BRAILA (ROM) (Intensity VI),28.004,45.285,macroseismic,0.112933,0.8059,,185.59,inferred,216.0
OBS_445,MIERCUREA_CIUC1 (ROM) (Intensity VI),25.813,46.357,macroseismic,0.11256,0.8059,,323.54,inferred,365.0
OBS_398,GIURGIULESTI (MLD) (Intensity VI),28.2,45.48,macroseismic,0.112435,0.8059,,343.56,inferred,481.0
OBS_395,GHIMES-FAGET (ROM) (Intensity VI),26.076,46.573,macroseismic,0.112386,0.8059,,900.0,inferred,573.0
OBS_503,RASNOV1 (ROM) (Intensity VI),25.463,45.593,macroseismic,0.112382,0.8059,,423.57,inferred,560.0
OBS_530,SINAIA (ROM) (Intensity VI),25.55,45.352,macroseismic,0.112316,0.8059,,900.0,inferred,538.0
OBS_574,VALEA_MACRISULUI (ROM) (Intensity VI),26.806,44.748,macroseismic,0.112164,0.8059,,220.19,inferred,227.0
OBS_415,ICUSESTI (ROM) (Intensity VI),26.949,46.806,macroseismic,0.11207,0.8059,,487.82,inferred,458.0
OBS_588,VIRGHIS (ROM) (Intensity VI),25.558,46.126,macroseismic,0.112001,0.8059,,544.23,inferred,419.0
OBS_325,CANTEMIR (MLD) (Intensity VI),28.22,46.27,macroseismic,0.111667,0.8059,,675.14,inferred,514.0
OBS_406,GRINDU/TULCEA (ROM) (Intensity VI),28.209,45.404,macroseismic,0.111592,0.8059,,205.95,inferred,195.0
OBS_553,TATARESTI (MLD) (Intensity VI),28.34,46.04,macroseismic,0.111505,0.8059,,655.51,inferred,465.0
OBS_435,LUNCA_DE_JOS (ROM) (Intensity VI),25.977,46.572,macroseismic,0.111394,0.8059,,697.15,inferred,595.0
OBS_386,FRUMOASA3 (ROM) (Intensity VI),25.784,46.422,macroseismic,0.111349,0.8059,,327.18,inferred,325.0
OBS_392,GAVANOS (MLD) (Intensity VI),28.38,45.76,macroseismic,0.111204,0.8059,,644.64,inferred,505.0
OBS_409,HOCENI1 (ROM) (Intensity VI),28.007,46.539,macroseismic,0.111008,0.8059,,476.55,inferred,638.0
OBS_571,VACARENI (ROM) (Intensity VI),28.195,45.325,macroseismic,0.110945,0.8059,,290.86,inferred,571.0
OBS_457,NEGRITESTI (ROM) (Intensity VI),26.646,46.836,macroseismic,0.110924,0.8059,,421.0,inferred,493.0
GRG1,Giurgiu,25.982,43.893,seismic,0.11071,0.0,,239.69,inferred,234.0
OBS_496,RACOS (ROM) (Intensity VI),25.409,46.024,macroseismic,0.110689,0.8059,,552.81,inferred,381.0
OBS_591,VISINESTI (ROM) (Intensity VI),25.578,45.137,macroseismic,0.110466,0.8059,,481.99,inferred,583.0
OBS_513,ROSNOV (ROM) (Intensity VI),26.507,46.838,macroseismic,0.110362,0.8059,,252.69,inferred,271.0
OBS_341,CISMIKIOI (MLD) (Intensity VI),28.38,45.55,macroseismic,0.110339,0.8059,,531.76,inferred,506.0
OBS_484,PIATRA_SOIMULUI (ROM) (Intensity VI),26.442,46.833,macroseismic,0.110162,0.8059,,487.86,inferred,315.0
OBS_287,BAIMACLIA (MLD) (Intensity VI),28.39,46.18,macroseismic,0.110016,0.8059,,574.2,inferred,628.0
OBS_528,SFANTU_GHEORGHE_1 (ROM) (Intensity VI),26.865,44.643,macroseismic,0.109868,0.8059,,232.73,inferred,259.0
OBS_301,BEZDEAD (ROM) (Intensity VI),25.517,45.15,macroseismic,0.109848,0.8059,,546.14,inferred,319.0
OBS_327,CARCALIU (ROM) (Intensity VI),28.167,45.194,macroseismic,0.109719,0.8059,,453.89,inferred,258.0
OBS_433,LUETA (ROM) (Intensity VI),25.489,46.275,macroseismic,0.109569,0.8059,,690.06,inferred,531.0
OBS_410,HOGHIZ1 (ROM) (Intensity VI),25.312,45.984,macroseismic,0.109543,0.8059,,388.45,inferred,415.0
OBS_450,MOROENI (ROM) (Intensity VI),25.432,45.225,macroseismic,0.109527,0.8059,,596.24,inferred,464.0
CVD2,Cernavoda-FP,28.03,44.34,seismic,0.10929,0.0,,294.83,inferred,433.0
CVD,CVD,28.02,44.21,seismic,0.1092,0.0,,376.84,inferred,426.0
OBS_344,CODRUN (ROM) (Intensity VI),26.894,46.952,macroseismic,0.108933,0.8059,,306.86,inferred,358.0
OBS_425,LEOVA (MLD) (Intensity VI),28.26,46.48,macroseismic,0.108918,0.8059,,773.76,inferred,739.0
OBS_411,HOMOROD (ROM) (Intensity VI),25.284,46.042,macroseismic,0.108837,0.8059,,588.57,inferred,351.0
OBS_405,GRECI (ROM) (Intensity VI),28.243,45.193,macroseismic,0.108819,0.8059,,365.02,inferred,459.0
OBS_531,SINCA (ROM) (Intensity VI),25.211,45.782,macroseismic,0.108736,0.8059,,476.48,inferred,378.0
IAS3,Iasi,27.562,47.193,seismic,0.10857,0.0,,771.03,inferred,769.0
OBS_543,SVETLII (MLD) (Intensity VI),28.57,46.02,macroseismic,0.10826,0.8059,,521.55,inferred,597.0
OBS_375,DUDA_EPURENI (ROM) (Intensity VI),28.037,46.708,macroseismic,0.108181,0.8059,,784.83,inferred,781.0
OBS_317,BURUIENESTI (ROM) (Intensity VI),26.976,46.994,macroseismic,0.108098,0.8059,,211.14,inferred,425.0
OBS_560,TOCHILE-RADUCANI (MLD) (Intensity VI),28.25,46.57,macroseismic,0.107954,0.8059,,636.19,inferred,786.0
OBS_515,SACUENI/TARGOVISTE (ROM) (Intensity VI),25.575,44.913,macroseismic,0.107582,0.8059,,255.5,inferred,251.0
OBS_343,CODAESTI1 (ROM) (Intensity VI),27.771,46.876,macroseismic,0.107552,0.8059,,771.57,inferred,607.0
OBS_414,IARGARA (MLD) (Intensity VI),28.43,46.43,macroseismic,0.107456,0.8059,,743.38,inferred,743.0
OBS_577,VALENI/NEAMT (ROM) (Intensity VI),26.699,47.025,macroseismic,0.107246,0.8059,,604.86,inferred,295.0
OBS_546,TARACLIA_1 (MLD) (Intensity VI),28.67,45.9,macroseismic,0.107114,0.8059,,458.34,inferred,458.0
OBS_473,PANGARATI (ROM) (Intensity VI),26.191,46.927,macroseismic,0.107058,0.8059,,900.0,inferred,633.0
OBS_390,GARCINA1 (ROM) (Intensity VI),26.343,46.977,macroseismic,0.106968,0.8059,,651.43,inferred,547.0
OBS_598,VULCANA_PANDELE (ROM) (Intensity VI),25.396,45.019,macroseismic,0.106963,0.8059,,450.83,inferred,380.0
OBS_279,ANINOASA (ROM) (Intensity VI),25.437,44.972,macroseismic,0.106876,0.8059,,336.11,inferred,466.0
OBS_316,BUNESTI (ROM) (Intensity VI),27.97,46.833,macroseismic,0.106838,0.8059,,658.44,inferred,658.0
OBS_364,DAMUC-BICAZ_CHEI (ROM) (Intensity VI),25.901,46.824,macroseismic,0.106753,0.8059,,525.61,inferred,549.0
OBS_303,BICAZ (ROM) (Intensity VI),26.091,46.911,macroseismic,0.10672,0.8059,,900.0,inferred,781.0
OBS_545,TANDAREI1 (ROM) (Intensity VI),27.658,44.64,macroseismic,0.106682,0.8059,,250.41,inferred,245.0
OBS_547,TARGOVISTE1 (ROM) (Intensity VI),25.478,44.915,macroseismic,0.10662,0.8059,,278.53,inferred,271.0
OBS_550,TASCA (ROM) (Intensity VI),26.027,46.897,macroseismic,0.106528,0.8059,,487.02,inferred,620.0
OBS_404,GOTENESTI (ROM) (Intensity VI),25.182,45.238,macroseismic,0.106466,0.8059,,884.16,inferred,425.0
OBS_334,CHIRSOVO (MLD) (Intensity VI),28.65,46.23,macroseismic,0.106296,0.8059,,714.35,inferred,521.0
OBS_419,JIBERT (ROM) (Intensity VI),25.075,46.002,macroseismic,0.106293,0.8059,,504.26,inferred,386.0
OBS_456,NEGRESTI/NEAMT (ROM) (Intensity VI),26.381,47.026,macroseismic,0.106259,0.8059,,354.82,inferred,448.0
OBS_332,CHIOARA (MLD) (Intensity VI),28.23,46.73,macroseismic,0.106117,0.8059,,791.28,inferred,791.0
OBS_504,RAZBOIENII_DE_JOS (ROM) (Intensity VI),26.555,47.073,macroseismic,0.106013,0.8059,,457.02,inferred,580.0
OBS_578,VALENI_DAMBOVITA (ROM) (Intensity VI),25.185,45.165,macroseismic,0.105939,0.8059,,477.79,inferred,322.0
OBS_352,CORTEN(CHIRIUTNEA) (MLD) (Intensity VI),28.75,46.0,macroseismic,0.105923,0.8059,,503.4,inferred,267.0
OBS_363,DAENI1 (ROM) (Intensity VI),28.126,44.847,macroseismic,0.105896,0.8059,,310.34,inferred,420.0
OBS_597,VOINESTI1 (ROM) (Intensity VI),25.25,45.069,macroseismic,0.105844,0.8059,,368.21,inferred,399.0
OBS_346,COMRAT (MLD) (Intensity VI),28.66,46.3,macroseismic,0.105753,0.8059,,365.37,inferred,678.0
OBS_426,LERESTI (ROM) (Intensity VI),25.067,45.334,macroseismic,0.10567,0.8059,,402.43,inferred,402.0
OBS_532,SINESTI/IASI (ROM) (Intensity VI),27.188,47.114,macroseismic,0.105614,0.8059,,425.37,inferred,436.0
OBS_464,NUCET (ROM) (Intensity VI),25.546,44.779,macroseismic,0.105527,0.8059,,255.36,inferred,264.0
OBS_380,FAGARAS (ROM) (Intensity VI),24.972,45.843,macroseismic,0.105451,0.8059,,263.43,inferred,274.0
OBS_338,CIOBANI (ROM) (Intensity VI),27.976,44.713,macroseismic,0.105435,0.8059,,290.06,inferred,391.0
OBS_391,GARLICIU (ROM) (Intensity VI),28.093,44.778,macroseismic,0.105315,0.8059,,395.45,inferred,449.0
OBS_275,ALBESTII_DE_MUSCEL3 (ROM) (Intensity VI),25.041,45.326,macroseismic,0.105309,0.8059,,552.92,inferred,367.0
OBS_520,SARATENI (MLD) (Intensity VI),28.47,46.61,macroseismic,0.105213,0.8059,,362.63,inferred,542.0
OBS_314,BUGHEA_DE_SUS1 (ROM) (Intensity VI),25.033,45.301,macroseismic,0.105072,0.8059,,454.44,inferred,454.0
OBS_424,KOGALNICENI (ROM) (Intensity VI),26.839,47.155,macroseismic,0.105024,0.8059,,620.39,inferred,531.0
OBS_491,POPESTI/IASI (ROM) (Intensity VI),27.25,47.15,macroseismic,0.104863,0.8059,,669.26,inferred,715.0
OBS_593,VLADENI1 (ROM) (Intensity VI),27.847,44.604,macroseismic,0.104835,0.8059,,264.88,inferred,297.0
OBS_336,CIADIR-LUNGA (MLD) (Intensity VI),28.83,46.06,macroseismic,0.10478,0.8059,,436.04,inferred,557.0
OBS_447,MIROSLOVESTI (ROM) (Intensity VI),26.649,47.155,macroseismic,0.104773,0.8059,,581.87,inferred,597.0
OBS_412,HORIA/TULCEA (ROM) (Intensity VI),28.451,45.027,macroseismic,0.104695,0.8059,,273.38,inferred,412.0
OBS_452,MOVILA (ROM) (Intensity VI),27.716,44.538,macroseismic,0.104682,0.8059,,264.98,inferred,218.0
OBS_459,NEMTENI (MLD) (Intensity VI),28.12,46.91,macroseismic,0.104582,0.8059,,816.45,inferred,808.0
OBS_476,PASTRAVENI (ROM) (Intensity VI),26.57,47.16,macroseismic,0.104517,0.8059,,267.38,inferred,306.0
OBS_481,PETRICANI (ROM) (Intensity VI),26.45,47.167,macroseismic,0.104076,0.8059,,454.72,inferred,282.0
OBS_400,GODENI (ROM) (Intensity VI),24.984,45.228,macroseismic,0.104063,0.8059,,454.91,inferred,371.0
OBS_418,IZVOARELE (ROM) (Intensity VI),28.535,45.038,macroseismic,0.103984,0.8059,,465.72,inferred,486.0
OBS_379,FACAENI (ROM) (Intensity VI),27.893,44.558,macroseismic,0.103851,0.8059,,301.2,inferred,353.0
OBS_407,GRINTIES (ROM) (Intensity VI),25.886,47.036,macroseismic,0.103555,0.8059,,900.0,inferred,624.0
OBS_451,MOTCA (ROM) (Intensity VI),26.587,47.24,macroseismic,0.103209,0.8059,,611.71,inferred,609.0
FET,Fetesti,27.859,44.413,seismic,0.10316,0.0,,422.32,inferred,237.0
OBS_337,CIMISLIA (MLD) (Intensity VI),28.784,46.52,macroseismic,0.102835,0.8059,,605.4,inferred,801.0
OBS_542,SUVOROVO/ODES. (UKR) (Intensity VI),28.99,45.58,macroseismic,0.102678,0.8059,,250.11,inferred,307.0
OBS_490,POIENITA (ROM) (Intensity VI),24.924,45.113,macroseismic,0.102652,0.8059,,275.14,inferred,501.0
OBS_565,TULCEA (ROM) (Intensity VI),28.811,45.172,macroseismic,0.102401,0.8059,,417.41,inferred,374.0
OBS_298,BERCENI (ROM) (Intensity VI),26.189,44.305,macroseismic,0.102395,0.8059,,253.91,inferred,235.0
OBS_295,BELCESTI (ROM) (Intensity VI),27.086,47.309,macroseismic,0.102391,0.8059,,334.48,inferred,638.0
OBS_535,SLAVA_CERCHEZA (ROM) (Intensity VI),28.546,44.88,macroseismic,0.102276,0.8059,,373.28,inferred,343.0
OBS_599,VULTURU/CONSTANTA (ROM) (Intensity VI),28.267,44.65,macroseismic,0.102274,0.8059,,403.45,inferred,273.0
OBS_480,PETRESTI/DAMBOVITA (ROM) (Intensity VI),25.339,44.645,macroseismic,0.102132,0.8059,,256.94,inferred,229.0
OBS_373,DRAGUSENI/TARGU_NEAMT (ROM) (Intensity VI),26.491,47.295,macroseismic,0.102116,0.8059,,463.98,inferred,411.0
OBS_446,MIHAIL_KOGALNICEANU1 (ROM) (Intensity VI),28.733,45.036,macroseismic,0.102054,0.8059,,257.99,inferred,258.0
OBS_441,MANASTIREA (ROM) (Intensity VI),26.901,44.215,macroseismic,0.102005,0.8059,,216.82,inferred,275.0
OBS_293,BASARABEASCA (MLD) (Intensity VI),28.98,46.33,macroseismic,0.102004,0.8059,,511.87,inferred,297.0
OBS_500,RADU_NEGRU (ROM) (Intensity VI),27.368,44.267,macroseismic,0.102,0.8059,,204.26,inferred,204.0
OBS_492,POPRICANI (ROM) (Intensity VI),27.511,47.288,macroseismic,0.10196,0.8059,,803.76,inferred,758.0
OBS_540,STELNICA (ROM) (Intensity VI),27.878,44.415,macroseismic,0.101935,0.8059,,422.32,inferred,371.0
OBS_463,NISPORENI (MLD) (Intensity VI),28.18,47.08,macroseismic,0.101884,0.8059,,794.97,inferred,772.0
OBS_583,VASILE_ALECSANDRI (ROM) (Intensity VI),28.504,44.797,macroseismic,0.101841,0.8059,,470.73,inferred,471.0
OBS_601,ZADUNAIEVKA (UKR) (Intensity VI),29.11,45.83,macroseismic,0.101761,0.8059,,693.86,inferred,602.0
OBS_453,MOVILENI/IASI (ROM) (Intensity VI),27.351,47.328,macroseismic,0.101728,0.8059,,571.64,inferred,286.0
OBS_339,CIOCANESTI (ROM) (Intensity VI),27.102,44.207,macroseismic,0.101673,0.8059,,249.71,inferred,222.0
OBS_554,TATARUSI/IASI (ROM) (Intensity VI),26.589,47.348,macroseismic,0.101493,0.8059,,656.31,inferred,634.0
OBS_388,GALDAU (ROM) (Intensity VI),27.672,44.309,macroseismic,0.101487,0.8059,,324.34,inferred,360.0
OBS_322,CALINESTI/PITESTI (ROM) (Intensity VI),25.039,44.829,macroseismic,0.101483,0.8059,,448.63,inferred,325.0
OBS_408,GROPNITA1 (ROM) (Intensity VI),27.266,47.355,macroseismic,0.101459,0.8059,,638.63,inferred,521.0
OBS_558,TIGANASI/IASI (ROM) (Intensity VI),27.465,47.331,macroseismic,0.101426,0.8059,,602.43,inferred,602.0
OBS_360,CRUCEA/CONSTANTA (ROM) (Intensity VI),28.234,44.533,macroseismic,0.10115,0.8059,,356.81,inferred,357.0
OBS_342,COARNELE_CAPREI (ROM) (Intensity VI),27.108,47.39,macroseismic,0.101099,0.8059,,370.78,inferred,566.0
OBS_448,MODELU (ROM) (Intensity VI),27.38,44.2,macroseismic,0.100955,0.8059,,210.02,inferred,202.0
INC1,Buc.-INCERC,26.161,44.442,seismic,0.10093,0.0,,199.13,inferred,256.0
OBS_510,ROSETI (ROM) (Intensity VI),27.447,44.211,macroseismic,0.100917,0.8059,,234.07,inferred,253.0
OBS_369,DOLNA (MLD) (Intensity VI),28.27,47.12,macroseismic,0.100823,0.8059,,712.19,inferred,865.0
OBS_549,TARUTINO (UKR) (Intensity VI),29.151,46.186,macroseismic,0.100802,0.8059,,365.95,inferred,734.0
OBS_509,ROATA_DE_JOS1 (ROM) (Intensity VI),25.543,44.411,macroseismic,0.100725,0.8059,,348.84,inferred,317.0
OBS_474,PANTELIMON1 (ROM) (Intensity VI),28.329,44.545,macroseismic,0.100605,0.8059,,306.51,inferred,350.0
OBS_501,RASCA1 (ROM) (Intensity VI),26.236,47.358,macroseismic,0.100498,0.8059,,569.15,inferred,406.0
OBS_600,VYSOCHANSKE (UKR) (Intensity VI),29.045,46.486,macroseismic,0.100497,0.8059,,807.87,inferred,403.0
OBS_313,BUDEASA (ROM) (Intensity VI),24.818,44.93,macroseismic,0.100298,0.8059,,429.61,inferred,538.0
OBS_333,CHIRNOGI (ROM) (Intensity VI),26.578,44.111,macroseismic,0.100295,0.8059,,248.34,inferred,230.0
OBS_365,DELENI (ROM) (Intensity VI),26.873,47.455,macroseismic,0.100161,0.8059,,753.27,inferred,764.0
OBS_594,VLADENI2 (ROM) (Intensity VI),27.332,47.435,macroseismic,0.100151,0.8059,,263.49,inferred,263.0
OBS_556,TEPES_VODA (ROM) (Intensity VI),28.238,44.446,macroseismic,0.100105,0.8059,,327.45,inferred,255.0
SOKOBS_3,Cernavoda,28.0336,44.3381,macroseismic,0.100045,0.8059,,294.83,inferred,433.0
OBS_432,LOZOVA (MLD) (Intensity VI),28.38,47.13,macroseismic,0.100027,0.8059,,772.13,inferred,869.0
OBS_533,SIPOTE1 (ROM) (Intensity VI),27.1,47.467,macroseismic,0.099949,0.8059,,499.81,inferred,500.0
OBS_285,BAIA (ROM) (Intensity VI),28.675,44.726,macroseismic,0.099719,0.8059,,371.54,inferred,264.0
OBS_345,COM.DOLHESTI (ROM) (Intensity VI),26.518,47.461,macroseismic,0.099698,0.8059,,678.45,inferred,667.0
OBS_286,BAIA/SUCEAVA (ROM) (Intensity VI),26.217,47.42,macroseismic,0.09959,0.8059,,271.94,inferred,301.0
OBS_465,OLTINA (ROM) (Intensity VI),27.677,44.173,macroseismic,0.099576,0.8059,,455.22,inferred,521.0
OBS_428,LETCA_NOUA1 (ROM) (Intensity VI),25.742,44.234,macroseismic,0.099539,0.8059,,246.68,inferred,285.0
OBS_439,MALIUC (ROM) (Intensity VI),29.113,45.176,macroseismic,0.099495,0.8059,,183.79,inferred,211.0
GLT2,Galati,28.058,45.43,seismic,0.09946,0.0,,288.16,inferred,400.0
OBS_563,TRIFESTI/IASI (ROM) (Intensity VI),27.503,47.46,macroseismic,0.099455,0.8059,,397.54,inferred,413.0
OBS_330,CEAMURLIA_DE_JOS (ROM) (Intensity VI),28.727,44.742,macroseismic,0.099438,0.8059,,254.29,inferred,281.0
OBS_494,PRUNDU/GIURGIU (ROM) (Intensity VI),26.232,44.09,macroseismic,0.099365,0.8059,,315.41,inferred,437.0
OBS_423,KILIYA (UKR) (Intensity VI),29.267,45.45,macroseismic,0.099328,0.8059,,203.44,inferred,213.0
OBS_383,FALTICENI (ROM) (Intensity VI),26.302,47.46,macroseismic,0.099269,0.8059,,650.2,inferred,556.0
SDR,Surduc,26.377,45.489,seismic,0.09922,0.0,,759.53,inferred,658.0
OBS_482,PETRIVKA/TARUT. (UKR) (Intensity VI),29.17,46.506,macroseismic,0.099218,0.8059,,627.1,inferred,543.0
OBS_396,GHIMPATI1 (ROM) (Intensity VI),25.78,44.192,macroseismic,0.09917,0.8059,,286.98,inferred,295.0
OBS_320,CALARAS (MLD) (Intensity VI),28.31,47.25,macroseismic,0.099031,0.8059,,881.75,inferred,707.0
OBS_430,LITENI (ROM) (Intensity VI),26.528,47.52,macroseismic,0.098892,0.8059,,390.58,inferred,673.0
OBS_444,MERENII_DE_SUS (ROM) (Intensity VI),25.62,44.229,macroseismic,0.098888,0.8059,,287.05,inferred,292.0
OBS_351,CORNU_LUNCII1 (ROM) (Intensity VI),26.153,47.463,macroseismic,0.098843,0.8059,,278.59,inferred,263.0
OBS_355,COTMEANA/ARGES (ROM) (Intensity VI),24.619,44.966,macroseismic,0.098742,0.8059,,433.84,inferred,361.0
OBS_305,BIVOLARI (ROM) (Intensity VI),27.446,47.521,macroseismic,0.09873,0.8059,,251.09,inferred,293.0
OBS_506,RAZOARELE (ROM) (Intensity VI),27.679,44.104,macroseismic,0.098656,0.8059,,462.4,inferred,294.0
OBS_449,MORARESTI (ROM) (Intensity VI),24.562,45.007,macroseismic,0.098481,0.8059,,319.17,inferred,325.0
OBS_281,ARTSIZ (UKR) (Intensity VI),29.43,45.98,macroseismic,0.098414,0.8059,,699.55,inferred,277.0
OBS_335,CHISINAU (MLD) (Intensity VI),28.84,47.02,macroseismic,0.098098,0.8059,,704.48,inferred,783.0
OBS_278,ANDRIESENI1 (ROM) (Intensity VI),27.241,47.59,macroseismic,0.098094,0.8059,,792.76,inferred,810.0
OBS_348,COPALAU (ROM) (Intensity VI),26.848,47.602,macroseismic,0.098067,0.8059,,728.99,inferred,774.0
OBS_551,TATARASTII_DE_SUS (ROM) (Intensity VI),25.122,44.41,macroseismic,0.098035,0.8059,,282.4,inferred,284.0
OBS_568,UDESTI (ROM) (Intensity VI),26.416,47.576,macroseismic,0.097964,0.8059,,623.64,inferred,673.0
OBS_427,LESNOIE (UKR) (Intensity VI),29.35,46.47,macroseismic,0.097793,0.8059,,343.85,inferred,311.0
OBS_422,KAYNARDZHA (BUL) (Intensity VI),27.507,43.993,macroseismic,0.097749,0.8059,,443.65,inferred,434.0
OBS_307,BOSANCI (ROM) (Intensity VI),26.315,47.588,macroseismic,0.097625,0.8059,,694.12,inferred,652.0
OBS_587,VERESTI (ROM) (Intensity VI),26.442,47.606,macroseismic,0.097619,0.8059,,289.18,inferred,484.0
OBS_387,GALATENI (ROM) (Intensity VI),25.363,44.22,macroseismic,0.097458,0.8059,,266.65,inferred,252.0
OBS_272,ADAMCLISI (ROM) (Intensity VI),27.951,44.085,macroseismic,0.09736,0.8059,,325.45,inferred,504.0
OBS_382,FALESTI (MLD) (Intensity VI),27.71,47.58,macroseismic,0.097352,0.8059,,567.64,inferred,727.0
OBS_350,CORNI (ROM) (Intensity VI),26.574,47.645,macroseismic,0.097295,0.8059,,404.2,inferred,403.0
OBS_416,IPOTESTI (ROM) (Intensity VI),26.288,47.622,macroseismic,0.097148,0.8059,,625.17,inferred,592.0
OBS_385,FRATESTI1 (ROM) (Intensity VI),25.97,43.97,macroseismic,0.097064,0.8059,,279.86,inferred,280.0
OBS_359,CRISAN (ROM) (Intensity VI),29.39,45.174,macroseismic,0.09702,0.8059,,181.29,inferred,201.0
OBS_561,TOPANA/GEAMANA (ROM) (Intensity VI),24.501,44.829,macroseismic,0.096886,0.8059,,316.16,inferred,253.0
OBS_274,ALBESTI (ROM) (Intensity VI),27.072,47.691,macroseismic,0.096881,0.8059,,638.49,inferred,776.0
OBS_552,TATARBUNARI (UKR) (Intensity VI),29.62,45.84,macroseismic,0.096694,0.8059,,358.05,inferred,435.0
OBS_595,VLADESTI/VALCEA (ROM) (Intensity VI),24.287,45.124,macroseismic,0.096654,0.8059,,744.73,inferred,390.0
OBS_517,SALAGENI (ROM) (Intensity VI),26.38,47.679,macroseismic,0.096609,0.8059,,550.0,inferred,599.0
OBS_487,POARTA_ALBA (ROM) (Intensity VI),28.397,44.208,macroseismic,0.096559,0.8059,,434.53,inferred,370.0
OBS_273,AGAFTON (ROM) (Intensity VI),26.593,47.712,macroseismic,0.09647,0.8059,,711.22,inferred,732.0
OBS_328,CAUSANI (MLD) (Intensity VI),29.41,46.64,macroseismic,0.096461,0.8059,,844.36,inferred,619.0
OBS_519,SARATA (UKR) (Intensity VI),29.66,46.03,macroseismic,0.096261,0.8059,,528.99,inferred,711.0
OBS_454,MURFATLAR(BASARABI) (ROM) (Intensity VI),28.41,44.174,macroseismic,0.096143,0.8059,,394.96,inferred,291.0
OBS_318,C.A.ROSETTI (ROM) (Intensity VI),29.566,45.299,macroseismic,0.096068,0.8059,,239.98,inferred,240.0
OBS_340,CIOCARLIA_DE_SUS (ROM) (Intensity VI),28.333,44.117,macroseismic,0.095955,0.8059,,327.16,inferred,330.0
OBS_564,TRUSESTI1 (ROM) (Intensity VI),27.007,47.77,macroseismic,0.095903,0.8059,,793.62,inferred,282.0
OBS_573,VADUL_LUI_VODA (MLD) (Intensity VI),29.08,47.09,macroseismic,0.09589,0.8059,,899.77,inferred,900.0
OBS_541,SUVOROVO (MLD) (Intensity VI),29.663,45.51,macroseismic,0.095884,0.8059,,600.0,inferred,600.0
OBS_442,MARACENII_VALE (ROM) (Intensity VI),24.8,44.4,macroseismic,0.095852,0.8059,,288.46,inferred,288.0
OBS_319,CALAMARASTI_DEAL (ROM) (Intensity VI),26.603,47.765,macroseismic,0.095833,0.8059,,597.81,inferred,598.0
OBS_403,GORBANESTI (ROM) (Intensity VI),26.86,47.778,macroseismic,0.095806,0.8059,,607.31,inferred,403.0
OBS_603,ZAVET (BUL) (Intensity VI),26.667,43.767,macroseismic,0.095723,0.8059,,278.43,inferred,278.0
OBS_485,PLAKHTIEVKA (UKR) (Intensity VI),29.72,46.1,macroseismic,0.09566,0.8059,,511.39,inferred,289.0
OBS_522,SCORNICESTI1 (ROM) (Intensity VI),24.548,44.589,macroseismic,0.095621,0.8059,,377.0,inferred,286.0
OBS_537,STEFANESTI/BOTOSANI (ROM) (Intensity VI),27.201,47.79,macroseismic,0.095567,0.8059,,285.69,inferred,611.0
OBS_323,CALINESTI/TELEORMAN (ROM) (Intensity VI),25.245,44.087,macroseismic,0.09546,0.8059,,343.36,inferred,269.0
OBS_367,DOBROTESTI1 (ROM) (Intensity VI),24.885,44.273,macroseismic,0.095277,0.8059,,244.43,inferred,261.0
OBS_372,DRAGOESTI1 (ROM) (Intensity VI),24.292,44.826,macroseismic,0.095237,0.8059,,432.2,inferred,433.0
OBS_393,GEAMANA1 (ROM) (Intensity VI),24.304,44.805,macroseismic,0.095211,0.8059,,415.49,inferred,443.0
OBS_417,ISPERIH (BUL) (Intensity VI),26.83,43.71,macroseismic,0.095065,0.8059,,299.84,inferred,194.0
OBS_534,SIRINEASA1 (ROM) (Intensity VI),24.185,44.94,macroseismic,0.094999,0.8059,,432.17,inferred,545.0
OBS_401,GOGOSARI1 (ROM) (Intensity VI),25.712,43.859,macroseismic,0.094958,0.8059,,288.31,inferred,273.0
OBS_368,DOBROTESTI2 (ROM) (Intensity VI),24.883,44.233,macroseismic,0.094914,0.8059,,273.11,inferred,244.0
OBS_467,ORHEI (MLD) (Intensity VI),28.83,47.38,macroseismic,0.094906,0.8059,,508.37,inferred,900.0
OBS_357,CRAMPOAIA (ROM) (Intensity VI),24.746,44.306,macroseismic,0.094732,0.8059,,255.18,inferred,296.0
OBS_347,CONSTANTA1 (ROM) (Intensity VI),28.637,44.147,macroseismic,0.094678,0.8059,,388.42,inferred,423.0
OBS_289,BALTI (MLD) (Intensity VI),27.92,47.76,macroseismic,0.094675,0.8059,,315.13,inferred,469.0
OBS_460,NICOLAE_TITULESCU (ROM) (Intensity VI),24.777,44.275,macroseismic,0.094659,0.8059,,360.85,inferred,231.0
OBS_384,FOLESTII_DE_SUS (ROM) (Intensity VI),24.058,45.092,macroseismic,0.094654,0.8059,,602.51,inferred,501.0
OBS_523,SCUNDU (ROM) (Intensity VI),24.187,44.841,macroseismic,0.094527,0.8059,,402.01,inferred,247.0
OBS_539,STEJARU (ROM) (Intensity VI),24.883,44.183,macroseismic,0.094476,0.8059,,284.58,inferred,327.0
OBS_512,ROSIORI_DE_VEDE1 (ROM) (Intensity VI),24.994,44.111,macroseismic,0.094427,0.8059,,230.28,inferred,293.0
OBS_584,VEDEA (ROM) (Intensity VI),25.785,43.781,macroseismic,0.094335,0.8059,,192.69,inferred,213.0
OBS_562,TOPRAISAR (ROM) (Intensity VI),28.454,44.012,macroseismic,0.094332,0.8059,,255.87,inferred,230.0
OBS_437,MALDARESTI (ROM) (Intensity VI),23.998,45.122,macroseismic,0.094299,0.8059,,399.37,inferred,341.0
OBS_461,NIKOLAEVKA_NOVOROSISKAYA (UKR) (Intensity VI),29.91,46.13,macroseismic,0.094069,0.8059,,420.97,inferred,488.0
OBS_502,RASCAETI (MLD) (Intensity VI),29.78,46.57,macroseismic,0.093931,0.8059,,706.23,inferred,837.0
OBS_420,KAOLINOVO (BUL) (Intensity VI),27.134,43.616,macroseismic,0.093827,0.8059,,393.84,inferred,270.0
OBS_358,CRETENI (ROM) (Intensity VI),24.183,44.71,macroseismic,0.093803,0.8059,,327.84,inferred,460.0
OBS_292,BARCANESTI/BREBENI (ROM) (Intensity VI),24.548,44.306,macroseismic,0.093548,0.8059,,435.59,inferred,399.0
OBS_538,STEFANESTI/VALCEA (ROM) (Intensity VI),24.218,44.618,macroseismic,0.093523,0.8059,,430.19,inferred,412.0
OBS_514,RUNCU_MARE (ROM) (Intensity VI),24.269,44.556,macroseismic,0.093493,0.8059,,281.94,inferred,283.0
OBS_458,NEGRU_VODA (ROM) (Intensity VI),28.213,43.818,macroseismic,0.093451,0.8059,,282.21,inferred,271.0
OBS_508,RISCANI (MLD) (Intensity VI),27.56,47.95,macroseismic,0.093326,0.8059,,382.16,inferred,482.0
OBS_421,KARDAM (BUL) (Intensity VI),28.108,43.754,macroseismic,0.093188,0.8059,,350.03,inferred,325.0
OBS_284,BACALESTI (ROM) (Intensity VI),24.817,44.066,macroseismic,0.093129,0.8059,,240.12,inferred,226.0
OBS_477,PECINEAGA (ROM) (Intensity VI),28.495,43.895,macroseismic,0.093056,0.8059,,263.76,inferred,274.0
OBS_505,RAZGRAD1 (BUL) (Intensity VI),26.512,43.53,macroseismic,0.092908,0.8059,,396.36,inferred,366.0
OBS_394,GENERAL_TOSHEVO (BUL) (Intensity VI),28.033,43.7,macroseismic,0.092893,0.8059,,297.69,inferred,298.0
OBS_282,AUGUST-23 (ROM) (Intensity VI),28.581,43.917,macroseismic,0.092881,0.8059,,324.04,inferred,308.0
OBS_499,RADOMIRESTI1 (ROM) (Intensity VI),24.68,44.117,macroseismic,0.092836,0.8059,,252.52,inferred,227.0
OBS_521,SARBESTI (ROM) (Intensity VI),23.793,45.117,macroseismic,0.092766,0.8059,,507.89,inferred,461.0
OBS_378,DVE_MOGILI (BUL) (Intensity VI),25.867,43.6,macroseismic,0.092648,0.8059,,443.13,inferred,443.0
OBS_370,DOROBANTU/SEACA (ROM) (Intensity VI),24.824,43.992,macroseismic,0.092548,0.8059,,293.76,inferred,306.0
OBS_371,DRAGANESTI/OLT1 (ROM) (Intensity VI),24.52,44.17,macroseismic,0.092383,0.8059,,460.59,inferred,259.0
OBS_575,VALEA_MARE/BALCESTI (ROM) (Intensity VI),24.0,44.668,macroseismic,0.092339,0.8059,,452.53,inferred,453.0
OBS_557,TETOIU (ROM) (Intensity VI),23.901,44.774,macroseismic,0.092186,0.8059,,433.96,inferred,441.0
OBS_381,FALCOIU (ROM) (Intensity VI),24.376,44.23,macroseismic,0.092015,0.8059,,212.95,inferred,217.0
OBS_469,OSCICA_DE_SUS (ROM) (Intensity VI),24.315,44.254,macroseismic,0.091835,0.8059,,356.63,inferred,257.0
OBS_466,OPAKA (BUL) (Intensity VI),26.16,43.45,macroseismic,0.091683,0.8059,,423.94,inferred,677.0
OBS_483,PIATRA/OLT3 (ROM) (Intensity VI),24.148,44.371,macroseismic,0.091614,0.8059,,256.17,inferred,444.0
OBS_470,OSICA_DE_JOS (ROM) (Intensity VI),24.28,44.244,macroseismic,0.091573,0.8059,,360.69,inferred,316.0
OBS_567,TURNU_MAGURELE2 (ROM) (Intensity VI),25.0,43.767,macroseismic,0.091432,0.8059,,390.34,inferred,390.0
HIST_5,Bucharest-Magurele,26.03,44.347,seismic,0.091429,0.0,,227.45,inferred,267.0
ADJ,Adjud,27.181,46.095,seismic,0.09142,0.0,,260.46,inferred,258.0
BUC,BUC,26.02,44.21,seismic,0.0914,0.0,,222.1,inferred,250.0
OBS_431,LOGRESTI (ROM) (Intensity VI),23.705,44.896,macroseismic,0.091387,0.8059,,463.88,inferred,314.0
OBS_544,SVISHTOV (BUL) (Intensity VI),25.35,43.61,macroseismic,0.091311,0.8059,,433.88,inferred,562.0
OBS_377,DURAN_KULAK (BUL) (Intensity VI),28.517,43.7,macroseismic,0.091242,0.8059,,293.87,inferred,310.0
OBS_300,BERLESTI (ROM) (Intensity VI),23.667,44.917,macroseismic,0.091217,0.8059,,423.95,inferred,291.0
BAA,Baia-Tulcea,28.679,44.723,seismic,0.0911,0.0,,371.54,inferred,264.0
OBS_326,CARACAL1 (ROM) (Intensity VI),24.347,44.114,macroseismic,0.091068,0.8059,,260.75,inferred,307.0
OBS_434,LUNCA/MAGURELE (ROM) (Intensity VI),24.769,43.836,macroseismic,0.091037,0.8059,,258.58,inferred,259.0
OBS_516,SAELELE1 (ROM) (Intensity VI),24.724,43.857,macroseismic,0.091006,0.8059,,486.63,inferred,254.0
OBS_302,BIALA (BUL) (Intensity VI),25.73,43.45,macroseismic,0.090875,0.8059,,433.66,inferred,483.0
OBS_296,BELENE (BUL) (Intensity VI),25.117,43.646,macroseismic,0.090844,0.8059,,223.92,inferred,261.0
TLC2,Tulcea-Prim.,28.804,45.176,seismic,0.09082,0.0,,417.41,inferred,443.0
OBS_297,BELGOROD_DNESTROVSKIY (UKR) (Intensity VI),30.35,46.2,macroseismic,0.090779,0.8059,,600.0,inferred,445.0
OBS_438,MALFESTI (ROM) (Intensity VI),23.753,44.651,macroseismic,0.090684,0.8059,,471.64,inferred,286.0
OBS_569,UNGURENI/CRAIOVA (ROM) (Intensity VI),23.943,44.401,macroseismic,0.090591,0.8059,,244.98,inferred,238.0
OBS_596,VLADIA (ROM) (Intensity VI),24.4,44.0,macroseismic,0.090554,0.8059,,263.72,inferred,264.0
OBS_462,NIKOPOL (BUL) (Intensity VI),24.9,43.7,macroseismic,0.090489,0.8059,,576.22,inferred,576.0
OBS_507,REDEA/CARACAL1 (ROM) (Intensity VI),24.299,44.055,macroseismic,0.090428,0.8059,,215.99,inferred,222.0
OBS_475,PARAU_BOIA (ROM) (Intensity VI),23.536,44.926,macroseismic,0.090413,0.8059,,390.27,inferred,419.0
OBS_559,TIRGU_CARBUNESTI1 (ROM) (Intensity VI),23.507,44.959,macroseismic,0.090343,0.8059,,306.79,inferred,360.0
OBS_498,RADOMIR (ROM) (Intensity VI),24.164,44.123,macroseismic,0.09018,0.8059,,229.82,inferred,215.0
OBS_311,BRASTAVATU (ROM) (Intensity VI),24.409,43.907,macroseismic,0.089954,0.8059,,259.7,inferred,297.0
OBS_589,VISINA_NOUA1 (ROM) (Intensity VI),24.414,43.87,macroseismic,0.089721,0.8059,,283.35,inferred,234.0
OBS_429,LEU1 (ROM) (Intensity VI),24.0,44.188,macroseismic,0.089717,0.8059,,229.32,inferred,214.0
OBS_353,COSOVENI1 (ROM) (Intensity VI),23.933,44.25,macroseismic,0.089712,0.8059,,187.63,inferred,232.0
OBS_590,VISINA_NOUA2 (ROM) (Intensity VI),24.377,43.886,macroseismic,0.089664,0.8059,,255.33,inferred,263.0
OBS_331,CELARU1 (ROM) (Intensity VI),24.113,44.052,macroseismic,0.089485,0.8059,,252.03,inferred,264.0
OBS_349,CORABIA (ROM) (Intensity VI),24.501,43.78,macroseismic,0.089473,0.8059,,295.9,inferred,219.0
OBS_354,COSOVENI2 (ROM) (Intensity VI),23.878,44.253,macroseismic,0.089435,0.8059,,262.22,inferred,276.0
OBS_356,COTOFENI_DIN_FATA (ROM) (Intensity VI),23.657,44.459,macroseismic,0.089253,0.8059,,470.39,inferred,363.0
OBS_555,TATOMIRESTI (ROM) (Intensity VI),23.598,44.516,macroseismic,0.089175,0.8059,,434.92,inferred,441.0
OBS_572,VADASTRITA (ROM) (Intensity VI),24.33,43.841,macroseismic,0.089151,0.8059,,273.61,inferred,298.0
OBS_277,AMARASTII_DE_JOS (ROM) (Intensity VI),24.166,43.955,macroseismic,0.08914,0.8059,,182.16,inferred,221.0
OBS_488,PODARI (ROM) (Intensity VI),23.783,44.25,macroseismic,0.088918,0.8059,,332.67,inferred,324.0
OBS_570,URZICA_MARE (ROM) (Intensity VI),23.594,44.015,macroseismic,0.088526,0.8059,,235.08,inferred,226.0
OBS_497,RACOVITA/DOLJ (ROM) (Intensity VI),23.434,44.52,macroseismic,0.088526,0.8059,,455.44,inferred,350.0
OBS_376,DUMBRAVA_DE_JOS (ROM) (Intensity VI),23.164,44.524,macroseismic,0.088526,0.8059,,397.93,inferred,412.0
OBS_436,MACESU_DE_SUS (ROM) (Intensity VI),23.7,43.915,macroseismic,0.088526,0.8059,,285.98,inferred,330.0
OBS_366,DOBRIBOR (ROM) (Intensity VI),23.168,44.119,macroseismic,0.088526,0.8059,,244.4,inferred,226.0
OBS_402,GOGOSU (ROM) (Intensity VI),23.377,44.425,macroseismic,0.088526,0.8059,,333.12,inferred,262.0
OBS_413,IANCA_NOUA (ROM) (Intensity VI),24.212,43.821,macroseismic,0.088526,0.8059,,242.4,inferred,286.0
OBS_495,PUNGHINA (ROM) (Intensity VI),22.935,44.282,macroseismic,0.088526,0.8059,,231.41,inferred,277.0
OBS_443,MARACHINELE/DOLJ (ROM) (Intensity VI),23.512,44.176,macroseismic,0.088526,0.8059,,296.21,inferred,278.0
OBS_585,VELA1 (ROM) (Intensity VI),23.421,44.28,macroseismic,0.088526,0.8059,,283.24,inferred,399.0
OBS_324,CALOPAR (ROM) (Intensity VI),23.767,44.167,macroseismic,0.088526,0.8059,,228.0,inferred,228.0
OBS_526,SECU (ROM) (Intensity VI),23.292,44.475,macroseismic,0.088526,0.8059,,343.56,inferred,335.0
OBS_308,BOTOSESTI_PAIA (ROM) (Intensity VI),23.257,44.405,macroseismic,0.088526,0.8059,,307.44,inferred,298.0
OBS_329,CAZANESTI/MEHEDINTI1 (ROM) (Intensity VI),22.968,44.708,macroseismic,0.088526,0.8059,,517.6,inferred,502.0
OBS_440,MALOVAT (ROM) (Intensity VI),22.731,44.704,macroseismic,0.088526,0.8059,,518.98,inferred,519.0
OBS_478,PERISOR (ROM) (Intensity VI),23.49,44.143,macroseismic,0.088526,0.8059,,252.66,inferred,279.0
OBS_374,DRANIC (ROM) (Intensity VI),23.845,44.055,macroseismic,0.088526,0.8059,,282.87,inferred,282.0
OBS_389,GANGIORA (ROM) (Intensity VI),23.856,43.902,macroseismic,0.088526,0.8059,,262.67,inferred,321.0
OBS_576,VALEA_STANCIULUI (ROM) (Intensity VI),23.872,43.986,macroseismic,0.088526,0.8059,,336.5,inferred,389.0
OBS_321,CALARASI/DOLJ (ROM) (Intensity VI),24.047,43.819,macroseismic,0.088526,0.8059,,241.14,inferred,309.0
OBS_362,DABULENI (ROM) (Intensity VI),24.092,43.8,macroseismic,0.088526,0.8059,,341.06,inferred,341.0
OBS_397,GIUBEGA (ROM) (Intensity VI),23.411,44.122,macroseismic,0.088526,0.8059,,263.39,inferred,285.0
OBS_312,BREZNITA-MOTRU (ROM) (Intensity VI),23.22,44.57,macroseismic,0.088526,0.8059,,626.38,inferred,287.0
OBS_399,GOANTA (ROM) (Intensity VI),22.96,44.233,macroseismic,0.088526,0.8059,,414.93,inferred,395.0
OBS_472,PADEA (ROM) (Intensity VI),23.868,44.02,macroseismic,0.088526,0.8059,,373.4,inferred,393.0
OBS_455,MURGILESTI (ROM) (Intensity VI),23.112,44.747,macroseismic,0.088526,0.8059,,354.75,inferred,387.0
OBS_586,VERBITA1 (ROM) (Intensity VI),23.17,44.248,macroseismic,0.088526,0.8059,,381.25,inferred,232.0
OBS_527,SEGARCEA1 (ROM) (Intensity VI),23.746,44.094,macroseismic,0.088526,0.8059,,416.75,inferred,423.0
OBS_291,BARCA1 (ROM) (Intensity VI),23.629,43.982,macroseismic,0.088526,0.8059,,250.56,inferred,278.0
OBS_309,BRABOVA (ROM) (Intensity VI),23.456,44.371,macroseismic,0.088526,0.8059,,443.98,inferred,318.0
OBS_479,PESTEANA_DE_JOS (ROM) (Intensity VI),23.268,44.83,macroseismic,0.088526,0.8059,,507.74,inferred,508.0
OBS_592,VLADAIA (ROM) (Intensity VI),23.028,44.357,macroseismic,0.088526,0.8059,,399.85,inferred,298.0
OBS_304,BIRZA (ROM) (Intensity VI),23.939,44.001,macroseismic,0.088526,0.8059,,340.93,inferred,324.0
OBS_529,SILISTEA_CRUCII (ROM) (Intensity VI),23.475,44.045,macroseismic,0.088526,0.8059,,215.98,inferred,257.0
OBS_468,ORODEL1 (ROM) (Intensity VI),23.243,44.244,macroseismic,0.088526,0.8059,,340.44,inferred,371.0
OBS_486,PLENITA1 (ROM) (Intensity VI),23.189,44.221,macroseismic,0.088526,0.8059,,262.09,inferred,406.0
OBS_581,VANJULET (ROM) (Intensity VI),22.792,44.441,macroseismic,0.088526,0.8059,,243.66,inferred,250.0
OBS_525,SEACA_DE_CAMP/DOLJ (ROM) (Intensity VI),23.217,43.934,macroseismic,0.088526,0.8059,,272.21,inferred,274.0
OBS_288,BALACITA (ROM) (Intensity VI),23.13,44.383,macroseismic,0.088526,0.8059,,255.06,inferred,325.0
MLT,Buc.-Militari,26.028,44.431,seismic,0.08564,0.0,,234.25,inferred,196.0
MTR,Buc.-Metrou IMGB-1,26.144,44.367,seismic,0.08442,0.0,,216.77,inferred,203.0
OBS_619,GOTESTI (MLD) (Intensity VI),28.17,46.14,macroseismic,0.083158,0.8059,,477.42,inferred,534.0
PLS,Ploiesti-Vest,26.02,44.93,seismic,0.08307,0.0,,277.67,inferred,267.0
CHI4,Chisinau-Iss4,28.874,47.061,seismic,0.08263,0.0,,464.98,inferred,694.0
BRL1,Braila,27.966,45.269,seismic,0.08124,0.0,,262.45,inferred,262.0
MET,Buc.-Metalurgiei/Berceni,26.119,44.376,seismic,0.07647,0.0,,216.77,inferred,244.0
OBS_632,VALEA_PERJEI (MLD) (Intensity VI),28.93,46.03,macroseismic,0.075937,0.8059,,570.98,inferred,571.0
OBS_609,CARACUI (MLD) (Intensity VI),28.54,46.7,macroseismic,0.075899,0.8059,,814.0,inferred,638.0
HIST_3,Bucharest Armeneasca,26.09,44.4,seismic,0.075408,0.0,,241.47,inferred,228.0
OBS_612,COSTIUJENI (MLD) (Intensity VI),28.83,46.95,macroseismic,0.07238,0.8059,,673.84,inferred,889.0
OBS_611,CELACUL-NOU (MLD) (Intensity VI),27.83,47.48,macroseismic,0.071994,0.8059,,704.75,inferred,416.0
OBS_630,SLIVO_POLE1 (BUL) (Intensity VI),26.2,43.95,macroseismic,0.071368,0.8059,,270.46,inferred,255.0
TLC1,Tulcea-Sc.,28.8,45.167,seismic,0.07086,0.0,,417.41,inferred,417.0
OBS_634,VILKOVO (UKR) (Intensity VI),29.6,45.39,macroseismic,0.070397,0.8059,,207.26,inferred,212.0
OBS_616,ERMOCLIA (MLD) (Intensity VI),29.51,46.58,macroseismic,0.070298,0.8059,,822.26,inferred,629.0
OBS_635,VOLONTIROVCA (MLD) (Intensity VI),29.61,46.43,macroseismic,0.070153,0.8059,,646.07,inferred,769.0
OBS_621,LAZOVSC (MLD) (Intensity VI),28.14,47.64,macroseismic,0.069838,0.8059,,316.6,inferred,885.0
OBS_606,BENDER (MLD) (Intensity VI),29.47,46.82,macroseismic,0.069616,0.8059,,724.96,inferred,266.0
OBS_607,BUTUCENI (MLD) (Intensity VI),28.97,47.3,macroseismic,0.069479,0.8059,,899.99,inferred,900.0
BLA,Buc.-Balta Alba,26.169,44.413,seismic,0.06907,0.0,,231.11,inferred,270.0
TIT,Buc.-Titulescu,26.08,44.452,seismic,0.06882,0.0,,222.57,inferred,253.0
OBS_608,CAPLANI (MLD) (Intensity VI),29.87,46.39,macroseismic,0.068748,0.8059,,786.93,inferred,785.0
OBS_610,CAR_KALOIAN (BUL) (Intensity VI),26.25,43.61,macroseismic,0.068487,0.8059,,385.69,inferred,493.0
OBS_613,DNESTROVSC (MLD) (Intensity VI),29.91,46.62,macroseismic,0.067996,0.8059,,289.01,inferred,466.0
OBS_615,DROCHIA (MLD) (Intensity VI),27.81,48.04,macroseismic,0.067382,0.8059,,380.45,inferred,451.0
MLR,Muntele Rosu,25.944,45.492,seismic,0.06696,0.0,,880.31,inferred,874.0
OBS_614,DRALFA/TYRGOVISHTE (BUL) (Intensity VI),26.43,43.34,macroseismic,0.066593,0.8059,,226.86,inferred,289.0
OBS_624,ORESH (BUL) (Intensity VI),25.23,43.58,macroseismic,0.066418,0.8059,,459.13,inferred,520.0
OBS_637,VYLCHI_DOL (BUL) (Intensity VI),27.55,43.33,macroseismic,0.066216,0.8059,,404.41,inferred,362.0
OBS_617,FRUNZIVKA (UKR) (Intensity VI),29.76,47.33,macroseismic,0.066167,0.8059,,859.17,inferred,245.0
OBS_626,POLSKI_TRUMBESH (BUL) (Intensity VI),25.65,43.382,macroseismic,0.065989,0.8059,,253.52,inferred,271.0
OBS_622,LOZEN/VEL.TURNOVO (BUL) (Intensity VI),25.88,43.33,macroseismic,0.065989,0.8059,,317.6,inferred,471.0
OBS_605,BALCHIK (BUL) (Intensity VI),28.16,43.41,macroseismic,0.065825,0.8059,,600.0,inferred,623.0
OBS_629,SHABLA (BUL) (Intensity VI),28.533,43.533,macroseismic,0.06578,0.8059,,266.86,inferred,267.0
OBS_618,GABROVO (BUL) (Intensity VI),25.326,42.862,macroseismic,0.064854,0.8059,,555.01,inferred,421.0
OBS_620,KOZLODUY (BUL) (Intensity VI),23.732,43.782,macroseismic,0.064854,0.8059,,296.01,inferred,255.0
OBS_625,PAVLIKENI (BUL) (Intensity VI),25.322,43.243,macroseismic,0.064854,0.8059,,436.87,inferred,440.0
OBS_633,VELIKO_TURNOVO (BUL) (Intensity VI),25.652,43.078,macroseismic,0.064854,0.8059,,445.56,inferred,492.0
OBS_604,APRILCI (BUL) (Intensity VI),24.93,42.85,macroseismic,0.064854,0.8059,,900.0,inferred,608.0
OBS_631,TRASTENIK (BUL) (Intensity VI),24.472,43.521,macroseismic,0.064854,0.8059,,326.53,inferred,317.0
OBS_623,NOVO_SELO (BUL) (Intensity VI),22.783,44.159,macroseismic,0.064854,0.8059,,261.42,inferred,296.0
OBS_636,VYLCHIDRYM (BUL) (Intensity VI),23.445,43.696,macroseismic,0.064854,0.8059,,309.26,inferred,338.0
OBS_628,SEVLIEVO (BUL) (Intensity VI),25.116,43.024,macroseismic,0.064854,0.8059,,326.75,inferred,280.0
OBS_627,PORDIM (BUL) (Intensity VI),24.85,43.383,macroseismic,0.064854,0.8059,,314.71,inferred,253.0
CRV,Craiova,23.798,44.321,seismic,0.06368,0.0,,281.01,inferred,298.0
BOZ,Bozveli,27.479,43.105,seismic,0.06143,0.0,,502.99,inferred,328.0
OBS_789,OCLAND_HARGHITA (ROM) (Intensity V),25.425,46.162,macroseismic,0.058959,0.8059,,553.6,inferred,415.0
OBS_680,CAPALNITA (ROM) (Intensity V),25.514,46.359,macroseismic,0.058456,0.8059,,544.18,inferred,400.0
OBS_819,RUCAR (ROM) (Intensity V),25.176,45.39,macroseismic,0.05762,0.8059,,507.39,inferred,372.0
OBS_867,ULIES (ROM) (Intensity V),25.242,46.211,macroseismic,0.057493,0.8059,,522.97,inferred,339.0
OBS_796,ORDORHEIU_SECUIESC (ROM) (Intensity V),25.301,46.313,macroseismic,0.057399,0.8059,,470.49,inferred,413.0
OBS_860,TICUSU_VECHI (ROM) (Intensity V),25.1,45.928,macroseismic,0.057369,0.8059,,339.17,inferred,365.0
OBS_773,MUGENI (ROM) (Intensity V),25.218,46.259,macroseismic,0.057137,0.8059,,383.19,inferred,427.0
OBS_759,MANDRA (ROM) (Intensity V),25.047,45.821,macroseismic,0.057132,0.8059,,240.98,inferred,285.0
OBS_691,DEALU (ROM) (Intensity V),25.304,46.396,macroseismic,0.056992,0.8059,,889.45,inferred,889.0
OBS_706,GHEORGHENI (ROM) (Intensity V),25.614,46.719,macroseismic,0.056769,0.8059,,489.75,inferred,309.0
OBS_639,ALBESTII_DE_MUSCEL4 (ROM) (Intensity V),25.063,45.354,macroseismic,0.056745,0.8059,,538.43,inferred,554.0
OBS_755,LUPENI/CORUND (ROM) (Intensity V),25.224,46.379,macroseismic,0.056623,0.8059,,410.88,inferred,383.0
OBS_814,RECEA (ROM) (Intensity V),24.944,45.732,macroseismic,0.056459,0.8059,,354.07,inferred,355.0
OBS_874,VARZAG (ROM) (Intensity V),25.345,46.537,macroseismic,0.056444,0.8059,,316.59,inferred,441.0
OBS_727,JOSENI (ROM) (Intensity V),25.501,46.701,macroseismic,0.056333,0.8059,,288.36,inferred,288.0
OBS_670,BREAZA (ROM) (Intensity V),24.882,45.706,macroseismic,0.056045,0.8059,,455.53,inferred,377.0
OBS_864,TULGHES (ROM) (Intensity V),25.757,46.95,macroseismic,0.055773,0.8059,,566.09,inferred,455.0
OBS_660,BODOGAIA (ROM) (Intensity V),24.996,46.274,macroseismic,0.05576,0.8059,,361.82,inferred,470.0
OBS_815,REMETEA/HARGHITA (ROM) (Intensity V),25.453,46.793,macroseismic,0.055567,0.8059,,226.92,inferred,340.0
OBS_871,VANATORI/MURES (ROM) (Intensity V),24.926,46.242,macroseismic,0.055469,0.8059,,526.99,inferred,457.0
OBS_686,CINCU (ROM) (Intensity V),24.803,45.916,macroseismic,0.055429,0.8059,,501.39,inferred,394.0
OBS_688,CORBU/HARGHITA (ROM) (Intensity V),25.705,46.987,macroseismic,0.055327,0.8059,,561.99,inferred,606.0
OBS_821,SACEL/MURES (ROM) (Intensity V),24.98,46.38,macroseismic,0.055286,0.8059,,620.21,inferred,470.0
OBS_809,PRAID (ROM) (Intensity V),25.127,46.553,macroseismic,0.055272,0.8059,,525.62,inferred,430.0
OBS_794,OLTET/BRUIU (ROM) (Intensity V),24.762,45.803,macroseismic,0.055263,0.8059,,362.67,inferred,381.0
OBS_843,SOIMUSU_MARE (ROM) (Intensity V),24.926,46.347,macroseismic,0.055121,0.8059,,585.94,inferred,475.0
OBS_837,SIGHISOARA2 (ROM) (Intensity V),24.857,46.23,macroseismic,0.055119,0.8059,,447.86,inferred,452.0
OBS_664,BORSEC (ROM) (Intensity V),25.56,46.964,macroseismic,0.054956,0.8059,,424.11,inferred,492.0
OBS_765,MERGHINDEAL (ROM) (Intensity V),24.73,45.965,macroseismic,0.054934,0.8059,,381.94,inferred,382.0
OBS_673,BRUIU (ROM) (Intensity V),24.7,45.876,macroseismic,0.054847,0.8059,,454.58,inferred,264.0
OBS_866,UCEA_DE_SUS (ROM) (Intensity V),24.684,45.753,macroseismic,0.054803,0.8059,,393.83,inferred,353.0
OBS_836,SIGHISOARA1 (ROM) (Intensity V),24.792,46.217,macroseismic,0.054798,0.8059,,638.04,inferred,496.0
OBS_715,HINCESTI(KOTOVSK) (MLD) (Intensity V),28.59,46.83,macroseismic,0.05465,0.8059,,853.93,inferred,270.0
OBS_643,ARPASU_DE_JOS1 (ROM) (Intensity V),24.618,45.778,macroseismic,0.054413,0.8059,,368.15,inferred,341.0
OBS_862,TOPLITA (ROM) (Intensity V),25.353,46.924,macroseismic,0.05441,0.8059,,414.44,inferred,291.0
OBS_644,ARPASU_DE_JOS2 (ROM) (Intensity V),24.614,45.742,macroseismic,0.054393,0.8059,,370.83,inferred,361.0
OBS_825,SANGEORGIU_DE_PADURE (ROM) (Intensity V),24.841,46.433,macroseismic,0.054387,0.8059,,598.43,inferred,563.0
OBS_878,VETCA (ROM) (Intensity V),24.784,46.356,macroseismic,0.05436,0.8059,,450.46,inferred,318.0
OBS_638,AGNITA (ROM) (Intensity V),24.617,45.973,macroseismic,0.054282,0.8059,,262.72,inferred,288.0
OBS_662,BORCA (ROM) (Intensity V),25.787,47.18,macroseismic,0.054254,0.8059,,542.73,inferred,532.0
OBS_683,CHIRPAR (ROM) (Intensity V),24.598,45.894,macroseismic,0.054249,0.8059,,366.33,inferred,386.0
OBS_685,CICANESTI (ROM) (Intensity V),24.605,45.225,macroseismic,0.053682,0.8059,,436.03,inferred,352.0
OBS_672,BROSTENI (ROM) (Intensity V),25.696,47.235,macroseismic,0.053646,0.8059,,583.96,inferred,584.0
OBS_816,REZENI (MLD) (Intensity V),28.9,46.77,macroseismic,0.053557,0.8059,,840.56,inferred,841.0
OBS_808,PORUMBACU_DE_JOS (ROM) (Intensity V),24.457,45.761,macroseismic,0.053523,0.8059,,298.07,inferred,312.0
OBS_640,ALTINA (ROM) (Intensity V),24.464,45.93,macroseismic,0.053499,0.8059,,339.87,inferred,340.0
OBS_823,SALATRUCU1 (ROM) (Intensity V),24.517,45.313,macroseismic,0.053409,0.8059,,735.33,inferred,545.0
OBS_646,AVRIG (ROM) (Intensity V),24.379,45.725,macroseismic,0.05311,0.8059,,290.51,inferred,311.0
OBS_758,MALINI (ROM) (Intensity V),25.993,47.418,macroseismic,0.053093,0.8059,,660.27,inferred,675.0
OBS_849,STRASENI (MLD) (Intensity V),28.61,47.14,macroseismic,0.052851,0.8059,,884.33,inferred,884.0
OBS_865,TURNU_ROSU_TALMACIU (ROM) (Intensity V),24.305,45.663,macroseismic,0.052713,0.8059,,577.84,inferred,513.0
OBS_822,SALATRUCEL (ROM) (Intensity V),24.392,45.25,macroseismic,0.052644,0.8059,,574.47,inferred,312.0
OBS_677,CAINENI_MARI (ROM) (Intensity V),24.303,45.493,macroseismic,0.052573,0.8059,,801.66,inferred,572.0
OBS_854,TALMACIU (ROM) (Intensity V),24.263,45.67,macroseismic,0.052508,0.8059,,422.08,inferred,422.0
OBS_681,CAPU_CAMPULUI (ROM) (Intensity V),25.982,47.506,macroseismic,0.052492,0.8059,,551.66,inferred,565.0
OBS_678,CALIMANESTI (ROM) (Intensity V),24.343,45.241,macroseismic,0.052386,0.8059,,553.83,inferred,530.0
OBS_711,GURA_VAII (ROM) (Intensity V),24.365,45.186,macroseismic,0.052378,0.8059,,766.6,inferred,448.0
OBS_671,BREZOI (ROM) (Intensity V),24.247,45.339,macroseismic,0.052095,0.8059,,900.0,inferred,603.0
OBS_648,BAILE_OLANESTI1 (ROM) (Intensity V),24.242,45.204,macroseismic,0.051834,0.8059,,801.66,inferred,598.0
OBS_676,CACICA (ROM) (Intensity V),25.901,47.639,macroseismic,0.051541,0.8059,,623.62,inferred,571.0
OBS_857,TELENESTI (MLD) (Intensity V),28.37,47.5,macroseismic,0.051496,0.8059,,888.43,inferred,888.0
OBS_687,COMANESTI (ROM) (Intensity V),25.988,47.67,macroseismic,0.051478,0.8059,,585.01,inferred,544.0
OBS_768,MITOCU_DRAGOMIRNEI (ROM) (Intensity V),26.246,47.73,macroseismic,0.051405,0.8059,,642.91,inferred,450.0
OBS_674,BUCECEA/BOTOSANI (ROM) (Intensity V),26.438,47.772,macroseismic,0.051297,0.8059,,281.51,inferred,692.0
OBS_805,POIANA/SUCEAVA (ROM) (Intensity V),26.275,47.796,macroseismic,0.051027,0.8059,,691.86,inferred,669.0
OBS_847,STEFAN-VODA(SUVOROVO) (MLD) (Intensity V),29.662,46.514,macroseismic,0.051006,0.8059,,447.66,inferred,263.0
OBS_882,VOINEASA (ROM) (Intensity V),23.963,45.414,macroseismic,0.050915,0.8059,,863.19,inferred,601.0
OBS_777,NICSENI (ROM) (Intensity V),26.636,47.859,macroseismic,0.050855,0.8059,,568.41,inferred,653.0
OBS_767,MILISAUTI/SUCEAVA (ROM) (Intensity V),26.001,47.783,macroseismic,0.050829,0.8059,,529.98,inferred,570.0
OBS_839,SLIT/RADAUTI (ROM) (Intensity V),25.849,47.755,macroseismic,0.050794,0.8059,,535.39,inferred,517.0
OBS_667,BRAESTI/BOTOSANI1 (ROM) (Intensity V),26.458,47.86,macroseismic,0.050768,0.8059,,460.52,inferred,689.0
OBS_873,VARFUL_CAMPULUI (ROM) (Intensity V),26.33,47.85,macroseismic,0.050746,0.8059,,682.59,inferred,685.0
OBS_869,UNGURENI/BOTOSANI1 (ROM) (Intensity V),26.794,47.883,macroseismic,0.050745,0.8059,,771.46,inferred,457.0
OBS_717,HOREZU (ROM) (Intensity V),24.007,45.17,macroseismic,0.050737,0.8059,,504.06,inferred,550.0
OBS_710,GRIGOREOPOL (MLD) (Intensity V),29.3,47.15,macroseismic,0.050479,0.8059,,318.5,inferred,643.0
OBS_872,VARATIC (MLD) (Intensity V),27.26,47.92,macroseismic,0.050449,0.8059,,298.3,inferred,846.0
OBS_851,SUCEVITA (ROM) (Intensity V),25.716,47.784,macroseismic,0.050442,0.8059,,536.43,inferred,627.0
OBS_666,BOTOSANITA_MICA (ROM) (Intensity V),26.133,47.888,macroseismic,0.050367,0.8059,,544.8,inferred,413.0
OBS_841,SLOBOZIA (MLD) (Intensity V),29.7,46.73,macroseismic,0.050365,0.8059,,450.14,inferred,450.0
OBS_650,BALCAUTI (ROM) (Intensity V),26.074,47.892,macroseismic,0.050289,0.8059,,422.27,inferred,570.0
OBS_870,UNGURENI/BOTOSANI2 (ROM) (Intensity V),26.759,47.964,macroseismic,0.050254,0.8059,,789.12,inferred,580.0
OBS_718,HORODNIC1 (ROM) (Intensity V),25.827,47.858,macroseismic,0.050196,0.8059,,443.6,inferred,423.0
OBS_850,STROESTI (ROM) (Intensity V),23.911,45.085,macroseismic,0.050188,0.8059,,574.26,inferred,340.0
OBS_828,SENDRICENI (ROM) (Intensity V),26.33,47.953,macroseismic,0.05015,0.8059,,629.95,inferred,438.0
OBS_761,MANOLEASA (ROM) (Intensity V),27.047,47.992,macroseismic,0.050085,0.8059,,766.62,inferred,715.0
BRS1,Brasov,25.652,46.656,seismic,0.04998,0.0,,900.0,inferred,642.0
OBS_645,AVRAMENI (ROM) (Intensity V),26.946,48.015,macroseismic,0.049964,0.8059,,838.34,inferred,234.0
OBS_763,MATEESTI (ROM) (Intensity V),23.878,45.035,macroseismic,0.049963,0.8059,,498.04,inferred,360.0
CNT,Constanta,28.65,44.181,seismic,0.04989,0.0,,400.6,inferred,396.0
OBS_699,DUMBRAVITA (ROM) (Intensity V),26.425,48.019,macroseismic,0.049834,0.8059,,406.87,inferred,432.0
OBS_714,HAVARNA1 (ROM) (Intensity V),26.647,48.074,macroseismic,0.049608,0.8059,,563.91,inferred,785.0
OBS_799,PALANCA (MLD) (Intensity V),30.09,46.41,macroseismic,0.049476,0.8059,,395.39,inferred,330.0
OBS_668,BRATAUSANI (MLD) (Intensity V),27.4,48.08,macroseismic,0.049455,0.8059,,354.33,inferred,467.0
OBS_720,HUDESTI1 (ROM) (Intensity V),26.511,48.147,macroseismic,0.049179,0.8059,,758.6,inferred,797.0
PRV,Provadia,27.472,43.131,seismic,0.04916,0.0,,487.7,inferred,331.0
OBS_702,EDINET (MLD) (Intensity V),27.3,48.17,macroseismic,0.049016,0.8059,,782.89,inferred,783.0
OBS_656,BELEAEVKA (UKR) (Intensity V),30.21,46.48,macroseismic,0.048943,0.8059,,201.71,inferred,363.0
OBS_817,REZINA (MLD) (Intensity V),28.96,47.75,macroseismic,0.048932,0.8059,,900.0,inferred,900.0
OBS_876,VELYKA_MIHAILOVKA (UKR) (Intensity V),29.85,47.08,macroseismic,0.04893,0.8059,,696.19,inferred,860.0
OBS_782,NOVI_PAZAR (BUL) (Intensity V),27.2,43.35,macroseismic,0.048832,0.8059,,442.28,inferred,431.0
OBS_813,RAZDEL'NAYA (UKR) (Intensity V),30.08,46.85,macroseismic,0.048746,0.8059,,395.36,inferred,334.0
OBS_818,RIBNITA (MLD) (Intensity V),29.01,47.77,macroseismic,0.048741,0.8059,,900.0,inferred,552.0
OBS_786,NOVOSELITSA (UKR) (Intensity V),26.28,48.22,macroseismic,0.048704,0.8059,,388.21,inferred,233.0
OBS_807,POPOVO (BUL) (Intensity V),26.21,43.33,macroseismic,0.048614,0.8059,,455.78,inferred,424.0
OBS_750,LIPCANI (MLD) (Intensity V),26.81,48.27,macroseismic,0.048594,0.8059,,626.47,inferred,835.0
OBS_742,KRASNYIE_OKNY (UKR) (Intensity V),29.46,47.54,macroseismic,0.048581,0.8059,,900.0,inferred,393.0
OBS_698,DONDISANI (MLD) (Intensity V),27.6,48.24,macroseismic,0.048492,0.8059,,651.47,inferred,415.0
OBS_888,ZATOKA (UKR) (Intensity V),30.45,46.06,macroseismic,0.048433,0.8059,,600.0,inferred,183.0
OBS_797,OVIDIOPOLI (UKR) (Intensity V),30.44,46.25,macroseismic,0.048366,0.8059,,600.0,inferred,633.0
OBS_679,CAMENCA (MLD) (Intensity V),28.7,48.03,macroseismic,0.048209,0.8059,,821.27,inferred,821.0
OBS_756,LUPENI/HUNEDOARA (ROM) (Intensity V),23.235,45.358,macroseismic,0.048122,0.8059,,566.82,inferred,364.0
PIT,Pitesti-Nord,24.883,44.868,seismic,0.0481,0.0,,347.2,inferred,231.0
OBS_682,CHERNOVTSY (UKR) (Intensity V),25.94,48.3,macroseismic,0.048089,0.8059,,729.63,inferred,717.0
OBS_732,KAVARNA (BUL) (Intensity V),28.333,43.433,macroseismic,0.048076,0.8059,,317.61,inferred,318.0
OBS_802,PETROS (ROM) (Intensity V),23.187,45.482,macroseismic,0.048063,0.8059,,576.67,inferred,732.0
OBS_716,HODARAUTI (MLD) (Intensity V),27.33,48.37,macroseismic,0.047994,0.8059,,724.87,inferred,725.0
OBS_693,DEVNYA (BUL) (Intensity V),27.587,43.215,macroseismic,0.047919,0.8059,,394.35,inferred,459.0
OBS_886,YAMPIL/VIN. (UKR) (Intensity V),28.283,48.242,macroseismic,0.047852,0.8059,,590.58,inferred,677.0
OBS_875,VELIKODOLINSKOIE (UKR) (Intensity V),30.58,46.35,macroseismic,0.047813,0.8059,,364.39,inferred,320.0
OBS_845,STANESTI (ROM) (Intensity V),23.198,45.113,macroseismic,0.047721,0.8059,,384.0,inferred,386.0
OBS_641,ANTONOVO (BUL) (Intensity V),26.165,43.15,macroseismic,0.047704,0.8059,,416.15,inferred,373.0
OBS_741,KOTOVSK (UKR) (Intensity V),29.54,47.74,macroseismic,0.04769,0.8059,,636.99,inferred,664.0
OBS_733,KEL'MENTSI (UKR) (Intensity V),26.83,48.47,macroseismic,0.04763,0.8059,,759.96,inferred,760.0
OBS_844,SOKYRIANY (UKR) (Intensity V),27.411,48.448,macroseismic,0.047592,0.8059,,624.39,inferred,809.0
OBS_795,OMURTAG (BUL) (Intensity V),26.417,43.1,macroseismic,0.04759,0.8059,,461.55,inferred,497.0
OBS_723,IL'ICHEVSK (UKR) (Intensity V),30.66,46.31,macroseismic,0.047584,0.8059,,593.57,inferred,522.0
OBS_749,LEVSKI (BUL) (Intensity V),25.13,43.36,macroseismic,0.047525,0.8059,,326.13,inferred,268.0
OBS_803,PLEVEN1 (BUL) (Intensity V),24.615,43.415,macroseismic,0.047512,0.8059,,398.28,inferred,300.0
OBS_697,DOMASNEA (ROM) (Intensity V),22.338,45.082,macroseismic,0.047512,0.8059,,575.94,inferred,774.0
OBS_729,KAMENETS_PODOLSKIY (UKR) (Intensity V),26.567,48.667,macroseismic,0.047512,0.8059,,617.64,inferred,618.0
OBS_651,BALTA (ROM) (Intensity V),22.635,44.89,macroseismic,0.047512,0.8059,,413.0,inferred,385.0
OBS_684,CHIUDNOV (UKR) (Intensity V),28.11,50.06,macroseismic,0.047512,0.8059,,420.53,inferred,378.0
OBS_780,NIKOPOL (UKR) (Intensity V),34.39,47.57,macroseismic,0.047512,0.8059,,810.88,inferred,443.0
OBS_859,TETIEV (UKR) (Intensity V),29.68,49.37,macroseismic,0.047512,0.8059,,537.9,inferred,670.0
OBS_858,TEPLIK (UKR) (Intensity V),29.75,48.67,macroseismic,0.047512,0.8059,,621.73,inferred,536.0
OBS_712,GYULA (HUN) (Intensity V),21.275,46.644,macroseismic,0.047512,0.8059,,197.86,inferred,216.0
OBS_719,HOTIN (UKR) (Intensity V),26.5,48.51,macroseismic,0.047512,0.8059,,830.41,inferred,848.0
OBS_751,LIPOVETS (UKR) (Intensity V),29.05,49.23,macroseismic,0.047512,0.8059,,321.7,inferred,495.0
OBS_649,BALA1 (ROM) (Intensity V),22.833,44.882,macroseismic,0.047512,0.8059,,332.4,inferred,397.0
OBS_745,KRYZHOPIL (UKR) (Intensity V),28.862,48.384,macroseismic,0.047512,0.8059,,420.5,inferred,606.0
OBS_832,SHKORPILOVCI (BUL) (Intensity V),27.87,42.96,macroseismic,0.047512,0.8059,,411.49,inferred,418.0
OBS_734,KHMELNIK (UKR) (Intensity V),27.95,49.56,macroseismic,0.047512,0.8059,,490.75,inferred,520.0
OBS_861,TOPLET1 (ROM) (Intensity V),22.393,44.8,macroseismic,0.047512,0.8059,,900.0,inferred,567.0
OBS_775,NEGRUSA/CIRESU (ROM) (Intensity V),22.513,44.822,macroseismic,0.047512,0.8059,,526.23,inferred,756.0
OBS_689,CORNEA (ROM) (Intensity V),22.321,45.039,macroseismic,0.047512,0.8059,,591.58,inferred,512.0
OBS_868,UMAN' (UKR) (Intensity V),30.23,48.75,macroseismic,0.047512,0.8059,,474.31,inferred,497.0
OBS_654,BARANOVKA (UKR) (Intensity V),27.67,50.3,macroseismic,0.047512,0.8059,,250.17,inferred,250.0
OBS_753,LIUBASHIVKA/ODES. (UKR) (Intensity V),30.259,47.833,macroseismic,0.047512,0.8059,,343.39,inferred,292.0
OBS_748,LETICHEV (UKR) (Intensity V),27.62,49.38,macroseismic,0.047512,0.8059,,633.38,inferred,402.0
OBS_820,RUZHYN (UKR) (Intensity V),29.234,49.72,macroseismic,0.047512,0.8059,,463.89,inferred,320.0
OBS_801,PERVOMAISK/NIK. (UKR) (Intensity V),30.86,48.04,macroseismic,0.047512,0.8059,,806.56,inferred,559.0
OBS_834,SHYRIAIEVE (UKR) (Intensity V),30.195,47.381,macroseismic,0.047512,0.8059,,437.03,inferred,304.0
OBS_769,MOGILEV_PODOLSKIY (UKR) (Intensity V),27.81,48.45,macroseismic,0.047512,0.8059,,581.19,inferred,900.0
OBS_884,VRADIEVKA (UKR) (Intensity V),30.6,47.86,macroseismic,0.047512,0.8059,,357.7,inferred,387.0
OBS_790,ODESSA (UKR) (Intensity V),30.733,46.467,macroseismic,0.047512,0.8059,,265.4,inferred,265.0
OBS_704,GABARE (BUL) (Intensity V),23.917,43.317,macroseismic,0.047512,0.8059,,223.99,inferred,453.0
OBS_793,OLISHANKA (UKR) (Intensity V),30.88,48.23,macroseismic,0.047512,0.8059,,433.48,inferred,743.0
OBS_690,DALGOPOL (BUL) (Intensity V),27.341,43.046,macroseismic,0.047512,0.8059,,428.49,inferred,395.0
OBS_675,BUNOAICA (ROM) (Intensity V),22.543,44.799,macroseismic,0.047512,0.8059,,610.66,inferred,430.0
OBS_856,TARASHCHA (UKR) (Intensity V),30.51,49.56,macroseismic,0.047512,0.8059,,639.86,inferred,507.0
OBS_647,BAIA_DE_ARAMA (ROM) (Intensity V),22.81,44.999,macroseismic,0.047512,0.8059,,401.12,inferred,482.0
OBS_721,IABLANITA1 (ROM) (Intensity V),22.313,44.95,macroseismic,0.047512,0.8059,,659.83,inferred,492.0
OBS_728,KALOFER (BUL) (Intensity V),24.983,42.617,macroseismic,0.047512,0.8059,,583.6,inferred,696.0
OBS_887,ZASTAVNA (UKR) (Intensity V),25.85,48.52,macroseismic,0.047512,0.8059,,318.56,inferred,524.0
OBS_655,BASHTANKA (UKR) (Intensity V),32.44,47.4,macroseismic,0.047512,0.8059,,298.07,inferred,386.0
OBS_891,ZHMERYNKA (UKR) (Intensity V),28.12,49.04,macroseismic,0.047512,0.8059,,636.76,inferred,629.0
OBS_731,KATERINOPIL (UKR) (Intensity V),30.97,48.95,macroseismic,0.047512,0.8059,,476.63,inferred,424.0
OBS_811,RADUJEVAC (SRB) (Intensity V),22.67,44.267,macroseismic,0.047512,0.8059,,240.31,inferred,240.0
OBS_853,TALINOE (UKR) (Intensity V),30.71,48.89,macroseismic,0.047512,0.8059,,796.81,inferred,521.0
OBS_746,KULA (BUL) (Intensity V),22.512,43.883,macroseismic,0.047512,0.8059,,430.65,inferred,468.0
OBS_725,IVANIVKA/ODES. (UKR) (Intensity V),30.47,46.97,macroseismic,0.047512,0.8059,,900.0,inferred,900.0
OBS_705,GAYVORON (UKR) (Intensity V),29.87,48.34,macroseismic,0.047512,0.8059,,339.57,inferred,616.0
OBS_747,LADYZHIN (UKR) (Intensity V),29.25,48.68,macroseismic,0.047512,0.8059,,764.25,inferred,614.0
OBS_658,BEREZNEHUVATE (UKR) (Intensity V),32.85,47.312,macroseismic,0.047512,0.8059,,266.91,inferred,616.0
OBS_757,LYASKOVETS (BUL) (Intensity V),25.709,43.107,macroseismic,0.047512,0.8059,,666.83,inferred,588.0
OBS_766,MEZDRA (BUL) (Intensity V),23.7,43.15,macroseismic,0.047512,0.8059,,655.16,inferred,404.0
OBS_738,KOINARE (BUL) (Intensity V),24.133,43.35,macroseismic,0.047512,0.8059,,239.5,inferred,238.0
OBS_806,PONOARELE (ROM) (Intensity V),22.768,44.98,macroseismic,0.047512,0.8059,,721.18,inferred,389.0
OBS_800,PANAGURISHTE (BUL) (Intensity V),24.183,42.5,macroseismic,0.047512,0.8059,,428.83,inferred,191.0
OBS_661,BOGUSLAV (UKR) (Intensity V),30.88,49.55,macroseismic,0.047512,0.8059,,708.96,inferred,900.0
OBS_890,ZHITOMIR (UKR) (Intensity V),28.67,50.27,macroseismic,0.047512,0.8059,,238.4,inferred,238.0
OBS_779,NIKOLAYEV (UKR) (Intensity V),32.0,46.966,macroseismic,0.047512,0.8059,,278.61,inferred,279.0
OBS_812,RAKITNOIE (UKR) (Intensity V),30.48,49.69,macroseismic,0.047512,0.8059,,261.38,inferred,350.0
OBS_752,LIUBAR (UKR) (Intensity V),27.76,49.92,macroseismic,0.047512,0.8059,,261.39,inferred,318.0
OBS_829,SHARGOROD (UKR) (Intensity V),28.09,48.74,macroseismic,0.047512,0.8059,,900.0,inferred,900.0
OBS_653,BAR (UKR) (Intensity V),27.68,49.07,macroseismic,0.047512,0.8059,,559.29,inferred,391.0
OBS_784,NOVOKRASNOIE (UKR) (Intensity V),31.36,48.03,macroseismic,0.047512,0.8059,,474.67,inferred,440.0
OBS_835,SICHEVITA (ROM) (Intensity V),21.844,44.694,macroseismic,0.047512,0.8059,,492.47,inferred,468.0
OBS_774,MYKOLAIVKA (UKR) (Intensity V),30.76,47.54,macroseismic,0.047512,0.8059,,776.97,inferred,693.0
OBS_830,SHEPETOVKA (UKR) (Intensity V),27.07,50.19,macroseismic,0.047512,0.8059,,340.89,inferred,337.0
OBS_740,KOROSTISHEV (UKR) (Intensity V),29.06,50.32,macroseismic,0.047512,0.8059,,645.98,inferred,504.0
OBS_838,SKVIRA (UKR) (Intensity V),29.66,49.73,macroseismic,0.047512,0.8059,,342.85,inferred,413.0
OBS_695,DNEPRODZERZHINSK (UKR) (Intensity V),34.61,48.51,macroseismic,0.047512,0.8059,,722.08,inferred,900.0
OBS_842,SMYADOVO (BUL) (Intensity V),27.014,43.064,macroseismic,0.047512,0.8059,,335.87,inferred,299.0
OBS_722,IABLANITA2 (ROM) (Intensity V),22.245,44.988,macroseismic,0.047512,0.8059,,546.5,inferred,507.0
OBS_708,GORODENKA (UKR) (Intensity V),25.5,48.67,macroseismic,0.047512,0.8059,,556.3,inferred,556.0
OBS_791,OLEKSANDRIVKA/CHERK. (UKR) (Intensity V),32.233,48.967,macroseismic,0.047512,0.8059,,331.0,inferred,331.0
OBS_743,KRIVOIE_OZERO (UKR) (Intensity V),30.35,47.94,macroseismic,0.047512,0.8059,,892.92,inferred,317.0
OBS_792,OLEKSANDRIVKA/NIK. (UKR) (Intensity V),31.277,47.689,macroseismic,0.047512,0.8059,,862.0,inferred,656.0
OBS_665,BORSHCHIV (UKR) (Intensity V),26.04,48.8,macroseismic,0.047512,0.8059,,290.37,inferred,590.0
OBS_788,OBUKHOV (UKR) (Intensity V),30.63,50.11,macroseismic,0.047512,0.8059,,796.39,inferred,853.0
OBS_736,KLADOVO (SRB) (Intensity V),22.6,44.617,macroseismic,0.047512,0.8059,,461.11,inferred,307.0
OBS_863,TRYAVNA (BUL) (Intensity V),25.493,42.867,macroseismic,0.047512,0.8059,,546.64,inferred,457.0
OBS_739,KOMPANEEVKA (UKR) (Intensity V),32.21,48.25,macroseismic,0.047512,0.8059,,345.14,inferred,459.0
OBS_827,SAVRANI (UKR) (Intensity V),30.08,48.13,macroseismic,0.047512,0.8059,,239.01,inferred,217.0
OBS_783,NOVOHRAD_VOLYNSKYI (UKR) (Intensity V),27.613,50.59,macroseismic,0.047512,0.8059,,322.6,inferred,326.0
OBS_826,SAPAREVA_BANIA (BUL) (Intensity V),23.26,42.28,macroseismic,0.047512,0.8059,,900.0,inferred,900.0
OBS_824,SALCIA/CUJMIR (ROM) (Intensity V),22.928,44.141,macroseismic,0.047512,0.8059,,260.15,inferred,283.0
OBS_659,BERSHADI (UKR) (Intensity V),29.52,48.37,macroseismic,0.047512,0.8059,,674.62,inferred,537.0
OBS_762,MARINOVKA (UKR) (Intensity V),30.89,47.77,macroseismic,0.047512,0.8059,,900.0,inferred,900.0
OBS_880,VINKIVTSI (UKR) (Intensity V),27.233,49.033,macroseismic,0.047512,0.8059,,837.48,inferred,837.0
OBS_781,NOVA_ZAGORA (BUL) (Intensity V),26.012,42.481,macroseismic,0.047512,0.8059,,262.41,inferred,238.0
OBS_724,ISVERNA (ROM) (Intensity V),22.625,44.979,macroseismic,0.047512,0.8059,,567.44,inferred,447.0
OBS_840,SLIVEN (BUL) (Intensity V),26.326,42.676,macroseismic,0.047512,0.8059,,348.61,inferred,361.0
OBS_855,TAMNA (ROM) (Intensity V),23.021,44.569,macroseismic,0.047512,0.8059,,529.33,inferred,551.0
OBS_771,MONASTYRISHCHE (UKR) (Intensity V),29.81,48.99,macroseismic,0.047512,0.8059,,451.26,inferred,432.0
OBS_764,MEHADIA (ROM) (Intensity V),22.365,44.905,macroseismic,0.047512,0.8059,,555.23,inferred,847.0
OBS_798,OVRUCH (UKR) (Intensity V),28.81,51.332,macroseismic,0.047512,0.8059,,321.94,inferred,350.0
OBS_881,VINNITZA (UKR) (Intensity V),28.48,49.23,macroseismic,0.047512,0.8059,,758.63,inferred,447.0
OBS_889,ZELJUSA (SRB) (Intensity V),22.825,43.014,macroseismic,0.047512,0.8059,,410.99,inferred,806.0
OBS_730,KAMENNIY_BROD (UKR) (Intensity V),28.95,50.48,macroseismic,0.047512,0.8059,,270.04,inferred,274.0
OBS_713,HAIREDIN (BUL) (Intensity V),23.6,43.6,macroseismic,0.047512,0.8059,,265.27,inferred,265.0
OBS_833,SHPOLA (UKR) (Intensity V),31.39,49.0,macroseismic,0.047512,0.8059,,440.89,inferred,295.0
OBS_709,GRAMADA (BUL) (Intensity V),22.66,43.83,macroseismic,0.047512,0.8059,,262.09,inferred,401.0
OBS_754,LUKAVICA (SRB) (Intensity V),22.761,43.007,macroseismic,0.047512,0.8059,,558.01,inferred,285.0
OBS_787,NOVOUKRAINKA (UKR) (Intensity V),31.53,48.32,macroseismic,0.047512,0.8059,,872.82,inferred,681.0
OBS_831,SHIPKA (BUL) (Intensity V),25.349,42.711,macroseismic,0.047512,0.8059,,403.35,inferred,805.0
OBS_760,MANIKOVKA (UKR) (Intensity V),30.33,48.96,macroseismic,0.047512,0.8059,,383.08,inferred,467.0
OBS_694,DIMITROVGRAD (SRB) (Intensity V),22.777,43.018,macroseismic,0.047512,0.8059,,513.27,inferred,437.0
OBS_879,VIDIN (BUL) (Intensity V),22.86,43.98,macroseismic,0.047512,0.8059,,200.51,inferred,228.0
OBS_852,SUNGURLARE (BUL) (Intensity V),26.781,42.762,macroseismic,0.047512,0.8059,,450.16,inferred,311.0
OBS_726,IVANOPOIL (UKR) (Intensity V),28.22,49.854,macroseismic,0.047512,0.8059,,439.3,inferred,380.0
OBS_877,VESELYNOVE (UKR) (Intensity V),31.239,47.358,macroseismic,0.047512,0.8059,,749.82,inferred,715.0
OBS_701,DZERZHINSK (UKR) (Intensity V),27.93,50.17,macroseismic,0.047512,0.8059,,295.84,inferred,296.0
OBS_810,RADOMISHLI (UKR) (Intensity V),29.24,50.5,macroseismic,0.047512,0.8059,,649.06,inferred,737.0
OBS_652,BANIA (ROM) (Intensity V),22.044,44.88,macroseismic,0.047512,0.8059,,312.18,inferred,385.0
OBS_663,BOROVAN (BUL) (Intensity V),23.75,43.43,macroseismic,0.047512,0.8059,,259.81,inferred,287.0
OBS_696,DOMANEVKA (UKR) (Intensity V),30.98,47.63,macroseismic,0.047512,0.8059,,557.74,inferred,511.0
OBS_737,KODYMA (UKR) (Intensity V),29.13,48.1,macroseismic,0.047512,0.8059,,509.35,inferred,509.0
OBS_846,STAVYSHCHE (UKR) (Intensity V),30.187,49.391,macroseismic,0.047512,0.8059,,404.03,inferred,343.0
OBS_848,STEPANOVKA (UKR) (Intensity V),29.67,48.68,macroseismic,0.047512,0.8059,,705.23,inferred,409.0
OBS_785,NOVOMIRGOROD (UKR) (Intensity V),31.65,48.8,macroseismic,0.047512,0.8059,,284.05,inferred,691.0
OBS_700,DUSKOTNA (BUL) (Intensity V),27.2,42.883,macroseismic,0.047512,0.8059,,599.5,inferred,420.0
OBS_735,KIROVOGRAD (UKR) (Intensity V),32.26,48.51,macroseismic,0.047512,0.8059,,487.41,inferred,398.0
OBS_642,APOSTOLOVO (UKR) (Intensity V),33.72,47.66,macroseismic,0.047512,0.8059,,386.94,inferred,274.0
OBS_776,NEMIROV (UKR) (Intensity V),28.84,48.97,macroseismic,0.047512,0.8059,,521.68,inferred,539.0
OBS_669,BRATSKOIE (UKR) (Intensity V),31.58,47.86,macroseismic,0.047512,0.8059,,424.2,inferred,610.0
OBS_883,VOZNESENSK (UKR) (Intensity V),31.333,47.567,macroseismic,0.047512,0.8059,,459.17,inferred,459.0
OBS_804,POHREBISHCHE (UKR) (Intensity V),29.27,49.49,macroseismic,0.047512,0.8059,,692.5,inferred,301.0
OBS_744,KRIVOY_ROG (UKR) (Intensity V),33.39,47.91,macroseismic,0.047512,0.8059,,379.41,inferred,433.0
OBS_707,GOLOVANEVSK (UKR) (Intensity V),30.46,48.38,macroseismic,0.047512,0.8059,,524.77,inferred,490.0
OBS_692,DERAZHNEA (UKR) (Intensity V),27.44,49.27,macroseismic,0.047512,0.8059,,574.42,inferred,745.0
OBS_892,ZVENIGORODKA (UKR) (Intensity V),30.96,49.07,macroseismic,0.047512,0.8059,,900.0,inferred,642.0
OBS_770,MOLDOVA_NOUA (ROM) (Intensity V),21.624,44.721,macroseismic,0.047512,0.8059,,517.43,inferred,312.0
OBS_703,FARCASESTI (ROM) (Intensity V),23.228,44.857,macroseismic,0.047512,0.8059,,281.15,inferred,323.0
OBS_885,VRANJE (SRB) (Intensity V),21.9,42.553,macroseismic,0.047512,0.8059,,866.94,inferred,436.0
OBS_772,MOSTOVOIE (UKR) (Intensity V),30.99,47.42,macroseismic,0.047512,0.8059,,543.18,inferred,237.0
OBS_778,NIKOLAEVO (BUL) (Intensity V),25.8,42.63,macroseismic,0.047512,0.8059,,300.11,inferred,300.0
OBS_657,BERDICHEV (UKR) (Intensity V),28.6,49.9,macroseismic,0.047512,0.8059,,315.47,inferred,315.0
CMP,Campulung Muscel,25.046,45.272,seismic,0.04735,0.0,,592.04,inferred,384.0
KAV,Kavarna,28.338,43.433,seismic,0.03694,0.0,,317.61,inferred,323.0
VRN,Varna,28.021,43.244,seismic,0.03431,0.0,,600.0,inferred,436.0
OBS_902,FLORESTI (MLD) (Intensity V),28.3,47.89,macroseismic,0.033949,0.8059,,647.6,inferred,654.0
OBS_904,GERTSA (UKR) (Intensity V),26.26,48.15,macroseismic,0.033181,0.8059,,604.87,inferred,607.0
ARM,Buc.-Armeneasca,26.11,44.437,seismic,0.03221,0.0,,289.92,inferred,267.0
OBS_925,SOROKA (MLD) (Intensity V),28.297,48.156,macroseismic,0.031874,0.8059,,900.0,inferred,900.0
OBS_924,SOFIA (BUL) (Intensity V),23.317,42.7,macroseismic,0.030754,0.8059,,309.52,inferred,292.0
OBS_898,CHERNEAKHOV (UKR) (Intensity V),28.67,50.46,macroseismic,0.030754,0.8059,,346.56,inferred,311.0
OBS_917,NOVOMOSKOVSK (UKR) (Intensity V),35.2,48.62,macroseismic,0.030754,0.8059,,230.28,inferred,240.0
OBS_911,KAMENO (BUL) (Intensity V),27.3,42.56,macroseismic,0.030754,0.8059,,284.36,inferred,325.0
OBS_908,HMEL'NITSKY (UKR) (Intensity V),26.99,49.42,macroseismic,0.030754,0.8059,,697.31,inferred,603.0
OBS_923,POPEL'NIA (UKR) (Intensity V),29.46,49.94,macroseismic,0.030754,0.8059,,424.65,inferred,298.0
