STATION_ID,STATION_NAME,LONGITUDE,LATITUDE,STATION_TYPE,VS30,MMI_VALUE,MMI_STDDEV,PGA_LN_SIGMA,PGA_VALUE,PGV_LN_SIGMA,PGV_VALUE,SA(0.3)_LN_SIGMA,SA(0.3)_VALUE,SA(1.0)_LN_SIGMA,SA(1.0)_VALUE,SA(3.0)_LN_SIGMA,SA(3.0)_VALUE,VS30_TYPE,REFERENCES
GORR,,9.2926,44.6071,seismic,760,1.9,0.63,0,0.008684,0,0.0893,0,0.001656,0,0.00046,0,0.000362,inferred,Stations_USGS
TUE,,9.34732,46.47223,seismic,760,null,null,,,,,,,,,,,inferred,Stations_USGS
RM33,,13.21452,42.50898,seismic,580.46,6.1,0.63,0,0.132268,0,13.0832,0,0.290594,0,0.146183,0,0.020909,inferred,Stations_USGS
SEI,,11.35855,44.05428,seismic,900,3.1,0.63,0,0.018252,0,0.3862,0,0.013886,0,0.003153,0,0.000725,inferred,Stations_USGS
CIGN,,14.90502,41.65418,seismic,543.84,3.2,0.63,0,0.003702,0,0.6222,0,0.003953,0,0.003776,0,0.002485,inferred,Stations_USGS
BURY,,7.5569,43.7825,seismic,760,1,0.63,0,2.70E-05,0,0.0076,0,0.000229,0,8.70E-05,0,3.20E-05,inferred,Stations_USGS
NDIM,,10.8987,44.8873,seismic,225.98,2.8,0.63,0,0.001142,0,0.33,0,0.002242,0,0.001876,0,0.000977,inferred,Stations_USGS
SALO,Salo,10.5243,45.6183,seismic,760,2.3,0.63,0,0.000696,0,0.1145,0,0.001522,0,0.001794,0,0.000336,inferred,Stations_USGS
IST3,,15.2304,38.7992,seismic,760,1,0.63,0,0.000793,0,0.0106,0,0.000152,0,6.00E-05,0,5.30E-05,inferred,Stations_USGS
PETRA,,14.1148,37.8335,seismic,760,null,null,,,,,,,,,,,inferred,Stations_USGS
CIRO,,7.5682,45.6019,seismic,760,1,0.63,0,0.000191,0,0.0066,0,5.80E-05,0,7.20E-05,0,9.00E-06,inferred,Stations_USGS
LJU,,14.5278,46.0438,seismic,760,2.9,0.63,0,0.00482,0,0.3791,0,0.00974,0,0.004167,0,0.001682,inferred,Stations_USGS
VARA,,10.8965,45.826,seismic,760,null,null,,,,,,,,,,,inferred,Stations_USGS
VLC,,10.3864,44.1594,seismic,541.71,1.6,0.63,0,0.004618,0,0.054,0,0.000733,0,0.000886,0,7.90E-05,inferred,Stations_USGS
MGR,,15.55352,40.1376,seismic,760,1.5,0.63,0,0.003687,0,0.0387,0,0.000608,0,0.000312,0,0.000169,inferred,Stations_USGS
AMUR,,16.6041,40.9071,seismic,259.96,2.2,0.63,0,0.000554,0,0.0965,0,0.001856,0,0.000918,0,0.00043,inferred,Stations_USGS
FUSIO,,8.66316,46.4549,seismic,760,1,0.63,0,0.00046,0,0.0063,0,9.80E-05,0,3.60E-05,0,1.00E-05,inferred,Stations_USGS
EUCT,,9.1349,45.2026,seismic,760,2.2,0.63,0,0.000324,0,0.1019,0,0.000678,0,0.00066,0,0.000334,inferred,Stations_USGS
RISI,,12.0787,46.948,seismic,760,null,null,,,,,,,,,,,inferred,Stations_USGS
MGRO,,7.8082,44.0426,seismic,760,1,0.63,0,0.000378,0,0.0086,0,6.10E-05,0,6.30E-05,0,1.50E-05,inferred,Stations_USGS
ARVD,,12.94153,43.49807,seismic,474.26,3.2,0.63,0,0.027682,0,0.6548,0,0.018814,0,0.007259,0,0.002428,inferred,Stations_USGS
MCEL,,15.8019,40.3249,seismic,610.45,2.1,0.63,0,0.010215,0,0.1108,0,0.001967,0,0.000662,0,0.000377,inferred,Stations_USGS
VOBA,,10.504,45.6429,seismic,760,null,null,,,,,,,,,,,inferred,Stations_USGS
CAGR,,14.4999,37.622,seismic,760,1,0.63,0,0.000745,0,0.0099,0,0.000145,0,8.80E-05,0,3.10E-05,inferred,Stations_USGS
SATI,,7.8685,45.8753,seismic,760,null,null,,,,,,,,,,,inferred,Stations_USGS
AIO,,15.233,37.9712,seismic,760,1,0.63,0,0.00067,0,0.0065,0,0.000132,0,3.80E-05,0,1.70E-05,inferred,Stations_USGS
IVPL,,14.9801,38.3763,seismic,760,null,null,,,,,,,,,,,inferred,Stations_USGS
MCIV,,11.6765,42.77861,seismic,839.72,3.2,0.63,0,0.008255,0,0.6649,0,0.005004,0,0.006435,0,0.001962,inferred,Stations_USGS
VIVA,,12.770183,41.750225,seismic,573.3,4.1,0.63,0,0.019137,0,2.7506,0,0.040707,0,0.014013,0,0.006927,inferred,Stations_USGS
CELI,,16.5088,39.4027,seismic,760,1.9,0.63,0,0.001797,0,0.0877,0,0.000707,0,0.000389,0,0.000202,inferred,Stations_USGS
POPM,,10.757,44.045,seismic,900,2.6,0.63,0,0.000699,0,0.2527,0,0.003884,0,0.001591,0,0.000611,inferred,Stations_USGS
SGG,,14.37917,41.38667,seismic,900,3.2,0.63,0,0.01916,0,0.6385,0,0.00917,0,0.006358,0,0.003223,inferred,Stations_USGS
BDI,,10.59698,44.06238,seismic,900,2.5,0.63,0,0.000757,0,0.2214,0,0.00141,0,0.00097,0,0.000616,inferred,Stations_USGS
SNAL,,15.20908,40.92542,seismic,624.97,2.8,0.63,0,0.031789,0,0.3357,0,0.006016,0,0.00259,0,0.00102,inferred,Stations_USGS
VENL,,12.3765,45.4167,seismic,600,2.3,0.63,0,0.000983,0,0.1518,0,0.002065,0,0.001412,0,0.000302,inferred,Stations_USGS
VTIR,,14.4242,40.8059,seismic,900,1.8,0.63,0,0.014211,0,0.0684,0,0.0009,0,0.000518,0,0.000176,inferred,Stations_USGS
MIGL,,16.441,40.6044,seismic,498.68,2.9,0.63,0,0.012303,0,0.4033,0,0.002629,0,0.002642,0,0.00102,inferred,Stations_USGS
CESX,,12.58676,42.608486,seismic,900,4,0.63,0,0.032221,0,1.9075,0,0.031446,0,0.01578,0,0.013103,inferred,Stations_USGS
LRP,,13.58658,41.64709,seismic,522.29,3.6,0.63,0,0.026502,0,1.1126,0,0.009784,0,0.012357,0,0.005168,inferred,Stations_USGS
ISTR,,15.1918,38.7866,seismic,760,1,0.63,0,0.000712,0,0.0094,0,0.000154,0,5.40E-05,0,1.90E-05,inferred,Stations_USGS
MRLC,,15.48892,40.7564,seismic,743.2,2.7,0.63,0,0.024317,0,0.2852,0,0.004645,0,0.001376,0,0.000837,inferred,Stations_USGS
MMUR,,12.9973,43.44183,seismic,749.79,4.1,0.63,0,0.053432,0,2.4201,0,0.077253,0,0.018082,0,0.006289,inferred,Stations_USGS
BRIS,,11.76657,44.22454,seismic,412.23,3.4,0.63,0,0.007131,0,0.6724,0,0.005743,0,0.00512,0,0.002297,inferred,Stations_USGS
CPIS,,14.147,40.8292,seismic,568.26,3.8,0.63,0,0.003204,0,1.7096,0,0.008353,0,0.008388,0,0.009781,inferred,Stations_USGS
VITU,,14.630154,41.18326,seismic,601.13,3,0.63,0,0.006675,0,0.3583,0,0.002352,0,0.002767,0,0.001152,inferred,Stations_USGS
GROG,,9.89201,43.42618,seismic,502.14,2.4,0.63,0,0.000214,0,0.1938,0,0.000342,0,0.000368,0,0.000377,inferred,Stations_USGS
OVO,,14.39667,40.8275,seismic,900,3.1,0.63,0,0.00221,0,0.542,0,0.00261,0,0.005276,0,0.003555,inferred,Stations_USGS
MOSI,,10.5495,46.6164,seismic,760,null,null,,,,,,,,,,,inferred,Stations_USGS
CDRU,,15.3046,40.4896,seismic,585.07,1.8,0.63,0,0.007047,0,0.0703,0,0.001542,0,0.00071,0,0.000211,inferred,Stations_USGS
T1215,,12.868511,42.80188,seismic,858.87,5.1,0.63,0,0.107795,0,5.8731,0,0.099012,0,0.055365,0,0.011219,inferred,Stations_USGS
CEL,,15.8939,38.2603,seismic,760,1,0.63,0,7.80E-05,0,0.0053,0,2.90E-05,0,5.50E-05,0,1.60E-05,inferred,Stations_USGS
MSCL,,15.79,38.232,seismic,760,null,null,,,,,,,,,,,inferred,Stations_USGS
SIRI,,15.8675,40.1821,seismic,760,null,null,,,,,,,,,,,inferred,Stations_USGS
ATVO,,12.40663,43.38211,seismic,527.72,3.3,0.63,0,0.022064,0,0.7041,0,0.026977,0,0.011728,0,0.005019,inferred,Stations_USGS
PTRJ,,14.529,41.3641,seismic,900,3.2,0.63,0,0.006123,0,0.5485,0,0.004638,0,0.003656,0,0.001763,inferred,Stations_USGS
MMN,,15.990414,39.890961,seismic,760,1,0.63,0,0.00072,0,0.0132,0,0.000122,0,7.00E-05,0,5.20E-05,inferred,Stations_USGS
BRMO,,10.37218,46.47616,seismic,760,1,0.63,0,0.00012,0,0.0222,0,0.000254,0,0.000279,0,4.60E-05,inferred,Stations_USGS
MA9,,12.65907,41.769756,seismic,566.89,3.6,0.63,0,0.007293,0,1.2801,0,0.013939,0,0.014716,0,0.004712,inferred,Stations_USGS
GIB,,14.026023,37.990126,seismic,760,null,null,,,,,,,,,,,inferred,Stations_USGS
NEVI,,10.3163,44.5834,seismic,334.11,3.2,0.63,0,0.001242,0,0.5956,0,0.00164,0,0.001851,0,0.002779,inferred,Stations_USGS
MAIM,,10.4915,43.91417,seismic,844.35,2.5,0.63,0,0.000575,0,0.1762,0,0.001309,0,0.000857,0,0.000425,inferred,Stations_USGS
VARN,,12.1048,45.9933,seismic,760,null,null,,,,,,,,,,,inferred,Stations_USGS
ATTE,,12.3536,43.1979,seismic,565.75,3.2,0.63,0,0.02449,0,0.6435,0,0.022608,0,0.008356,0,0.004755,inferred,Stations_USGS
SBPO,,10.91987,45.05108,seismic,232.52,2.5,0.63,0,0.001072,0,0.2084,0,0.002151,0,0.001319,0,0.000495,inferred,Stations_USGS
CORF,,9.153,42.298,seismic,760,1.2,0.63,0,6.30E-05,0,0.0247,0,0.000537,0,0.000225,0,0.000115,inferred,Stations_USGS
PAOL,,14.567486,41.031206,seismic,900,3.1,0.63,0,0.000976,0,0.5724,0,0.001492,0,0.001291,0,0.001983,inferred,Stations_USGS
T1217,,12.931333,42.711902,seismic,652.4,5.2,0.63,0,0.122864,0,4.5884,0,0.174503,0,0.043014,0,0.013191,inferred,Stations_USGS
APEC,,12.41991,43.55846,seismic,609.85,null,null,0,0.017169,0,0.3928,0,0.024329,0,0.007215,0,0.002604,inferred,Stations_USGS
FAGN,,13.58379,42.26573,seismic,631.87,3.3,0.63,0,0.052111,0,0.7913,0,0.046293,0,0.013808,0,0.003185,inferred,Stations_USGS
PP3,,13.6095,43.37783,seismic,398.45,5.4,0.63,0,0.054133,0,5.096,0,0.137488,0,0.064979,0,0.017672,inferred,Stations_USGS
RMP,,12.70222,41.81112,seismic,620.18,4,0.63,0,0.019777,0,2.1503,0,0.022658,0,0.010165,0,0.007901,inferred,Stations_USGS
RONC,,10.6228,45.9802,seismic,760,1,0.63,0,0.000233,0,0.0095,0,0.000262,0,0.000649,0,1.90E-05,inferred,Stations_USGS
STAL,,12.7104,46.2601,seismic,760,null,null,,,,,,,,,,,inferred,Stations_USGS
PTCC,,13.354,46.4075,seismic,760,1,0.63,0,0.000527,0,0.0059,0,0.000178,0,8.60E-05,0,7.00E-06,inferred,Stations_USGS
LSD,,7.13433,45.4595,seismic,760,null,null,,,,,,,,,,,inferred,Stations_USGS
FNVD,,11.1229,44.16782,seismic,516.25,3,0.63,0,0.001336,0,0.4314,0,0.005004,0,0.003108,0,0.002234,inferred,Stations_USGS
ACOM,,13.5149,46.5479,seismic,760,2,0.63,0,0.000686,0,0.0925,0,0.002537,0,0.001805,0,0.00029,inferred,Stations_USGS
MUGIO,,9.04167,45.92186,seismic,760,null,null,,,,,,,,,,,inferred,Stations_USGS
RNI2,,14.1524,41.70328,seismic,686.62,4.2,0.63,0,0.006887,0,2.4152,0,0.012595,0,0.019749,0,0.016005,inferred,Stations_USGS
CAR1,,16.2114,39.2534,seismic,760,1,0.63,0,0.00134,0,0.0235,0,0.000266,0,0.000212,0,3.50E-05,inferred,Stations_USGS
FVI,,12.7804,46.59658,seismic,760,1,0.63,0,0.000408,0,0.0225,0,0.000727,0,0.000229,0,5.00E-05,inferred,Stations_USGS
JOPP,,15.8856,38.6068,seismic,760,null,null,,,,,,,,,,,inferred,Stations_USGS
IOCA,,13.9008,40.7458,seismic,612.66,3.4,0.63,0,0.001976,0,0.8251,0,0.00342,0,0.004211,0,0.004117,inferred,Stations_USGS
BORM,,10.3764,46.4694,seismic,760,1,0.63,0,0.000178,0,0.0201,0,0.000442,0,0.000278,0,4.20E-05,inferred,Stations_USGS
CANO,,8.2372,44.2075,seismic,760,1.5,0.63,0,0.000278,0,0.0483,0,0.000672,0,0.000731,0,6.90E-05,inferred,Stations_USGS
FRE8,,12.3552,46.015,seismic,760,1.9,0.63,0,0.000606,0,0.0833,0,0.001275,0,0.001481,0,0.000131,inferred,Stations_USGS
BIOG,,15.132629,41.199899,seismic,379.2,null,null,0,0.003647,0,2.0433,0,0.004007,0,0.006387,0,0.007352,inferred,Stations_USGS
SCTE,,18.4675,40.0724,seismic,760,null,null,,,,,,,,,,,inferred,Stations_USGS
VARP,,14.4101,40.8165,seismic,900,null,null,,,,,,,,,,,inferred,Stations_USGS
ORZI,,9.9307,45.4056,seismic,233.97,1.6,0.63,0,0.000222,0,0.0551,0,0.000468,0,0.000594,0,0.000158,inferred,Stations_USGS
CTI,CASTELLO TESINO,11.6497,46.04818,seismic,760,2.1,0.63,0,0.001339,0,0.1114,0,0.005484,0,0.000777,0,0.000436,inferred,Stations_USGS
MILN,,9.2321,45.4803,seismic,760,1.3,0.63,0,0.003558,0,0.036,0,0.000639,0,0.000436,0,6.90E-05,inferred,Stations_USGS
MRVN,,16.1958,41.0609,seismic,312.19,2.1,0.63,0,0.006538,0,0.1203,0,0.001219,0,0.001039,0,0.000432,inferred,Stations_USGS
SPS2,,16.338806,39.291028,seismic,760,null,null,,,,,,,,,,,inferred,Stations_USGS
MTRZ,,11.4248,44.3128,seismic,729.74,3.4,0.63,0,0.002687,0,0.86,0,0.005139,0,0.00543,0,0.002147,inferred,Stations_USGS
TRIF,,10.90265,43.11478,seismic,665.95,2.7,0.63,0,0.000912,0,0.2867,0,0.001971,0,0.001826,0,0.000821,inferred,Stations_USGS
TAR1,,17.2846,40.5259,seismic,760,null,null,,,,,,,,,,,inferred,Stations_USGS
CASP,,10.8652,42.7908,seismic,530.14,2.7,0.63,0,0.000484,0,0.31,0,0.000833,0,0.000631,0,0.000947,inferred,Stations_USGS
LUSI,,10.9436,45.9595,seismic,760,1.6,0.63,0,0.00297,0,0.0409,0,0.001343,0,0.000746,0,8.00E-05,inferred,Stations_USGS
WTTA,,11.6363,47.2638,seismic,760,null,null,,,,,,,,,,,inferred,Stations_USGS
MNTV,,10.7897,45.1495,seismic,231.26,2.5,0.63,0,0.001086,0,0.1506,0,0.002315,0,0.001159,0,0.000653,inferred,Stations_USGS
SGRT,,15.7437,41.7546,seismic,390.44,2.6,0.63,0,0.016426,0,0.2186,0,0.006022,0,0.002561,0,0.000563,inferred,Stations_USGS
BNALP,,8.42502,46.87049,seismic,760,1.1,0.63,0,0.000792,0,0.0311,0,0.000389,0,0.000381,0,7.30E-05,inferred,Stations_USGS
CRMI,,10.97950556,43.79559722,seismic,900,3,0.63,0,0.000719,0,0.4839,0,0.001662,0,0.001363,0,0.000886,inferred,Stations_USGS
MTSN,,15.7515,40.2663,seismic,500.43,1.3,0.63,0,0.00114,0,0.0384,0,0.000336,0,0.000218,0,0.000108,inferred,Stations_USGS
CLUD,Cludinico,12.8814,46.4569,seismic,760,2.1,0.63,0,0.000542,0,0.1183,0,0.000729,0,0.001486,0,0.000248,inferred,Stations_USGS
RORO,,8.06617,44.11217,seismic,760,null,null,,,,,,,,,,,inferred,Stations_USGS
VVDG,,14.4238,40.8356,seismic,791.73,2.3,0.63,0,0.002495,0,0.1309,0,0.001701,0,0.000645,0,0.00025,inferred,Stations_USGS
ROSI,,11.4118,46.9281,seismic,760,null,null,,,,,,,,,,,inferred,Stations_USGS
CMPR,,15.303,40.3181,seismic,788.74,1.6,0.63,0,0.000166,0,0.0561,0,0.001542,0,0.000417,0,0.00041,inferred,Stations_USGS
MURB,,12.5246,43.263,seismic,490.45,4.3,0.63,0,0.062415,0,3.3142,0,0.274499,0,0.032344,0,0.00942,inferred,Stations_USGS
MAON,,11.1309,42.42828,seismic,558.34,3.1,0.63,0,0.000988,0,0.5291,0,0.002038,0,0.001725,0,0.001587,inferred,Stations_USGS
CRE,,11.95167,43.61888,seismic,747.79,3.2,0.63,0,0.004009,0,0.6188,0,0.008334,0,0.004604,0,0.002755,inferred,Stations_USGS
ESLN,,14.9744,37.6934,seismic,760,null,null,,,,,,,,,,,inferred,Stations_USGS
MGAB,,12.11214,42.91263,seismic,408.18,3.9,0.63,0,0.013911,0,1.5024,0,0.039042,0,0.019883,0,0.00259,inferred,Stations_USGS
PCP,,8.54517,44.54133,seismic,760,1,0.63,0,0.001428,0,0.0175,0,0.000269,0,0.000128,0,3.90E-05,inferred,Stations_USGS
VLO,,19.495501,40.468601,seismic,760,null,null,,,,,,,,,,,inferred,Stations_USGS
SERM,,11.29582,45.00997,seismic,194.69,1.9,0.63,0,0.000288,0,0.0786,0,0.000727,0,0.000329,0,0.000194,inferred,Stations_USGS
ZOU2,,12.9729,46.5584,seismic,760,null,null,,,,,,,,,,,inferred,Stations_USGS
EPOZ,,15.1885,37.6719,seismic,760,null,null,,,,,,,,,,,inferred,Stations_USGS
PZUN,,15.807,40.6458,seismic,473.48,1.9,0.63,0,0.004161,0,0.0671,0,0.000802,0,0.000494,0,0.000261,inferred,Stations_USGS
FUORN,"Ofenpass, Switzerland",10.26352,46.62022,seismic,760,1,0.63,0,0.000101,0,0.0254,0,0.000155,0,0.00029,0,0.000145,inferred,Stations_USGS
ILLI,,14.9483,38.4457,seismic,760,1,0.63,0,0.00021,0,0.02,0,0.000176,0,0.000209,0,0.000125,inferred,Stations_USGS
CAMP,,13.409,42.53578,seismic,871.84,4.1,0.63,0,0.041996,0,2.4377,0,0.053318,0,0.030027,0,0.013292,inferred,Stations_USGS
ASQU,,11.7893,43.7967,seismic,900,3.3,0.63,0,0.002297,0,0.6853,0,0.004624,0,0.004307,0,0.002181,inferred,Stations_USGS
ZONE,,10.117073,45.763578,seismic,760,null,null,,,,,,,,,,,inferred,Stations_USGS
FERS,,11.5406,44.9035,seismic,180,2.8,0.63,0,0.002145,0,0.3553,0,0.005443,0,0.00281,0,0.001478,inferred,Stations_USGS
PALZ,,15.9602,40.9441,seismic,401.27,2.7,0.63,0,0.015631,0,0.2907,0,0.003663,0,0.003541,0,0.000971,inferred,Stations_USGS
DAVOX,,9.87952,46.7805,seismic,760,1,0.63,0,0.002197,0,0.0264,0,0.000505,0,0.000227,0,6.20E-05,inferred,Stations_USGS
CSNT,,11.29017,43.47311,seismic,551.54,3,0.63,0,0.001138,0,0.4433,0,0.002007,0,0.002513,0,0.001161,inferred,Stations_USGS
FIVI,,10.1273,44.2393,seismic,900,2.4,0.63,0,0.000561,0,0.1684,0,0.001107,0,0.00077,0,0.000307,inferred,Stations_USGS
BRSN,,12.08023,44.28418,seismic,221.04,3.6,0.63,0,0.003971,0,1.1416,0,0.008021,0,0.013296,0,0.008338,inferred,Stations_USGS
PLONS,,9.3807,47.04921,seismic,760,null,null,,,,,,,,,,,inferred,Stations_USGS
IACL,,14.355,38.533,seismic,760,1,0.63,0,0.000128,0,0.0112,0,4.20E-05,0,5.90E-05,0,4.60E-05,inferred,Stations_USGS
ROVR,,11.0721,45.6468,seismic,760,1.1,0.63,0,0.000678,0,0.0319,0,0.002228,0,0.000148,0,5.00E-05,inferred,Stations_USGS
PDG,,19.2608,42.4297,seismic,760,null,null,,,,,,,,,,,inferred,Stations_USGS
MPRI,,12.9877,46.2408,seismic,760,1.7,0.63,0,0.000589,0,0.0521,0,0.001736,0,0.000408,0,0.0001,inferred,Stations_USGS
NOCI,,17.0644,40.7888,seismic,760,1.6,0.63,0,0.002791,0,0.0531,0,0.000962,0,0.000245,0,9.70E-05,inferred,Stations_USGS
MCT,,13.60761,37.61864,seismic,760,null,null,,,,,,,,,,,inferred,Stations_USGS
TREG,,11.1606,45.523,seismic,760,1,0.63,0,0.000345,0,0.02,0,0.000967,0,0.00024,0,7.80E-05,inferred,Stations_USGS
AOI,,13.602,43.55017,seismic,615.37,3.3,0.63,0,0.027694,0,0.754,0,0.025811,0,0.009859,0,0.002695,inferred,Stations_USGS
OPPE,,11.1724,45.3082,seismic,202.73,2.4,0.63,0,0.001246,0,0.1736,0,0.002842,0,0.002336,0,0.00048,inferred,Stations_USGS
ZAG,,15.98678,45.826832,seismic,760,null,null,,,,,,,,,,,inferred,Stations_USGS
USI,,13.17913,38.70787,seismic,760,null,null,,,,,,,,,,,inferred,Stations_USGS
MODE,,10.949167,44.629722,seismic,220.22,3,0.63,0,0.002145,0,0.4465,0,0.003309,0,0.003269,0,0.002237,inferred,Stations_USGS
CORL,,13.3038,37.8943,seismic,760,1,0.63,0,0.000309,0,0.0072,0,5.80E-05,0,4.60E-05,0,3.50E-05,inferred,Stations_USGS
ATFO,,12.5715,43.3666,seismic,900,3.3,0.63,0,0.028206,0,0.6549,0,0.039441,0,0.011213,0,0.005168,inferred,Stations_USGS
EMSG,,14.9498,37.8208,seismic,760,null,null,,,,,,,,,,,inferred,Stations_USGS
CET2,,15.954618,39.528756,seismic,760,1,0.63,0,0.000142,0,0.0287,0,0.000445,0,0.000545,0,0.000119,inferred,Stations_USGS
SERS,,16.6886,39.0359,seismic,760,null,null,,,,,,,,,,,inferred,Stations_USGS
APRC,,15.54308,41.75738,seismic,881.16,2.8,0.63,0,0.002025,0,0.3139,0,0.0052,0,0.002477,0,0.000975,inferred,Stations_USGS
SGTA,,15.365,41.135,seismic,373.14,3,0.63,0,0.033158,0,0.3551,0,0.006368,0,0.002346,0,0.000839,inferred,Stations_USGS
PGF,,8.9994,42.5483,seismic,760,null,null,,,,,,,,,,,inferred,Stations_USGS
CAFI,,11.9663,43.3292,seismic,620.12,null,null,0,0.002027,0,0.1993,0,0.002845,0,0.00245,0,0.000344,inferred,Stations_USGS
TRIV,,14.5502,41.7666,seismic,651.19,4.1,0.63,0,0.008668,0,2.708,0,0.009919,0,0.021006,0,0.00733,inferred,Stations_USGS
PIEI,,12.535,43.53567,seismic,900,3.2,0.63,0,0.027212,0,0.6198,0,0.058343,0,0.006077,0,0.002066,inferred,Stations_USGS
CGRP,,11.8047,45.8806,seismic,760,2.1,0.63,0,0.000828,0,0.1109,0,0.002503,0,0.00148,0,0.000518,inferred,Stations_USGS
TDS,,16.33762,39.6601,seismic,760,null,null,,,,,,,,,,,inferred,Stations_USGS
GUAR,,13.31229,41.7945,seismic,900,3.3,0.63,0,0.017828,0,0.6755,0,0.018575,0,0.009925,0,0.006524,inferred,Stations_USGS
T0110,,13.776334,42.22944,seismic,618.66,4.2,0.63,0,0.039266,0,2.9752,0,0.081534,0,0.027169,0,0.01629,inferred,Stations_USGS
BERNI,,10.023095,46.413636,seismic,760,1,0.63,0,0.000126,0,0.0292,0,0.00046,0,0.000184,0,6.60E-05,inferred,Stations_USGS
RSM2,,12.445128,43.937695,seismic,477.72,4,0.63,0,0.022956,0,1.9492,0,0.01927,0,0.017093,0,0.006441,inferred,Stations_USGS
GAGG,,10.9587,46.0835,seismic,760,1.6,0.63,0,0.004998,0,0.0523,0,0.000974,0,0.000675,0,0.000162,inferred,Stations_USGS
SARZ,,8.913604,44.867306,seismic,760,null,null,,,,,,,,,,,inferred,Stations_USGS
CERA,,14.0183,41.5978,seismic,799.19,3.7,0.63,0,0.003975,0,1.3241,0,0.007283,0,0.008179,0,0.005224,inferred,Stations_USGS
MCRV,,15.1684,40.7826,seismic,900,2.6,0.63,0,0.000486,0,0.1987,0,0.002682,0,0.001502,0,0.000583,inferred,Stations_USGS
TRE1,,13.312848,43.311198,seismic,477.97,5.5,0.63,0,0.08314,0,8.3872,0,0.182227,0,0.059519,0,0.014651,inferred,Stations_USGS
VULT,,15.6163,40.9549,seismic,762.45,2,0.63,0,0.007007,0,0.0882,0,0.001826,0,0.001099,0,0.000195,inferred,Stations_USGS
REMY,,7.1565,45.8378,seismic,760,null,null,,,,,,,,,,,inferred,Stations_USGS
DIVS,,19.9917,44.0981,seismic,760,null,null,,,,,,,,,,,inferred,Stations_USGS
ORI,,16.450405,40.05096,seismic,760,1.2,0.63,0,0.001125,0,0.0201,0,0.000516,0,0.000172,0,0.000117,inferred,Stations_USGS
KOGS,,16.2503,46.4481,seismic,760,1.9,0.63,0,0.000761,0,0.0893,0,0.001343,0,0.000697,0,0.000495,inferred,Stations_USGS
CAFR,,14.347,42.2273,seismic,569.93,2.6,0.63,0,0.017952,0,0.2471,0,0.024085,0,0.008003,0,0.000412,inferred,Stations_USGS
T1211,,12.855145,42.532852,seismic,900,5,0.63,0,0.079834,0,5.7218,0,0.206991,0,0.064335,0,0.011983,inferred,Stations_USGS
RNCA,,8.9512,44.4712,seismic,760,1,0.63,0,0.000114,0,0.0034,0,2.20E-05,0,3.10E-05,0,1.30E-05,inferred,Stations_USGS
KOSI,,11.3778,46.463,seismic,760,1.7,0.63,0,0.002216,0,0.0616,0,0.001061,0,0.000459,0,0.000213,inferred,Stations_USGS
ZEN8,,10.7319,45.6378,seismic,760,null,null,,,,,,,,,,,inferred,Stations_USGS
MNTP,,13.469252,43.137378,seismic,358.32,5.8,0.63,0,0.096474,0,9.0653,0,0.143058,0,0.069074,0,0.025547,inferred,Stations_USGS
TERO,,13.60393,42.62279,seismic,679.9,5.3,0.63,0,0.12488,0,6.9816,0,0.280113,0,0.028446,0,0.010236,inferred,Stations_USGS
CELB,,10.210652,42.746577,seismic,753.99,2.2,0.63,0,0.000257,0,0.1393,0,0.000517,0,0.000546,0,0.000394,inferred,Stations_USGS
MTCE,,12.74222,42.0228,seismic,614.61,3.3,0.63,0,0.01265,0,0.6828,0,0.01097,0,0.010077,0,0.003747,inferred,Stations_USGS
MATE,,16.70442,40.649071,seismic,344.36,1.8,0.63,0,0.003926,0,0.0609,0,0.000766,0,0.000709,0,0.000125,inferred,Stations_USGS
CIMA,,13.670091,43.305297,seismic,452.65,5.2,0.63,0,0.027819,0,5.6624,0,0.059968,0,0.047677,0,0.028585,inferred,Stations_USGS
ZCCA,,10.9765,44.35085,seismic,514.15,2.6,0.63,0,0.016167,0,0.2554,0,0.003273,0,0.001123,0,0.000492,inferred,Stations_USGS
IMI,,7.89317,43.9105,seismic,760,1,0.63,0,0.000289,0,0.0175,0,0.000177,0,7.60E-05,0,2.20E-05,inferred,Stations_USGS
LEOD,,10.1234,45.4582,seismic,760,2.1,0.63,0,0.000428,0,0.1151,0,0.001026,0,0.000995,0,0.000395,inferred,Stations_USGS
PII,,10.52495,43.72193,seismic,589.43,2.8,0.63,0,0.000912,0,0.2513,0,0.002725,0,0.001125,0,0.000535,inferred,Stations_USGS
PIGN,,14.17989,41.200001,seismic,523.32,3.2,0.63,0,0.001388,0,0.5888,0,0.002121,0,0.002459,0,0.002824,inferred,Stations_USGS
LPEL,,14.1832,42.0468,seismic,900,3.3,0.63,0,0.023663,0,0.7199,0,0.028115,0,0.006712,0,0.00343,inferred,Stations_USGS
SAMA,,12.5923,41.7805,seismic,339.86,3.3,0.63,0,0.012648,0,0.7597,0,0.008245,0,0.005613,0,0.003811,inferred,Stations_USGS
MOCO,,15.158,41.37,seismic,621.58,3.3,0.63,0,0.001338,0,0.7365,0,0.001643,0,0.001941,0,0.002074,inferred,Stations_USGS
PLAC,,16.4383,38.4494,seismic,760,null,null,,,,,,,,,,,inferred,Stations_USGS
CESI,,12.9046,43.0049,seismic,447.99,null,null,0,0.034217,0,0.6417,0,0.018173,0,0.003965,0,0.001059,inferred,Stations_USGS
CRND,,12.0131,45.8361,seismic,760,2,0.63,0,0.000874,0,0.0954,0,0.002329,0,0.001874,0,0.000477,inferred,Stations_USGS
MERA,,9.4291,45.7054,seismic,760,1,0.63,0,0.000267,0,0.0273,0,0.000783,0,0.000204,0,6.90E-05,inferred,Stations_USGS
ROTM,,8.3527,44.8493,seismic,760,null,null,,,,,,,,,,,inferred,Stations_USGS
PTQR,,13.40057,42.02193,seismic,741.25,3.8,0.63,0,0.004723,0,1.4384,0,0.013733,0,0.008919,0,0.005854,inferred,Stations_USGS
TIP,,16.7583,39.1794,seismic,760,null,null,,,,,,,,,,,inferred,Stations_USGS
POFI,,13.71202,41.71743,seismic,441.55,3.7,0.63,0,0.004835,0,1.3736,0,0.006383,0,0.007569,0,0.005029,inferred,Stations_USGS
STON,,17.699,42.8715,seismic,760,null,null,,,,,,,,,,,inferred,Stations_USGS
CMPO,,11.8056,44.5808,seismic,210.07,3.5,0.63,0,0.004938,0,0.927,0,0.005887,0,0.026296,0,0.004654,inferred,Stations_USGS
TEOL,Teolo,11.673889,45.361667,seismic,807.41,2.6,0.63,0,0.001723,0,0.245,0,0.003187,0,0.005584,0,0.00055,inferred,Stations_USGS
EQUI,,10.153,44.166,seismic,900,2.3,0.63,0,0.000372,0,0.1083,0,0.000763,0,0.000778,0,0.000368,inferred,Stations_USGS
ARSA,,15.5232,47.2505,seismic,760,1,0.63,0,9.10E-05,0,0.0095,0,0.000225,0,0.000109,0,6.70E-05,inferred,Stations_USGS
MDAR,,13.1427,43.1927,seismic,630.4,5,0.63,0,0.094303,0,5.8507,0,0.209119,0,0.0196,0,0.005374,inferred,Stations_USGS
PTRP,,16.06124,40.52148,seismic,732.15,1.6,0.63,0,0.002137,0,0.0558,0,0.000746,0,0.00101,0,0.000183,inferred,Stations_USGS
RRL,,6.79083,44.92083,seismic,760,null,null,,,,,,,,,,,inferred,Stations_USGS
BHB,,7.26333,44.83517,seismic,760,1,0.63,0,0.000625,0,0.0064,0,0.000138,0,3.80E-05,0,2.20E-05,inferred,Stations_USGS
ENR,,7.42033,44.22666,seismic,760,1,0.63,0,0.000516,0,0.0064,0,0.00012,0,9.70E-05,0,2.20E-05,inferred,Stations_USGS
CIMO,Cimolais,12.4448,46.3116,seismic,760,1.3,0.63,0,0.000252,0,0.0262,0,0.000676,0,0.000326,0,8.50E-05,inferred,Stations_USGS
CAPR,,9.9345,45.6372,seismic,760,1.3,0.63,0,0.000201,0,0.0352,0,0.00036,0,0.000671,0,0.000159,inferred,Stations_USGS
OSSC,,11.24579,43.52358,seismic,523.64,3,0.63,0,0.001216,0,0.4658,0,0.001834,0,0.003207,0,0.001127,inferred,Stations_USGS
SRES,,12.50993,42.23696,seismic,531.98,3.8,0.63,0,0.006642,0,1.3861,0,0.013349,0,0.007122,0,0.004667,inferred,Stations_USGS
MRB1,,14.96815,41.1227,seismic,550.46,3.5,0.63,0,0.006714,0,0.711,0,0.004373,0,0.004783,0,0.003929,inferred,Stations_USGS
MRGE,,7.06101,45.76975,seismic,760,null,null,,,,,,,,,,,inferred,Stations_USGS
CERT,,12.98176,41.94903,seismic,900,null,null,,,,,,,,,,,inferred,Stations_USGS
STV,,7.326,44.2455,seismic,760,null,null,,,,,,,,,,,inferred,Stations_USGS
VARE,,8.77,45.867695,seismic,760,null,null,,,,,,,,,,,inferred,Stations_USGS
ESML,,14.8794,37.6181,seismic,760,null,null,,,,,,,,,,,inferred,Stations_USGS
VSL,,9.378,39.496,seismic,760,null,null,,,,,,,,,,,inferred,Stations_USGS
GSCL,,10.5881,44.35047,seismic,857.61,2.7,0.63,0,0.000661,0,0.2899,0,0.001711,0,0.001603,0,0.001157,inferred,Stations_USGS
FIU1,,12.931604,43.188561,seismic,584.89,3.9,0.63,0,0.06659,0,1.9499,0,0.096755,0,0.004823,0,0.001667,inferred,Stations_USGS
DIX,,7.40815,46.08007,seismic,760,null,null,,,,,,,,,,,inferred,Stations_USGS
IFIL,,14.5753,38.5642,seismic,760,1,0.63,0,0.000867,0,0.0087,0,0.000188,0,6.20E-05,0,1.90E-05,inferred,Stations_USGS
ACER,,15.9427,40.7867,seismic,891.66,2.5,0.63,0,0.000792,0,0.1966,0,0.001576,0,0.002303,0,0.000913,inferred,Stations_USGS
CARD,,10.4821,44.026,seismic,760.92,2.5,0.63,0,0.000765,0,0.2163,0,0.001815,0,0.001113,0,0.000458,inferred,Stations_USGS
GRAM,,10.0658,44.4913,seismic,536.03,2.3,0.63,0,0.000652,0,0.1581,0,0.002357,0,0.001117,0,0.000467,inferred,Stations_USGS
AGOR,,12.0472,46.2329,seismic,760,1.4,0.63,0,0.000305,0,0.0446,0,0.001018,0,0.001077,0,0.000322,inferred,Stations_USGS
CFMN,,14.0935,40.8329,seismic,447.51,3.5,0.63,0,0.074641,0,1.0663,0,0.019235,0,0.005127,0,0.006048,inferred,Stations_USGS
T1245,,13.18798,42.85654,seismic,900,8.6,0.63,0,2.203722,0,76.7366,0,1.873615,0,1.625921,0,0.074665,inferred,Stations_USGS
LMD,,11.707267,44.07746,seismic,581.9,3.2,0.63,0,0.004398,0,0.6126,0,0.005853,0,0.002714,0,0.001404,inferred,Stations_USGS
GALF,,14.5665,37.7107,seismic,760,null,null,,,,,,,,,,,inferred,Stations_USGS
EPZF,,14.857,37.824,seismic,760,null,null,,,,,,,,,,,inferred,Stations_USGS
T1299,,13.282205,42.634223,seismic,423.46,6.6,0.63,0,0.469522,0,18.8815,0,0.748575,0,0.190052,0,0.041313,inferred,Stations_USGS
SACS,,11.90967,42.84906,seismic,575.74,4,0.63,0,0.00655,0,2.2304,0,0.013427,0,0.009588,0,0.005179,inferred,Stations_USGS
ASOL,,11.9023,45.8003,seismic,760,2.3,0.63,0,0.001339,0,0.1495,0,0.004781,0,0.002251,0,0.000782,inferred,Stations_USGS
CDCA,,12.2336,43.4584,seismic,231.22,4.1,0.63,0,0.015992,0,2.6159,0,0.036167,0,0.043743,0,0.009615,inferred,Stations_USGS
FSSB,,12.77707,43.69309,seismic,640.73,3.3,0.63,0,0.042549,0,0.7266,0,0.047472,0,0.008909,0,0.002232,inferred,Stations_USGS
TRTR,,13.9138,42.8081,seismic,533.16,3.3,0.63,0,0.042908,0,0.7351,0,0.046943,0,0.020742,0,0.004146,inferred,Stations_USGS
BOB,,9.44782,44.76792,seismic,760,2.2,0.63,0,0.000504,0,0.0822,0,0.00067,0,0.001491,0,0.000501,inferred,Stations_USGS
INTR,,13.9046,42.01154,seismic,663.36,2.9,0.63,0,0.025665,0,0.3713,0,0.014191,0,0.004421,0,0.001613,inferred,Stations_USGS
MONC,,7.9271,45.0739,seismic,760,null,null,,,,,,,,,,,inferred,Stations_USGS
IMOL,,11.74248,44.35955,seismic,196.27,3.5,0.63,0,0.002983,0,1.0825,0,0.005661,0,0.006026,0,0.004334,inferred,Stations_USGS
AQU,,13.405,42.354,seismic,470.18,5.2,0.63,0,0.045767,0,6.417,0,0.100087,0,0.063797,0,0.026542,inferred,Stations_USGS
MSRU,,15.5083,38.2639,seismic,760,null,null,,,,,,,,,,,inferred,Stations_USGS
CADA,,13.7614,43.1942,seismic,416.04,5,0.63,0,0.053987,0,5.6173,0,0.119647,0,0.043462,0,0.01437,inferred,Stations_USGS
MSSA,Maissana,9.51739,44.31625,seismic,760,1.9,0.63,0,0.003253,0,0.0641,0,0.001429,0,0.000548,0,0.000106,inferred,Stations_USGS
CNCS,,10.217,45.606,seismic,760,1.6,0.63,0,0.000416,0,0.0347,0,0.001376,0,0.000394,0,0.000149,inferred,Stations_USGS
MELA,,15.127,41.7059,seismic,437.82,3.5,0.63,0,0.021392,0,0.7028,0,0.011772,0,0.008126,0,0.003646,inferred,Stations_USGS
CARE,,10.6945,46.4252,seismic,760,1,0.63,0,0.000137,0,0.019,0,0.000394,0,0.000205,0,7.00E-05,inferred,Stations_USGS
FAEN,,11.877,44.2895,seismic,236.61,3.8,0.63,0,0.004569,0,1.5923,0,0.010268,0,0.013561,0,0.00569,inferred,Stations_USGS
GMB,,15.82888,38.16807,seismic,760,null,null,,,,,,,,,,,inferred,Stations_USGS
VAGA,,14.2342,41.4154,seismic,675.85,3.2,0.63,0,0.002581,0,0.5999,0,0.004558,0,0.005163,0,0.00342,inferred,Stations_USGS
SALB,,16.3459,39.8772,seismic,760,null,null,,,,,,,,,,,inferred,Stations_USGS
BOSI,,11.3185,46.4952,seismic,760,2.1,0.63,0,0.000877,0,0.1158,0,0.002428,0,0.003968,0,0.000669,inferred,Stations_USGS
BSSO,,14.5938,41.5461,seismic,486.47,3.7,0.63,0,0.002742,0,1.3453,0,0.003227,0,0.005198,0,0.004422,inferred,Stations_USGS
ATMI,,12.26801,43.33419,seismic,422.95,3.4,0.63,0,0.044121,0,0.6737,0,0.046721,0,0.011217,0,0.003083,inferred,Stations_USGS
PIO1,,12.983759,43.178198,seismic,900,null,null,0,0.003802,0,0.0858,0,0.002642,0,0.002049,0,0.000238,inferred,Stations_USGS
MODR,,13.8779,41.1459,seismic,575.63,null,null,,,,,,,,,,,inferred,Stations_USGS
FROS,,11.15622,43.20972,seismic,561.33,3.1,0.63,0,0.001502,0,0.4581,0,0.003165,0,0.003092,0,0.001337,inferred,Stations_USGS
CTL8,,9.7622,45.2763,seismic,225.45,2.1,0.63,0,0.000517,0,0.1129,0,0.001155,0,0.00072,0,0.000733,inferred,Stations_USGS
CUC,,15.8155,39.9938,seismic,760,1.8,0.63,0,0.00013,0,0.0666,0,0.000567,0,0.000379,0,0.000243,inferred,Stations_USGS
BLY,,17.1839,44.7488,seismic,760,2.3,0.63,0,0.000413,0,0.069,0,0.000905,0,0.001608,0,0.000399,inferred,Stations_USGS
GAG1,,13.067434,43.238063,seismic,585.33,5.5,0.63,0,0.176857,0,8.4285,0,0.70708,0,0.055415,0,0.00767,inferred,Stations_USGS
GIGS,,13.572833,42.453167,seismic,880.93,3.6,0.63,0,0.026242,0,1.2458,0,0.026915,0,0.010051,0,0.009379,inferred,Stations_USGS
MILZ,,15.2313,38.2713,seismic,760,null,null,,,,,,,,,,,inferred,Stations_USGS
BAG8,,10.4664,45.8228,seismic,760,1,0.63,0,0.00027,0,0.0235,0,0.000621,0,0.00039,0,0.000153,inferred,Stations_USGS
PZZ,,7.116,44.5068,seismic,760,null,null,,,,,,,,,,,inferred,Stations_USGS
CAFE,,15.2366,41.028,seismic,546.14,3.4,0.63,0,0.00126,0,0.6651,0,0.003363,0,0.002008,0,0.002186,inferred,Stations_USGS
MSFR,,14.5916,38.0339,seismic,760,null,null,,,,,,,,,,,inferred,Stations_USGS
MABI,,10.514,46.05492,seismic,760,1,0.63,0,0.001941,0,0.0209,0,0.000538,0,0.000141,0,6.20E-05,inferred,Stations_USGS
LTRZ,,16.8191,40.60325,seismic,760,1.6,0.63,0,0.000325,0,0.052,0,0.000787,0,0.000558,0,0.00015,inferred,Stations_USGS
RDP,,12.7103,41.76039,seismic,817.25,3.4,0.63,0,0.03747,0,0.7346,0,0.030349,0,0.012009,0,0.004375,inferred,Stations_USGS
RESU,,14.0568,37.6468,seismic,760,null,null,,,,,,,,,,,inferred,Stations_USGS
CLTB,,13.21562,37.57857,seismic,760,1,0.63,0,0.001044,0,0.0227,0,0.000464,0,0.00015,0,0.000106,inferred,Stations_USGS
PLMA,,9.853652,44.049818,seismic,421.07,1.9,0.63,0,0.002484,0,0.0819,0,0.000908,0,0.000417,0,0.00029,inferred,Stations_USGS
VBKN,,14.4299,40.83,seismic,653.63,2.7,0.63,0,0.029413,0,0.2848,0,0.007582,0,0.002309,0,0.00074,inferred,Stations_USGS
AM05,,13.352786,42.977404,seismic,605.04,4,0.63,0,0.075813,0,1.938,0,0.048989,0,0.015219,0,0.004215,inferred,Stations_USGS
GATE,,14.910201,41.513145,seismic,745.85,3.7,0.63,0,0.00237,0,1.3107,0,0.003249,0,0.00432,0,0.003668,inferred,Stations_USGS
CAPA,,15.816928,41.158295,seismic,383.86,2.9,0.63,0,0.001531,0,0.3852,0,0.00224,0,0.004379,0,0.00309,inferred,Stations_USGS
T1201,,13.2508,42.6573,seismic,467.49,null,null,0,0.482786,0,83.0169,0,0.79515,0,0.936918,0,0.079806,inferred,Stations_USGS
SABO,Sabotino,13.6337,45.9875,seismic,760,2.5,0.63,0,0.001295,0,0.0833,0,0.004553,0,0.001302,0,8.30E-05,inferred,Stations_USGS
FEMA,,13.04976,42.9621,seismic,900,6.7,0.63,0,0.206511,0,19.3371,0,0.40961,0,0.096155,0,0.016324,inferred,Stations_USGS
SNTG,,12.94057,43.255,seismic,900,null,null,0,0.038155,0,0.7672,0,0.011299,0,0.003003,0,0.000806,inferred,Stations_USGS
TREM,,15.51,42.123,seismic,600,3.2,0.63,0,0.043166,0,0.67,0,0.008857,0,0.010558,0,0.001737,inferred,Stations_USGS
SOLUN,,13.53261,38.09193,seismic,760,null,null,,,,,,,,,,,inferred,Stations_USGS
FIR,,11.255134,43.774366,seismic,401.77,3.1,0.63,0,0.003815,0,0.5521,0,0.005167,0,0.004706,0,0.001658,inferred,Stations_USGS
PSB1,,14.81078,41.22345,seismic,332.73,3.4,0.63,0,0.001987,0,0.619,0,0.002468,0,0.003601,0,0.002155,inferred,Stations_USGS
PCRO,,13.53233,43.60768,seismic,473.68,4.3,0.63,0,0.050293,0,2.8332,0,0.123056,0,0.025754,0,0.002996,inferred,Stations_USGS
T1241,,13.43116,42.85635,seismic,544.55,5.9,0.63,0,0.101615,0,9.6289,0,0.280013,0,0.093553,0,0.026312,inferred,Stations_USGS
PRMA,Parma,10.31311,44.76374,seismic,271.01,2.6,0.63,0,0.000604,0,0.2648,0,0.000921,0,0.001043,0,0.00168,inferred,Stations_USGS
IFOR,,13.8551,40.7115,seismic,600,3.3,0.63,0,0.004087,0,0.7522,0,0.006186,0,0.021389,0,0.002595,inferred,Stations_USGS
MESG,,17.850423,40.589408,seismic,760,1,0.63,0,0.00146,0,0.0155,0,0.000287,0,0.000198,0,2.60E-05,inferred,Stations_USGS
CAVE,,11.0031,44.8658,seismic,208.69,2.6,0.63,0,0.000952,0,0.2387,0,0.004816,0,0.002228,0,0.001216,inferred,Stations_USGS
MMK,,7.96399,46.05053,seismic,760,null,null,,,,,,,,,,,inferred,Stations_USGS
SEF1,,12.94762,43.14683,seismic,610.74,3.2,0.63,0,0.010169,0,0.4961,0,0.019836,0,0.002437,0,0.000395,inferred,Stations_USGS
LAV9,,12.69888,41.67778,seismic,542.38,4.2,0.63,0,0.047692,0,0.8011,0,0.023525,0,0.009252,0,0.005158,inferred,Stations_USGS
ZOVE,,11.4876,45.4536,seismic,760,null,null,,,,,,,,,,,inferred,Stations_USGS
VVLD,,13.62324,41.86965,seismic,900,3.3,0.63,0,0.026438,0,0.7322,0,0.013702,0,0.016981,0,0.003326,inferred,Stations_USGS
TRAV,,7.747,45.51267,seismic,760,null,null,,,,,,,,,,,inferred,Stations_USGS
LNSS,,13.04032,42.60286,seismic,900,null,null,0,0.051854,0,0.7157,0,0.055072,0,0.012845,0,0.00455,inferred,Stations_USGS
TIR,,19.8631,41.3472,seismic,760,null,null,,,,,,,,,,,inferred,Stations_USGS
UTM:(33T 041 468 10000),,13.9686,42.3126,macroseismic,415.11,5.5,0.3,0.8059,0.087648,0.875,8.2621,1.0131,0.205257,1.0822,0.109716,1.4737,0.023279,inferred,Stations_USGS
UTM:(33T 043 468 10000),,14.2112,42.3145,macroseismic,322.52,5.2,0.3,0.8059,0.069516,0.875,6.6398,1.0131,0.169646,1.0822,0.088883,1.4737,0.019087,inferred,Stations_USGS
UTM:(33T 035 484 10000),,13.1992,43.7438,macroseismic,600,4.3,0.3,0.8059,0.040987,0.875,3.4462,1.0131,0.054161,1.0822,0.039778,1.4737,0.008563,inferred,Stations_USGS
UTM:(33T 036 469 10000),,13.3597,42.3955,macroseismic,891.34,6.3,0.3,0.8059,0.167654,0.875,14.7997,1.0131,0.346694,1.0822,0.188805,1.4737,0.038707,inferred,Stations_USGS
UTM:(33T 046 509 10000),,14.5479,46.0077,macroseismic,760,2.6,0.3,,,,,,,,,,,inferred,Stations_USGS
UTM:(33T 046 510 10000),,14.5472,46.0977,macroseismic,760,2.7,0.3,,,,,,,,,,,inferred,Stations_USGS
UTM:(33T 039 479 10000),,13.7055,43.3005,macroseismic,420.36,5,0.3,0.8059,0.070147,0.875,5.7393,1.0131,0.160245,1.0822,0.069874,1.4737,0.014944,inferred,Stations_USGS
UTM:(33T 037 481 10000),,13.4544,43.4775,macroseismic,554.64,4.5,0.3,0.8059,0.050383,0.875,3.9869,1.0131,0.079044,1.0822,0.047552,1.4737,0.010334,inferred,Stations_USGS
UTM:(32T 068 493 10000),,11.3289,44.5446,macroseismic,235.65,3.2,0.3,,,,,,,,,,,inferred,Stations_USGS
UTM:(33T 031 462 10000),,12.7747,41.7553,macroseismic,573.3,3.8,0.3,,,,,,,,,,,inferred,Stations_USGS
UTM:(33T 040 505 10000),,13.781,45.642,macroseismic,760,3.2,0.3,,,,,,,,,,,inferred,Stations_USGS
UTM:(33T 032 459 10000),,12.9037,41.4875,macroseismic,252.51,4.2,0.3,0.8059,0.028754,0.875,3.0313,1.0131,0.040009,1.0822,0.03977,1.4737,0.00884,inferred,Stations_USGS
UTM:(33T 031 473 10000),,12.7397,42.7452,macroseismic,390.81,4,0.3,0.8059,0.047135,0.875,2.216,1.0131,0.054798,1.0822,0.017143,1.4737,0.002665,inferred,Stations_USGS
UTM:(32T 070 496 10000),,11.5924,44.809,macroseismic,183.74,2.9,0.3,,,,,,,,,,,inferred,Stations_USGS
UTM:(33T 030 466 10000),,12.6413,42.1128,macroseismic,281.76,4.8,0.3,0.8059,0.057182,0.875,4.961,1.0131,0.110092,1.0822,0.062606,1.4737,0.013548,inferred,Stations_USGS
UTM:(32T 071 477 10000),,11.6419,43.0972,macroseismic,448.44,3.2,0.3,,,,,,,,,,,inferred,Stations_USGS
UTM:(33T 030 477 10000),,12.6037,43.1026,macroseismic,459.62,5.2,0.3,0.8059,0.088415,0.875,6.6398,1.0131,0.192509,1.0822,0.076702,1.4737,0.016181,inferred,Stations_USGS
UTM:(33T 028 506 10000),,12.238,45.7051,macroseismic,760,2,0.3,,,,,,,,,,,inferred,Stations_USGS
UTM:(33T 038 481 10000),,13.578,43.4791,macroseismic,394.25,5.1,0.3,0.8059,0.071911,0.875,6.1731,1.0131,0.168784,1.0822,0.077403,1.4737,0.016552,inferred,Stations_USGS
UTM:(33T 031 461 10000),,12.7778,41.6653,macroseismic,441.38,3.2,0.3,,,,,,,,,,,inferred,Stations_USGS
UTM:(33T 028 504 10000),,12.2468,45.5253,macroseismic,760,2,0.3,,,,,,,,,,,inferred,Stations_USGS
UTM:(33T 028 463 10000),,12.4106,41.8377,macroseismic,344.58,4.2,0.3,0.8059,0.032786,0.875,3.0313,1.0131,0.042945,1.0822,0.037278,1.4737,0.008022,inferred,Stations_USGS
UTM:(32T 068 485 10000),,11.3007,43.8249,macroseismic,631.39,3.5,0.3,,,,,,,,,,,inferred,Stations_USGS
UTM:(31U 044 539 10000),,2.2524,48.7056,macroseismic,760,1,0.3,,,,,,,,,,,inferred,Stations_USGS
UTM:(33T 033 462 10000),,13.0152,41.7597,macroseismic,289.23,5.5,0.3,0.8059,0.081096,0.875,8.2621,1.0131,0.197043,1.0822,0.115067,1.4737,0.024555,inferred,Stations_USGS
UTM:(32T 068 492 10000),,11.3253,44.4546,macroseismic,318.59,2.9,0.3,,,,,,,,,,,inferred,Stations_USGS
UTM:(32T 051 503 10000),,9.1919,45.4683,macroseismic,760,2,0.3,,,,,,,,,,,inferred,Stations_USGS
UTM:(33T 042 469 10000),,14.0886,42.4037,macroseismic,375.01,5.4,0.3,0.8059,0.081889,0.875,7.6814,1.0131,0.193568,1.0822,0.101698,1.4737,0.02165,inferred,Stations_USGS
UTM:(33T 038 474 10000),,13.5925,42.8489,macroseismic,474.89,6.8,0.3,0.8059,0.251607,0.875,21.305,1.0131,0.481243,1.0822,0.264966,1.4737,0.053164,inferred,Stations_USGS
UTM:(33T 040 504 10000),,13.7829,45.552,macroseismic,760,2,0.3,,,,,,,,,,,inferred,Stations_USGS
UTM:(33T 026 470 10000),,12.1418,42.4617,macroseismic,374.47,3.8,0.3,,,,,,,,,,,inferred,Stations_USGS
UTM:(31U 045 541 10000),,2.3862,48.8863,macroseismic,760,1,0.3,,,,,,,,,,,inferred,Stations_USGS
UTM:(33T 044 451 10000),,14.3481,40.7841,macroseismic,600,2.7,0.3,,,,,,,,,,,inferred,Stations_USGS
UTM:(33T 029 463 10000),,12.5309,41.8403,macroseismic,339.33,4.3,0.3,0.8059,0.038432,0.875,3.4462,1.0131,0.049853,1.0822,0.042909,1.4737,0.009595,inferred,Stations_USGS
UTM:(33T 040 496 10000),,13.7982,44.8321,macroseismic,600,2.2,0.3,,,,,,,,,,,inferred,Stations_USGS
UTM:(33T 030 462 10000),,12.6546,41.7529,macroseismic,600,3.9,0.3,,,,,,,,,,,inferred,Stations_USGS
UTM:(33T 027 463 10000),,12.2903,41.8349,macroseismic,300.28,4.3,0.3,0.8059,0.037047,0.875,3.4462,1.0131,0.048518,1.0822,0.043987,1.4737,0.009948,inferred,Stations_USGS
UTM:(32T 073 481 10000),,11.9044,43.451,macroseismic,489.85,3.8,0.3,,,,,,,,,,,inferred,Stations_USGS
UTM:(33T 043 470 10000),,14.209,42.4946,macroseismic,600,4.2,0.3,0.8059,0.038363,0.875,3.0313,1.0131,0.047025,1.0822,0.03431,1.4737,0.007082,inferred,Stations_USGS
UTM:(33T 029 464 10000),,12.5275,41.9303,macroseismic,270.7,4.3,0.3,0.8059,0.039301,0.875,3.4462,1.0131,0.05131,1.0822,0.041794,1.4737,0.009223,inferred,Stations_USGS
UTM:(33T 043 452 10000),,14.2286,40.8735,macroseismic,580.59,3.1,0.3,,,,,,,,,,,inferred,Stations_USGS
UTM:(33T 030 468 10000),,12.6346,42.2928,macroseismic,396.16,4.6,0.3,0.8059,0.053749,0.875,4.2882,1.0131,0.090866,1.0822,0.051405,1.4737,0.011137,inferred,Stations_USGS
UTM:(33T 026 473 10000),,12.1294,42.7315,macroseismic,443.84,4,0.3,0.8059,0.033551,0.875,2.216,1.0131,0.038867,1.0822,0.023466,1.4737,0.00427,inferred,Stations_USGS
UTM:(32T 065 503 10000),,10.9823,45.4513,macroseismic,760,2,0.3,,,,,,,,,,,inferred,Stations_USGS
UTM:(32T 069 504 10000),,11.4973,45.5312,macroseismic,760,2,0.3,,,,,,,,,,,inferred,Stations_USGS
UTM:(33T 029 488 10000),,12.4392,44.0895,macroseismic,256.6,4.3,0.3,0.8059,0.034493,0.875,3.4462,1.0131,0.046683,1.0822,0.045785,1.4737,0.010155,inferred,Stations_USGS
UTM:(33T 037 482 10000),,13.4521,43.5675,macroseismic,544.8,4.2,0.3,0.8059,0.040393,0.875,3.0313,1.0131,0.050253,1.0822,0.03229,1.4737,0.006466,inferred,Stations_USGS
UTM:(33T 035 482 10000),,13.2045,43.5638,macroseismic,430.6,4.8,0.3,0.8059,0.059762,0.875,4.961,1.0131,0.116531,1.0822,0.060936,1.4737,0.013143,inferred,Stations_USGS
UTM:(33T 030 471 10000),,12.6244,42.5628,macroseismic,312.74,6.3,0.3,0.8059,0.172501,0.875,14.7997,1.0131,0.351928,1.0822,0.185535,1.4737,0.037956,inferred,Stations_USGS
UTM:(32T 068 479 10000),,11.2802,43.2851,macroseismic,309.53,3,0.3,,,,,,,,,,,inferred,Stations_USGS
UTM:(33T 034 485 10000),,13.0722,43.8318,macroseismic,600,5.2,0.3,0.8059,0.069869,0.875,6.6398,1.0131,0.170098,1.0822,0.088608,1.4737,0.019021,inferred,Stations_USGS
UTM:(33T 030 463 10000),,12.6513,41.8429,macroseismic,326.09,3.7,0.3,,,,,,,,,,,inferred,Stations_USGS
UTM:(33T 051 488 10000),,15.1875,44.118,macroseismic,600,2.5,0.3,,,,,,,,,,,inferred,Stations_USGS
UTM:(33T 031 463 10000),,12.7716,41.8453,macroseismic,411.14,4.6,0.3,0.8059,0.047067,0.875,4.2882,1.0131,0.076587,1.0822,0.055762,1.4737,0.0122,inferred,Stations_USGS
UTM:(33T 030 488 10000),,12.564,44.0922,macroseismic,600,3.8,0.3,,,,,,,,,,,inferred,Stations_USGS
UTM:(33T 029 466 10000),,12.5205,42.1103,macroseismic,231.75,4.7,0.3,0.8059,0.052949,0.875,4.6124,1.0131,0.094271,1.0822,0.05835,1.4737,0.012677,inferred,Stations_USGS
UTM:(32T 068 484 10000),,11.2972,43.7349,macroseismic,228.82,3.3,0.3,,,,,,,,,,,inferred,Stations_USGS
UTM:(33T 032 469 10000),,12.874,42.3876,macroseismic,900,4.6,0.3,0.8059,0.058319,0.875,4.2882,1.0131,0.100936,1.0822,0.048897,1.4737,0.01053,inferred,Stations_USGS
UTM:(33T 026 466 10000),,12.158,42.1019,macroseismic,399.93,3.8,0.3,,,,,,,,,,,inferred,Stations_USGS
UTM:(33T 028 464 10000),,12.407,41.9277,macroseismic,298.47,4.2,0.3,0.8059,0.034448,0.875,3.0313,1.0131,0.044106,1.0822,0.03638,1.4737,0.007733,inferred,Stations_USGS
UTM:(33T 043 469 10000),,14.2101,42.4046,macroseismic,439.93,4.6,0.3,0.8059,0.04856,0.875,4.2882,1.0131,0.079729,1.0822,0.054705,1.4737,0.011941,inferred,Stations_USGS
UTM:(33T 030 484 10000),,12.5787,43.7324,macroseismic,455.43,3.7,0.3,,,,,,,,,,,inferred,Stations_USGS
UTM:(33T 043 453 10000),,14.2275,40.9635,macroseismic,282.36,2.7,0.3,,,,,,,,,,,inferred,Stations_USGS
UTM:(33T 037 478 10000),,13.4612,43.2074,macroseismic,474.65,6.6,0.3,0.8059,0.21084,0.875,18.4158,1.0131,0.418903,1.0822,0.233425,1.4737,0.047291,inferred,Stations_USGS
UTM:(33T 029 489 10000),,12.4353,44.1794,macroseismic,600,3.4,0.3,,,,,,,,,,,inferred,Stations_USGS
UTM:(33T 028 477 10000),,12.3581,43.0972,macroseismic,542.44,4.5,0.3,0.8059,0.052287,0.875,3.9869,1.0131,0.08291,1.0822,0.046483,1.4737,0.010074,inferred,Stations_USGS
UTM:(33T 036 510 10000),,13.2538,46.0852,macroseismic,760,2.6,0.3,,,,,,,,,,,inferred,Stations_USGS
UTM:(33T 028 465 10000),,12.4033,42.0176,macroseismic,326.05,3.9,0.3,,,,,,,,,,,inferred,Stations_USGS
UTM:(33T 038 480 10000),,13.5801,43.389,macroseismic,428.96,6.1,0.3,0.8059,0.138475,0.875,12.7927,1.0131,0.2995,1.0822,0.167809,1.4737,0.034774,inferred,Stations_USGS
UTM:(33T 027 479 10000),,12.2272,43.2742,macroseismic,771.47,3.8,0.3,,,,,,,,,,,inferred,Stations_USGS
UTM:(32T 072 503 10000),,11.8765,45.4323,macroseismic,760,2.9,0.3,,,,,,,,,,,inferred,Stations_USGS
UTM:(33T 027 492 10000),,12.1725,44.4433,macroseismic,180,3.4,0.3,,,,,,,,,,,inferred,Stations_USGS
UTM:(33T 026 490 10000),,12.056,44.2603,macroseismic,223.2,3.2,0.3,,,,,,,,,,,inferred,Stations_USGS
UTM:(33T 027 462 10000),,12.2941,41.745,macroseismic,221.2,3.9,0.3,,,,,,,,,,,inferred,Stations_USGS
UTM:(33T 030 464 10000),,12.648,41.9329,macroseismic,360.11,3.9,0.3,,,,,,,,,,,inferred,Stations_USGS
UTM:(33T 030 465 10000),,12.6446,42.0229,macroseismic,447.68,5.9,0.3,0.8059,0.110289,0.875,11.0579,1.0131,0.25383,1.0822,0.15251,1.4737,0.032031,inferred,Stations_USGS
UTM:(32T 070 482 10000),,11.5378,43.5498,macroseismic,426.1,3,0.3,,,,,,,,,,,inferred,Stations_USGS
UTM:(31U 044 540 10000),,2.2511,48.7955,macroseismic,760,2,0.3,,,,,,,,,,,inferred,Stations_USGS
UTM:(33T 028 462 10000),,12.4142,41.7477,macroseismic,284.05,4.3,0.3,0.8059,0.036296,0.875,3.4462,1.0131,0.047984,1.0822,0.044434,1.4737,0.010007,inferred,Stations_USGS
UTM:(33T 033 486 10000),,12.9448,43.9196,macroseismic,600,4.7,0.3,0.8059,0.049835,0.875,4.6124,1.0131,0.087191,1.0822,0.060559,1.4737,0.013216,inferred,Stations_USGS
UTM:(33T 029 503 10000),,12.3789,45.4384,macroseismic,760,2.6,0.3,,,,,,,,,,,inferred,Stations_USGS