STATION_ID,STATION_NAME,LONGITUDE,LATITUDE,STATION_TYPE,VS30,MMI_VALUE,MMI_STDDEV,PGA_LN_SIGMA,PGA_VALUE,PGV_LN_SIGMA,PGV_VALUE,SA(0.3)_LN_SIGMA,SA(0.3)_VALUE,SA(1.0)_LN_SIGMA,SA(1.0)_VALUE,SA(3.0)_LN_SIGMA,SA(3.0)_VALUE,VS30_TYPE,REFERENCES
CIMA,CIMA,13.670091,43.305297,seismic,760,3.7,0.63,0,0.003496,0,0.8637,0,0.004438,0,0.012092,0,0.00428,inferred,Stations_USGS
COR1,COR1,13.0003,43.6318,seismic,760,3.5,0.63,0,0.002771,0,0.8019,0,0.003068,0,0.006238,0,0.003086,inferred,Stations_USGS
FANO,FANO,13.018354,43.843471,seismic,760,3.3,0.63,0,0.002641,0,0.6522,0,0.003845,0,0.007286,0,0.002713,inferred,Stations_USGS
FCOR,FCOR,12.81459,43.76911,seismic,760,3,0.63,0,0.002092,0,0.4351,0,0.002187,0,0.002992,0,0.001873,inferred,Stations_USGS
FRE8,FRE8,12.3552,46.015,seismic,760,3.1,0.63,0,0.003533,0,0.5087,0,0.008581,0,0.005678,0,0.001158,inferred,Stations_USGS
FREG,FREG,12.312986,46.011092,seismic,760,3.4,0.63,0,0.007486,0,0.5441,0,0.019389,0,0.004193,0,0.001649,inferred,Stations_USGS
GUMA,GUMA,13.3352,43.0627,seismic,760,3.2,0.63,0,0.002385,0,0.5805,0,0.004945,0,0.003661,0,0.002381,inferred,Stations_USGS
MCIF,MCIF,12.631683,43.811583,seismic,760,3.3,0.63,0,0.001901,0,0.4417,0,0.003444,0,0.004812,0,0.002131,inferred,Stations_USGS
MNTP,MNTP,13.4692,43.1373,seismic,760,3.3,0.63,0,0.001782,0,0.7347,0,0.003562,0,0.003865,0,0.003351,inferred,Stations_USGS
MPAG,MPAG,12.7595,43.6292,seismic,760,2.6,0.63,0,0.000841,0,0.2342,0,0.001306,0,0.002559,0,0.000869,inferred,Stations_USGS
MSAG,MSAG,15.9096,41.712,seismic,760,2.7,0.63,0,0.000722,0,0.2628,0,0.001629,0,0.001231,0,0.000649,inferred,Stations_USGS
MTL1,MTL1,13.009601,43.256732,seismic,760,3,0.63,0,0.001782,0,0.4075,0,0.001929,0,0.004562,0,0.00146,inferred,Stations_USGS
SENI,SENI,13.2331,43.7052,seismic,760,3.5,0.63,0,0.003768,0,0.9801,0,0.010437,0,0.004391,0,0.002895,inferred,Stations_USGS
SSFR,SSFR,12.7822,43.4363,seismic,760,2.6,0.63,0,0.00078,0,0.2458,0,0.002809,0,0.001101,0,0.001049,inferred,Stations_USGS
STAL,STAL,12.7104,46.2601,seismic,760,3.2,0.63,0,0.002934,0,0.5596,0,0.007383,0,0.002699,0,0.001378,inferred,Stations_USGS
TERO,TERO,13.60393,42.62279,seismic,760,2.8,0.63,0,0.000556,0,0.3018,0,0.000737,0,0.001293,0,0.000808,inferred,Stations_USGS
TREM,TREM,15.51,42.123,seismic,760,3,0.63,0,0.001437,0,0.2804,0,0.001699,0,0.00439,0,0.000861,inferred,Stations_USGS
BLY,BLY,17.1839,44.7488,seismic,761.92,4,0.63,0,0.027559,0,1.1918,0,0.040612,0,0.013013,0,0.004015,inferred,Stations_USGS
DST2,DST2,13.8013,45.6589,seismic,570.42,3.5,0.63,0,0.008686,0,0.9605,0,0.034729,0,0.00379,0,0.001937,inferred,Stations_USGS
ACOM,ACOM,13.5137,46.548,seismic,597.07,3.3,0.63,0,0.004597,0,0.5623,0,0.018958,0,0.005723,0,0.000858,inferred,Stations_USGS
BOO,BOO,13.0984,46.3195,seismic,760,3.1,0.63,0,0.001896,0,0.48,0,0.004812,0,0.002059,0,0.000494,inferred,Stations_USGS
CIMO,CIMO,12.4448,46.3116,seismic,760,2.8,0.63,0,0.001026,0,0.308,0,0.002142,0,0.001211,0,0.000457,inferred,Stations_USGS
CLUD,CLUD,12.8814,46.4569,seismic,760,2.9,0.63,0,0.001369,0,0.3595,0,0.002029,0,0.003723,0,0.000686,inferred,Stations_USGS
DRE,DRE,13.645,46.1733,seismic,900,3.3,0.63,0,0.00517,0,0.4543,0,0.014489,0,0.004233,0,0.000877,inferred,Stations_USGS
FUSE,FUSE,13.0011,46.4142,seismic,760,3,0.63,0,0.001245,0,0.2846,0,0.002559,0,0.002595,0,0.000456,inferred,Stations_USGS
MLN,MLN,12.6154,46.1495,seismic,760,3.1,0.63,0,0.001639,0,0.4897,0,0.002597,0,0.002276,0,0.001526,inferred,Stations_USGS
MPRI,MPRI,12.9877,46.2408,seismic,760,3.4,0.63,0,0.002526,0,0.7906,0,0.008039,0,0.005149,0,0.001898,inferred,Stations_USGS
PRED,PRED,13.565,46.4428,seismic,900,3,0.63,0,0.00103,0,0.4477,0,0.003347,0,0.001935,0,0.000575,inferred,Stations_USGS
SABO,SABO,13.6336,45.9875,seismic,849.4,4.3,0.63,0,0.01893,0,3.1679,0,0.045659,0,0.026729,0,0.007684,inferred,Stations_USGS
BANR,BANR,21.137,45.3828,seismic,760,3.1,0.63,0,0.001143,0,0.5147,0,0.001717,0,0.003037,0,0.001954,inferred,Stations_USGS
BZS,BZS,21.6401,45.6188,seismic,760,2,0.63,0,0.000345,0,0.0939,0,0.000545,0,0.000611,0,0.000395,inferred,Stations_USGS
MDVR,MDVR,21.7128,44.7815,seismic,760,2.4,0.63,0,0.000298,0,0.1599,0,0.000487,0,0.000696,0,0.000354,inferred,Stations_USGS
SIRR,SIRR,21.663,46.2653,seismic,760,2,0.63,0,0.000285,0,0.0849,0,0.000474,0,0.000569,0,0.000374,inferred,Stations_USGS
BOJS,BOJS,15.2518,45.5043,seismic,355.96,3.7,0.63,0,0.009809,0,1.2432,0,0.019551,0,0.005891,0,0.001951,inferred,Stations_USGS
CADS,CADS,13.7368,46.2281,seismic,900,3.3,0.63,0,0.004944,0,0.6617,0,0.01126,0,0.003751,0,0.00101,inferred,Stations_USGS
CEY,CEY,14.4221,45.7381,seismic,568.48,3.5,0.63,0,0.007425,0,0.4041,0,0.022926,0,0.005575,0,0.001017,inferred,Stations_USGS
CRES,CRES,15.4569,45.826,seismic,573.79,4,0.63,0,0.025183,0,2.1992,0,0.07747,0,0.012912,0,0.001908,inferred,Stations_USGS
CRNS,CRNS,14.2613,46.0807,seismic,652.29,3.7,0.63,0,0.010817,0,0.8299,0,0.045287,0,0.00889,0,0.001367,inferred,Stations_USGS
GORS,GORS,13.9999,46.3174,seismic,678.71,3.1,0.63,0,0.003747,0,0.502,0,0.011083,0,0.002948,0,0.001049,inferred,Stations_USGS
KOGS,KOGS,16.2504,46.4481,seismic,366.04,3.8,0.63,0,0.022988,0,1.1352,0,0.033224,0,0.0099,0,0.004039,inferred,Stations_USGS
LJU,LJU,14.5278,46.0438,seismic,524.7,3.7,0.63,0,0.013893,0,1.3084,0,0.034716,0,0.009607,0,0.001871,inferred,Stations_USGS
MOZS,MOZS,14.4433,46.2941,seismic,614.2,3.7,0.63,0,0.007368,0,0.9826,0,0.017428,0,0.006895,0,0.001745,inferred,Stations_USGS
PERS,PERS,15.1139,46.6365,seismic,900,3.4,0.63,0,0.006929,0,0.8284,0,0.028062,0,0.004313,0,0.001311,inferred,Stations_USGS
SKDS,SKDS,14.0143,45.5464,seismic,458.99,3.1,0.63,0,0.002788,0,0.4762,0,0.009242,0,0.00354,0,0.001461,inferred,Stations_USGS
VISS,VISS,14.8393,45.8033,seismic,544.98,3.6,0.63,0,0.01285,0,1.0664,0,0.024423,0,0.006383,0,0.002297,inferred,Stations_USGS
VNDS,VNDS,14.7014,46.1016,seismic,864.32,3.7,0.63,0,0.011035,0,0.9611,0,0.024713,0,0.010762,0,0.003002,inferred,Stations_USGS
VOJS,VOJS,13.8877,46.0322,seismic,472.35,3.3,0.63,0,0.003553,0,0.4685,0,0.010765,0,0.005819,0,0.001336,inferred,Stations_USGS
MORH,MORH,18.6436,46.215,seismic,394.12,2.7,0.63,0,0.001826,0,0.2568,0,0.003042,0,0.003321,0,0.000787,inferred,Stations_USGS
MPLH,MPLH,17.5348,47.1712,seismic,436.51,2.9,0.63,0,0.001441,0,0.4003,0,0.003429,0,0.001993,0,0.001289,inferred,Stations_USGS
TIH,TIH,17.8877,46.9001,seismic,479.24,null,null,0,9.00E-06,0,0.0005,0,1.60E-05,0,4.00E-06,0,1.00E-06,inferred,Stations_USGS
TRI,TRI,13.764,45.709,seismic,355.92,2.6,0.63,0,0.002204,0,0.1636,0,0.005992,0,0.001513,0,0.000777,inferred,Stations_USGS
ARSA,ARSA,15.5232,47.2505,seismic,769.2,2.5,0.63,0,0.000973,0,0.1915,0,0.001862,0,0.001198,0,0.000947,inferred,Stations_USGS
SOKA,SOKA,15.0327,46.678,seismic,634.93,2.9,0.63,0,0.00236,0,0.3824,0,0.006116,0,0.002952,0,0.001019,inferred,Stations_USGS
Croatia.1,1,16.37750835,45.06698179,seismic,447.74,null,null,,,,,,,,,,,inferred,Stations_USGS
Croatia.2,2,16.38380158,45.08706838,seismic,509.57,null,null,,,,,,,,,,,inferred,Stations_USGS
Croatia.3,3,16.28570991,45.10393653,seismic,431.24,null,null,,,,,,,,,,,inferred,Stations_USGS
Croatia.4,4,16.41542468,45.12720399,seismic,364.96,null,null,,,,,,,,,,,inferred,Stations_USGS
Croatia.5,5,16.17030275,45.13512261,seismic,651.97,null,null,,,,,,,,,,,inferred,Stations_USGS
Croatia.6,6,16.44398392,45.14051868,seismic,436,null,null,,,,,,,,,,,inferred,Stations_USGS
Croatia.7,7,16.14498061,45.1484334,seismic,606.73,null,null,,,,,,,,,,,inferred,Stations_USGS
Croatia.8,8,16.46132378,45.15317662,seismic,497.82,null,null,,,,,,,,,,,inferred,Stations_USGS
Croatia.9,9,16.33325165,45.15624976,seismic,594.47,null,null,,,,,,,,,,,inferred,Stations_USGS
Croatia.10,10,16.1286575,45.18157537,seismic,585.05,null,null,,,,,,,,,,,inferred,Stations_USGS
Croatia.11,11,16.54834353,45.22101934,seismic,451.15,null,null,,,,,,,,,,,inferred,Stations_USGS
Croatia.12,12,16.16229563,45.22773472,seismic,530.37,null,null,,,,,,,,,,,inferred,Stations_USGS
Croatia.13,13,16.52936752,45.25420239,seismic,438.52,null,null,,,,,,,,,,,inferred,Stations_USGS
Croatia.14,14,16.17198605,45.26110381,seismic,375.16,null,null,,,,,,,,,,,inferred,Stations_USGS
Croatia.15,15,16.53896095,45.26459131,seismic,460.1,null,null,,,,,,,,,,,inferred,Stations_USGS
Croatia.16,16,16.54359953,45.2775006,seismic,436.82,null,null,,,,,,,,,,,inferred,Stations_USGS
Croatia.17,17,16.1385691,45.28106941,seismic,370.77,null,null,,,,,,,,,,,inferred,Stations_USGS
Croatia.18,18,15.96936446,45.29337351,seismic,446.99,null,null,,,,,,,,,,,inferred,Stations_USGS
Croatia.19,19,16.55299577,45.30892779,seismic,437.64,null,null,,,,,,,,,,,inferred,Stations_USGS
Croatia.20,20,15.69400151,45.32451305,seismic,377.74,null,null,,,,,,,,,,,inferred,Stations_USGS
Croatia.21,21,15.97252713,45.33333281,seismic,253.07,null,null,,,,,,,,,,,inferred,Stations_USGS
Croatia.22,22,16.08963271,45.33673285,seismic,385.01,null,null,,,,,,,,,,,inferred,Stations_USGS
Croatia.23,23,16.00731647,45.33674176,seismic,292.47,null,null,,,,,,,,,,,inferred,Stations_USGS
Croatia.24,24,16.5704822,45.33918719,seismic,340.88,null,null,,,,,,,,,,,inferred,Stations_USGS
Croatia.25,25,15.86320424,45.35348711,seismic,337.65,null,null,,,,,,,,,,,inferred,Stations_USGS
Croatia.26,26,15.78424296,45.36556143,seismic,340.46,null,null,,,,,,,,,,,inferred,Stations_USGS
Croatia.27,27,16.11968279,45.36560694,seismic,295.22,null,null,,,,,,,,,,,inferred,Stations_USGS
Croatia.28,28,16.49148298,45.3767475,seismic,340.31,null,null,,,,,,,,,,,inferred,Stations_USGS
Croatia.29,29,16.13930515,45.38570424,seismic,250.41,null,null,,,,,,,,,,,inferred,Stations_USGS
Croatia.30,30,16.16566071,45.38674081,seismic,397.8,null,null,,,,,,,,,,,inferred,Stations_USGS
Croatia.31,31,16.22091001,45.40339936,seismic,453.57,null,null,,,,,,,,,,,inferred,Stations_USGS
Croatia.32,32,16.41856872,45.41005858,seismic,250.16,null,null,,,,,,,,,,,inferred,Stations_USGS
Croatia.33,33,16.45335807,45.41449897,seismic,343.98,null,null,,,,,,,,,,,inferred,Stations_USGS
Croatia.34,34,16.19085053,45.41670949,seismic,408.31,null,null,,,,,,,,,,,inferred,Stations_USGS
Croatia.35,35,16.38224513,45.42336678,seismic,237.54,null,null,,,,,,,,,,,inferred,Stations_USGS
Croatia.36,36,16.27775964,45.44007637,seismic,280.85,null,null,,,,,,,,,,,inferred,Stations_USGS
Croatia.37,37,16.25570936,45.45336169,seismic,244.96,null,null,,,,,,,,,,,inferred,Stations_USGS
Croatia.38,38,16.0895938,45.47666254,seismic,494.66,null,null,,,,,,,,,,,inferred,Stations_USGS
Croatia.39,39,15.98988842,45.48439408,seismic,280.46,null,null,,,,,,,,,,,inferred,Stations_USGS
Croatia.40,40,16.16553436,45.48552188,seismic,275.79,null,null,,,,,,,,,,,inferred,Stations_USGS
Croatia.41,41,16.14022172,45.48882704,seismic,348.67,null,null,,,,,,,,,,,inferred,Stations_USGS
Croatia.42,42,16.19704281,45.50659963,seismic,208.93,null,null,,,,,,,,,,,inferred,Stations_USGS
Croatia.43,43,15.97095001,45.52546317,seismic,364.94,null,null,,,,,,,,,,,inferred,Stations_USGS
Croatia.44,44,16.02317198,45.56425774,seismic,316.15,null,null,,,,,,,,,,,inferred,Stations_USGS
Croatia.45,45,16.20984505,45.58303517,seismic,222.44,null,null,,,,,,,,,,,inferred,Stations_USGS
Croatia.46,46,16.04689898,45.58525337,seismic,266.64,null,null,,,,,,,,,,,inferred,Stations_USGS
Croatia.47,47,16.16553421,45.60293113,seismic,271.41,null,null,,,,,,,,,,,inferred,Stations_USGS
Croatia.48,48,16.13542898,45.61048326,seismic,265.69,null,null,,,,,,,,,,,inferred,Stations_USGS
Croatia.49,49,16.12422976,45.6208127,seismic,287.31,null,null,,,,,,,,,,,inferred,Stations_USGS
Croatia.50,50,16.06334442,45.62687574,seismic,405.73,null,null,,,,,,,,,,,inferred,Stations_USGS
Croatia.51,51,16.1149526,45.63386187,seismic,231.72,null,null,,,,,,,,,,,inferred,Stations_USGS
Croatia.52,52,16.05328058,45.64499181,seismic,293.14,null,null,,,,,,,,,,,inferred,Stations_USGS
Croatia.53,53,16.11376403,45.68476055,seismic,207.07,null,null,,,,,,,,,,,inferred,Stations_USGS
FUORN,"Ofenpass-Fuorn, GR",10.2635,46.6203,seismic,760,2,0.63,0,0.000299,0,0.0965,0,0.000557,0,0.000641,0,0.000228,inferred,Stations_USGS
KHC,Kasperske Hory,13.5782,49.1309,seismic,760,2,0.63,0,0.000329,0,0.0688,0,0.000905,0,0.000516,0,0.000221,inferred,Stations_USGS
APRC,Apricena (FG),15.5431,41.7574,seismic,760,2.6,0.63,0,0.000874,0,0.22,0,0.001141,0,0.001073,0,0.001112,inferred,Stations_USGS
ASOL,Asolo,11.9023,45.8003,seismic,760,3.2,0.63,0,0.004791,0,0.6438,0,0.01521,0,0.008424,0,0.003225,inferred,Stations_USGS
ATCC,AVT - Casa Castalda,12.6399,43.1851,seismic,760,2.7,0.63,0,0.001179,0,0.2548,0,0.00142,0,0.003115,0,0.001593,inferred,Stations_USGS
ATFO,Monte Foce - Gubbio,12.5715,43.3666,seismic,760,2.7,0.63,0,0.001069,0,0.2871,0,0.001655,0,0.003434,0,0.001104,inferred,Stations_USGS
ATPC,Poggio Castellaccio,12.457,43.4807,seismic,760,2.5,0.63,0,0.000978,0,0.2091,0,0.00162,0,0.002868,0,0.001036,inferred,Stations_USGS
ATPI,Pietralunga - Aviosuperficie,12.4022,43.4507,seismic,760,2.6,0.63,0,0.000991,0,0.231,0,0.001092,0,0.00275,0,0.000568,inferred,Stations_USGS
ATVO,AVT - Monte Valentino,12.4066,43.3821,seismic,760,2.4,0.63,0,0.000572,0,0.1138,0,0.000729,0,0.001306,0,0.000541,inferred,Stations_USGS
BRIS,BRISIGHELLA,11.7666,44.2245,seismic,760,null,null,0,0.000131,0,0.0006,0,5.00E-06,0,5.00E-06,0,1.00E-06,inferred,Stations_USGS
BRSN,BARISANO,12.0802,44.2842,seismic,760,3.3,0.63,0,0.001717,0,0.6551,0,0.002346,0,0.003394,0,0.003843,inferred,Stations_USGS
CADA,Capodarco,13.7614,43.1942,seismic,760,3.2,0.63,0,0.002203,0,0.5708,0,0.003556,0,0.008204,0,0.002817,inferred,Stations_USGS
CAFI,Castiglion Fiorentino,11.9663,43.3292,seismic,760,2.5,0.63,0,0.000657,0,0.2098,0,0.000703,0,0.001282,0,0.000887,inferred,Stations_USGS
CDCA,Citta di Castello,12.2336,43.4584,seismic,760,3.3,0.63,0,0.003141,0,0.7533,0,0.004042,0,0.006516,0,0.003054,inferred,Stations_USGS
CESI,Cesi-Serravalle di Chienti,12.9046,43.0049,seismic,760,2.4,0.63,0,0.000697,0,0.1676,0,0.000894,0,0.001716,0,0.000827,inferred,Stations_USGS
CING,CINGOLI,13.1954,43.3756,seismic,760,2.5,0.63,0,0.000546,0,0.1987,0,0.000671,0,0.001382,0,0.000612,inferred,Stations_USGS
CPGN,Carpegna,12.3205,43.8011,seismic,760,2.7,0.63,0,0.001694,0,0.2639,0,0.002395,0,0.001831,0,0.001298,inferred,Stations_USGS
CRND,Cornuda,12.0131,45.8361,seismic,760,2.7,0.63,0,0.00168,0,0.2329,0,0.004008,0,0.00267,0,0.001074,inferred,Stations_USGS
CTI,CASTELLO TESINO,11.6497,46.0482,seismic,760,2.7,0.63,0,0.001861,0,0.2543,0,0.005191,0,0.002302,0,0.000698,inferred,Stations_USGS
FAEN,Faenza,11.877,44.2895,seismic,760,3.1,0.63,0,0.001428,0,0.3697,0,0.002421,0,0.004058,0,0.002442,inferred,Stations_USGS
FDMO,Fiordimonte,13.0873,43.0365,seismic,760,2.3,0.63,0,0.000504,0,0.1452,0,0.000855,0,0.001273,0,0.000845,inferred,Stations_USGS
FEMA,Monte Fema,13.0498,42.9621,seismic,760,2.5,0.63,0,0.001061,0,0.1882,0,0.00139,0,0.002303,0,0.000584,inferred,Stations_USGS
FERS,FERS,11.5406,44.9035,seismic,760,3,0.63,0,0.003499,0,0.4362,0,0.005443,0,0.003838,0,0.001291,inferred,Stations_USGS
FIAM,FIAMIGNANO,13.1172,42.268,seismic,760,2.4,0.63,0,0.000429,0,0.1445,0,0.000469,0,0.000738,0,0.000597,inferred,Stations_USGS
FIR,Firenze,11.2551,43.7744,seismic,760,2.5,0.63,0,0.000523,0,0.1942,0,0.000631,0,0.001713,0,0.000881,inferred,Stations_USGS
FIU1,Fiuminata,12.9316,43.1886,seismic,760,2.4,0.63,0,0.000562,0,0.1824,0,0.000741,0,0.001443,0,0.000667,inferred,Stations_USGS
FOSV,Fossato di Vico,12.7612,43.2948,seismic,760,2.3,0.63,0,0.000806,0,0.1545,0,0.001197,0,0.002175,0,0.00061,inferred,Stations_USGS
GAG1,Gagliole,13.0674,43.2381,seismic,760,2.7,0.63,0,0.001336,0,0.2944,0,0.002531,0,0.002889,0,0.001291,inferred,Stations_USGS
GAVE,Gavelli,12.8942,42.6922,seismic,760,2.2,0.63,0,0.000572,0,0.1258,0,0.001219,0,0.000966,0,0.000463,inferred,Stations_USGS
IMOL,Imola,11.7425,44.3595,seismic,760,3.1,0.63,0,0.002407,0,0.5356,0,0.001852,0,0.003963,0,0.004175,inferred,Stations_USGS
INTR,INTRODACQUA,13.9046,42.0115,seismic,760,2.9,0.63,0,0.000718,0,0.3515,0,0.000811,0,0.00223,0,0.001446,inferred,Stations_USGS
LNSS,LEONESSA,13.0403,42.6029,seismic,760,2.3,0.63,0,0.000553,0,0.1492,0,0.000947,0,0.001279,0,0.000784,inferred,Stations_USGS
LPEL,Lama dei Peligni,14.1832,42.0468,seismic,760,2.5,0.63,0,0.000476,0,0.1838,0,0.000666,0,0.000979,0,0.000797,inferred,Stations_USGS
MBAL,Monte Baldo Osservatorio Astronomico Novezzina,10.8589,45.6975,seismic,760,1.9,0.63,0,0.0007,0,0.081,0,0.001493,0,0.00138,0,0.000336,inferred,Stations_USGS
MDAR,Monte Daria,13.1427,43.1927,seismic,760,2.5,0.63,0,0.000812,0,0.1888,0,0.001052,0,0.001612,0,0.000899,inferred,Stations_USGS
MELA,Melanico - S. Croce di Magliano,15.127,41.7059,seismic,760,2.9,0.63,0,0.001063,0,0.2697,0,0.001519,0,0.00228,0,0.001919,inferred,Stations_USGS
MGAB,Montegabbione,12.1121,42.9126,seismic,760,2.3,0.63,0,0.000456,0,0.1572,0,0.000714,0,0.001226,0,0.000917,inferred,Stations_USGS
MIDA,MIRANDA,14.254,41.6419,seismic,760,2.4,0.63,0,0.000457,0,0.1811,0,0.000486,0,0.000695,0,0.001198,inferred,Stations_USGS
MML1,Monte Lago,12.9717,43.1135,seismic,760,2.3,0.63,0,0.00163,0,0.142,0,0.001118,0,0.001279,0,0.000518,inferred,Stations_USGS
MMUR,Monte Murano,12.9973,43.4418,seismic,760,2.6,0.63,0,0.000988,0,0.2275,0,0.002043,0,0.002085,0,0.000716,inferred,Stations_USGS
MNTV,Mantova,10.7897,45.1495,seismic,760,3.1,0.63,0,0.001831,0,0.4775,0,0.002384,0,0.003548,0,0.003922,inferred,Stations_USGS
MODE,Modena,10.9492,44.6297,seismic,760,3.1,0.63,0,0.001681,0,0.5012,0,0.002056,0,0.003065,0,0.003379,inferred,Stations_USGS
MOMA,Monte Martano,12.5701,42.8039,seismic,760,2.3,0.63,0,0.00043,0,0.1359,0,0.000649,0,0.000848,0,0.000488,inferred,Stations_USGS
MTRA,Matera di Acquasanta Terme (AP),13.3965,42.7567,seismic,760,2.3,0.63,0,0.000626,0,0.1431,0,0.000981,0,0.00119,0,0.000659,inferred,Stations_USGS
MTRZ,Monterenzio,11.4248,44.3128,seismic,760,2.7,0.63,0,0.000868,0,0.238,0,0.001237,0,0.002324,0,0.001174,inferred,Stations_USGS
MURB,MONTE URBINO,12.5246,43.263,seismic,760,2.6,0.63,0,0.001395,0,0.223,0,0.00349,0,0.002018,0,0.00097,inferred,Stations_USGS
NDIM,Novi di Modena,10.8987,44.8873,seismic,760,2.7,0.63,0,0.001273,0,0.2684,0,0.001782,0,0.002383,0,0.000925,inferred,Stations_USGS
NRCA,NORCIA,13.1143,42.8336,seismic,760,2.3,0.63,0,0.000442,0,0.1542,0,0.000739,0,0.001287,0,0.000521,inferred,Stations_USGS
OPPE,Oppeano,11.1724,45.3082,seismic,760,3,0.63,0,0.002358,0,0.4613,0,0.004126,0,0.004725,0,0.002273,inferred,Stations_USGS
PCRO,Pietralacroce (Ancona),13.5323,43.6077,seismic,487.88,3.3,0.63,0,0.002798,0,0.6328,0,0.003361,0,0.004085,0,0.002056,inferred,Stations_USGS
PIEI,PIEIA,12.535,43.5357,seismic,760,2.3,0.63,0,0.000519,0,0.103,0,0.001428,0,0.000992,0,0.000669,inferred,Stations_USGS
PIO1,Pioraco,12.9838,43.1782,seismic,760,2.5,0.63,0,0.000821,0,0.1999,0,0.000941,0,0.001895,0,0.000699,inferred,Stations_USGS
PP3,PP3,13.6095,43.3778,seismic,760,3.3,0.63,0,0.002102,0,0.73,0,0.003413,0,0.005458,0,0.003293,inferred,Stations_USGS
RNI2,RIONERO SANNITICO,14.1524,41.7033,seismic,760,2.8,0.63,0,0.000803,0,0.3146,0,0.00082,0,0.001413,0,0.002058,inferred,Stations_USGS
SAIV,Sant Angelo in Vado (PU),12.413,43.6648,seismic,760,2.5,0.63,0,0.001427,0,0.137,0,0.001084,0,0.001293,0,0.000662,inferred,Stations_USGS
SANR,Sandrigo,11.6099,45.64,seismic,760,2.9,0.63,0,0.002229,0,0.3994,0,0.00437,0,0.004405,0,0.002898,inferred,Stations_USGS
SBPO,S.Benedetto Po,10.9199,45.0511,seismic,760,3.1,0.63,0,0.005835,0,0.5472,0,0.002626,0,0.004005,0,0.004127,inferred,Stations_USGS
SEF1,Sefro,12.9476,43.1468,seismic,760,2.4,0.63,0,0.000809,0,0.1708,0,0.002312,0,0.00119,0,0.000633,inferred,Stations_USGS
SERM,Semide,11.2958,45.01,seismic,760,2.3,0.63,0,0.000515,0,0.1484,0,0.000865,0,0.001303,0,0.000823,inferred,Stations_USGS
SFI,SANTA SOFIA,11.8469,43.9048,seismic,760,2.5,0.63,0,0.000603,0,0.1953,0,0.000791,0,0.001704,0,0.001666,inferred,Stations_USGS
SNTG,ESANATOGLIA,12.9406,43.255,seismic,760,1.6,0.63,0,0.000166,0,0.0492,0,0.000181,0,0.000225,0,0.000229,inferred,Stations_USGS
SSM1,San Severino Marche,13.177,43.2288,seismic,760,2.8,0.63,0,0.040828,0,0.2178,0,0.002071,0,0.001046,0,0.00034,inferred,Stations_USGS
T1299,T1299,13.2822,42.6342,seismic,760,2.9,0.63,0,0.000746,0,0.3467,0,0.000844,0,0.000965,0,0.001401,inferred,Stations_USGS
TEOL,Teolo,11.6739,45.3617,seismic,760,3,0.63,0,0.002636,0,0.4208,0,0.004204,0,0.010037,0,0.000456,inferred,Stations_USGS
TRE1,Treia,13.3128,43.3112,seismic,760,3.2,0.63,0,0.001708,0,0.5563,0,0.003294,0,0.002885,0,0.001945,inferred,Stations_USGS
TREG,Tregnago,11.1606,45.523,seismic,760,2.4,0.63,0,0.001798,0,0.1828,0,0.004077,0,0.001444,0,0.000641,inferred,Stations_USGS
TRIV,Trivento,14.5502,41.7666,seismic,760,3,0.63,0,0.000946,0,0.4357,0,0.000988,0,0.001763,0,0.002732,inferred,Stations_USGS
VENL,Venezia Lido,12.3765,45.4167,seismic,760,3.4,0.63,0,0.002782,0,0.7732,0,0.008783,0,0.008746,0,0.003036,inferred,Stations_USGS
VVLD,VILLAVALLELONGA,13.6232,41.8697,seismic,760,2.3,0.63,0,0.000369,0,0.1401,0,0.000371,0,0.001152,0,0.000579,inferred,Stations_USGS
ZCCA,ZOCCA,10.9765,44.3509,seismic,760,2.6,0.63,0,0.000542,0,0.2245,0,0.000589,0,0.000924,0,0.001744,inferred,Stations_USGS
ZEN8,San Zeno di Montagna,10.7319,45.6378,seismic,760,1.9,0.63,0,0.000364,0,0.0801,0,0.000966,0,0.000835,0,0.000209,inferred,Stations_USGS
DJES,"Station Derdap-Kladovo, Serbia",22.5197,44.6672,seismic,760,3.1,0.63,0,0.000966,0,0.4259,0,0.001569,0,0.001815,0,0.001386,inferred,Stations_USGS
OSSC,OSSC,11.2458,43.5236,seismic,760,2.3,0.63,0,0.000405,0,0.1358,0,0.000395,0,0.000768,0,0.000665,inferred,Stations_USGS
SACS,San Casciano dei Bagni,11.9097,42.8491,seismic,760,2.3,0.63,0,0.000482,0,0.1569,0,0.00051,0,0.000962,0,0.000822,inferred,Stations_USGS
VOBA,Vobarno,10.5038,45.644,seismic,760,1.9,0.63,0,0.000678,0,0.0747,0,0.00165,0,0.000696,0,0.000376,inferred,Stations_USGS
UTM:(32T 065 503 10000),,10.9823,45.4513,macroseismic,760,2.8,0.3,,,,,,,,,,,inferred,Stations_USGS
UTM:(32T 066 510 10000),,11.1339,46.0786,macroseismic,760,3,0.3,,,,,,,,,,,inferred,Stations_USGS
UTM:(32T 069 504 10000),,11.4973,45.5312,macroseismic,760,2.7,0.3,,,,,,,,,,,inferred,Stations_USGS
UTM:(32T 070 504 10000),,11.6253,45.5283,macroseismic,760,2.3,0.3,,,,,,,,,,,inferred,Stations_USGS
UTM:(32T 072 503 10000),,11.8765,45.4323,macroseismic,760,2.2,0.3,,,,,,,,,,,inferred,Stations_USGS
UTM:(33T 028 504 10000),,12.2468,45.5253,macroseismic,760,2.7,0.3,,,,,,,,,,,inferred,Stations_USGS
UTM:(33T 029 503 10000),,12.3789,45.4384,macroseismic,760,2.9,0.3,,,,,,,,,,,inferred,Stations_USGS
UTM:(33T 031 508 10000),,12.6154,45.8937,macroseismic,760,3.7,0.3,,,,,,,,,,,inferred,Stations_USGS
UTM:(33T 031 509 10000),,12.6115,45.9836,macroseismic,760,3.2,0.3,,,,,,,,,,,inferred,Stations_USGS
UTM:(33T 031 510 10000),,12.6076,46.0735,macroseismic,760,2.7,0.3,,,,,,,,,,,inferred,Stations_USGS
UTM:(33T 033 507 10000),,12.8764,45.8088,macroseismic,760,2.9,0.3,,,,,,,,,,,inferred,Stations_USGS
UTM:(33T 036 510 10000),,13.2538,46.0852,macroseismic,760,3.2,0.3,,,,,,,,,,,inferred,Stations_USGS
UTM:(33T 037 507 10000),,13.391,45.8172,macroseismic,760,4,0.3,0.8059,0.015374,0.875,2.0945,1.0131,0.026216,1.0822,0.030785,1.4737,0.006748,inferred,Stations_USGS
UTM:(33T 038 507 10000),,13.5196,45.8189,macroseismic,267.89,3.4,0.3,,,,,,,,,,,inferred,Stations_USGS
UTM:(33T 039 503 10000),,13.657,45.4606,macroseismic,544.57,4.7,0.3,0.8059,0.041533,0.875,4.493,1.0131,0.070859,1.0822,0.063833,1.4737,0.014295,inferred,Stations_USGS
UTM:(33T 039 504 10000),,13.6548,45.5506,macroseismic,600,3,0.3,,,,,,,,,,,inferred,Stations_USGS
UTM:(33T 039 509 10000),,13.644,46.0005,macroseismic,900,3.3,0.3,,,,,,,,,,,inferred,Stations_USGS
UTM:(33T 040 496 10000),,13.7982,44.8321,macroseismic,600,3.1,0.3,,,,,,,,,,,inferred,Stations_USGS
UTM:(33T 040 504 10000),,13.7829,45.552,macroseismic,425.17,3.3,0.3,,,,,,,,,,,inferred,Stations_USGS
UTM:(33T 040 505 10000),,13.781,45.642,macroseismic,437.61,3.8,0.3,,,,,,,,,,,inferred,Stations_USGS
UTM:(33T 041 496 10000),,13.9246,44.8333,macroseismic,384.21,3.9,0.3,,,,,,,,,,,inferred,Stations_USGS
UTM:(33T 041 516 10000),,13.8895,46.6331,macroseismic,466.95,2.6,0.3,,,,,,,,,,,inferred,Stations_USGS
UTM:(33T 043 513 10000),,14.155,46.3654,macroseismic,372.89,3.1,0.3,,,,,,,,,,,inferred,Stations_USGS
UTM:(33T 044 502 10000),,14.2975,45.3763,macroseismic,712.55,2.4,0.3,,,,,,,,,,,inferred,Stations_USGS
UTM:(33T 044 511 10000),,14.2873,46.1863,macroseismic,714.73,3.2,0.3,,,,,,,,,,,inferred,Stations_USGS
UTM:(33T 044 512 10000),,14.2861,46.2763,macroseismic,394.07,3.2,0.3,,,,,,,,,,,inferred,Stations_USGS
UTM:(33T 044 516 10000),,14.2814,46.6363,macroseismic,486.66,3.4,0.3,,,,,,,,,,,inferred,Stations_USGS
UTM:(33T 045 501 10000),,14.4262,45.287,macroseismic,600,3.7,0.3,,,,,,,,,,,inferred,Stations_USGS
UTM:(33T 045 502 10000),,14.4253,45.377,macroseismic,445.64,3.5,0.3,,,,,,,,,,,inferred,Stations_USGS
UTM:(33T 045 509 10000),,14.4188,46.0071,macroseismic,210.67,3.9,0.3,,,,,,,,,,,inferred,Stations_USGS
UTM:(33T 045 510 10000),,14.4178,46.0971,macroseismic,538,4.2,0.3,0.8059,0.026175,0.875,2.8651,1.0131,0.039082,1.0822,0.037192,1.4737,0.008405,inferred,Stations_USGS
UTM:(33T 045 512 10000),,14.4159,46.2771,macroseismic,309.72,3.3,0.3,,,,,,,,,,,inferred,Stations_USGS
UTM:(33T 046 509 10000),,14.5479,46.0077,macroseismic,459.26,4.2,0.3,0.8059,0.027784,0.875,2.8651,1.0131,0.04036,1.0822,0.036114,1.4737,0.008042,inferred,Stations_USGS
UTM:(33T 046 510 10000),,14.5472,46.0977,macroseismic,292.23,4,0.3,0.8059,0.020211,0.875,2.0945,1.0131,0.030385,1.0822,0.0269,1.4737,0.005511,inferred,Stations_USGS
UTM:(33T 046 511 10000),,14.5465,46.1877,macroseismic,257.38,3.6,0.3,,,,,,,,,,,inferred,Stations_USGS
UTM:(33T 047 511 10000),,14.676,46.1881,macroseismic,540.51,3.4,0.3,,,,,,,,,,,inferred,Stations_USGS
UTM:(33T 048 510 10000),,14.8059,46.0984,macroseismic,895.59,3.7,0.3,,,,,,,,,,,inferred,Stations_USGS
UTM:(33T 048 518 10000),,14.8034,46.8183,macroseismic,411.2,3.4,0.3,,,,,,,,,,,inferred,Stations_USGS
UTM:(33T 050 511 10000),,15.0648,46.1885,macroseismic,565.5,5.9,0.3,0.8059,0.100694,0.875,10.7716,1.0131,0.244677,1.0822,0.152018,1.4737,0.032543,inferred,Stations_USGS
UTM:(33T 050 512 10000),,15.0649,46.2785,macroseismic,252.44,4.1,0.3,0.8059,0.025796,0.875,2.4497,1.0131,0.03666,1.0822,0.029891,1.4737,0.006252,inferred,Stations_USGS
UTM:(33T 050 513 10000),,15.065,46.3685,macroseismic,539.84,4.7,0.3,0.8059,0.046241,0.875,4.493,1.0131,0.081367,1.0822,0.059768,1.4737,0.013279,inferred,Stations_USGS
UTM:(33T 051 488 10000),,15.1875,44.118,macroseismic,600,2.9,0.3,,,,,,,,,,,inferred,Stations_USGS
UTM:(33T 051 507 10000),,15.1931,45.8284,macroseismic,360.03,4.8,0.3,0.8059,0.055273,0.875,4.8326,1.0131,0.108294,1.0822,0.060259,1.4737,0.013235,inferred,Stations_USGS
UTM:(33T 051 512 10000),,15.1947,46.2784,macroseismic,286.28,4.4,0.3,0.8059,0.039564,0.875,3.6107,1.0131,0.056252,1.0822,0.04622,1.4737,0.010335,inferred,Stations_USGS
UTM:(33T 052 512 10000),,15.3245,46.2781,macroseismic,383.62,4.4,0.3,0.8059,0.040153,0.875,3.6107,1.0131,0.057332,1.0822,0.045804,1.4737,0.010231,inferred,Stations_USGS
UTM:(33T 053 508 10000),,15.4513,45.9177,macroseismic,364.56,4.9,0.3,0.8059,0.061,0.875,5.1978,1.0131,0.13005,1.0822,0.063801,1.4737,0.013935,inferred,Stations_USGS
UTM:(33T 053 515 10000),,15.4565,46.5476,macroseismic,441.79,4.5,0.3,0.8059,0.040802,0.875,3.8837,1.0131,0.061905,1.0822,0.051013,1.4737,0.0114,inferred,Stations_USGS
UTM:(33T 053 520 10000),,15.4603,46.9976,macroseismic,236.47,2.5,0.3,,,,,,,,,,,inferred,Stations_USGS
UTM:(33T 053 521 10000),,15.4611,47.0876,macroseismic,472.69,3.3,0.3,,,,,,,,,,,inferred,Stations_USGS
UTM:(33T 054 503 10000),,15.5756,45.4671,macroseismic,312.46,5,0.3,0.8059,0.074122,0.875,5.5907,1.0131,0.169485,1.0822,0.063681,1.4737,0.013733,inferred,Stations_USGS
UTM:(33T 054 511 10000),,15.5831,46.1871,macroseismic,545.12,null,null,0.8059,0.137955,0.875,14.4165,1.0131,0.316417,1.0822,0.200577,1.4737,0.042236,inferred,Stations_USGS
UTM:(33T 054 512 10000),,15.5841,46.2771,macroseismic,900,3.7,0.3,,,,,,,,,,,inferred,Stations_USGS
UTM:(33T 054 513 10000),,15.585,46.3671,macroseismic,321.88,4.8,0.3,0.8059,0.051716,0.875,4.8326,1.0131,0.099403,1.0822,0.062767,1.4737,0.013854,inferred,Stations_USGS
UTM:(33T 054 514 10000),,15.586,46.457,macroseismic,496.74,3.7,0.3,,,,,,,,,,,inferred,Stations_USGS
UTM:(33T 054 515 10000),,15.587,46.547,macroseismic,495.77,4.4,0.3,0.8059,0.038661,0.875,3.6107,1.0131,0.054602,1.0822,0.046879,1.4737,0.010501,inferred,Stations_USGS
UTM:(33T 055 507 10000),,15.7081,45.8263,macroseismic,339.42,6.1,0.3,0.8059,0.140787,0.875,12.4615,1.0131,0.305498,1.0822,0.156594,1.4737,0.032813,inferred,Stations_USGS
UTM:(33T 055 508 10000),,15.7092,45.9163,macroseismic,505.28,6.2,0.3,0.8059,0.144532,0.875,13.4034,1.0131,0.31692,1.0822,0.173314,1.4737,0.036308,inferred,Stations_USGS
UTM:(33T 055 515 10000),,15.7174,46.5463,macroseismic,548.34,5,0.3,0.8059,0.056561,0.875,5.5907,1.0131,0.124801,1.0822,0.07516,1.4737,0.016536,inferred,Stations_USGS
UTM:(33T 056 496 10000),,15.8224,44.8354,macroseismic,235.7,5.2,0.3,0.8059,0.074951,0.875,6.4678,1.0131,0.178469,1.0822,0.080011,1.4737,0.017299,inferred,Stations_USGS
UTM:(33T 056 506 10000),,15.8355,45.7355,macroseismic,191.84,5.8,0.3,0.8059,0.126654,0.875,10.0146,1.0131,0.269784,1.0822,0.117433,1.4737,0.024674,inferred,Stations_USGS
UTM:(33T 056 507 10000),,15.8368,45.8255,macroseismic,579.85,6.4,0.3,0.8059,0.17531,0.875,15.5062,1.0131,0.367213,1.0822,0.194779,1.4737,0.040363,inferred,Stations_USGS
UTM:(33T 056 508 10000),,15.8382,45.9155,macroseismic,398.48,7,0.3,0.8059,0.243661,0.875,24.0093,1.0131,0.500912,1.0822,0.322252,1.4737,0.065841,inferred,Stations_USGS
UTM:(33T 056 511 10000),,15.8423,46.1855,macroseismic,767.33,5.4,0.3,0.8059,0.080848,0.875,7.4826,1.0131,0.194422,1.0822,0.096624,1.4737,0.020845,inferred,Stations_USGS
UTM:(33T 056 513 10000),,15.845,46.3654,macroseismic,336.68,4.6,0.3,0.8059,0.046481,0.875,4.1772,1.0131,0.077441,1.0822,0.052972,1.4737,0.011745,inferred,Stations_USGS
UTM:(33T 056 514 10000),,15.8464,46.4554,macroseismic,468.17,3.9,0.3,,,,,,,,,,,inferred,Stations_USGS
UTM:(33T 057 497 10000),,15.9503,44.9245,macroseismic,287.67,6,0.3,0.8059,0.130558,0.875,11.5857,1.0131,0.286973,1.0822,0.145816,1.4737,0.030673,inferred,Stations_USGS
UTM:(33T 057 506 10000),,15.964,45.7345,macroseismic,209.13,6.1,0.3,0.8059,0.159191,0.875,12.4615,1.0131,0.325881,1.0822,0.145235,1.4737,0.030157,inferred,Stations_USGS
UTM:(33T 057 507 10000),,15.9655,45.8245,macroseismic,456.36,6,0.3,0.8059,0.140583,0.875,11.5857,1.0131,0.298354,1.0822,0.139352,1.4737,0.029154,inferred,Stations_USGS
UTM:(33T 057 509 10000),,15.9687,46.0044,macroseismic,492.83,5.5,0.3,0.8059,0.093432,0.875,8.0482,1.0131,0.214644,1.0822,0.099455,1.4737,0.021264,inferred,Stations_USGS
UTM:(33T 057 516 10000),,15.9798,46.6343,macroseismic,316.69,3.6,0.3,,,,,,,,,,,inferred,Stations_USGS
UTM:(33T 058 505 10000),,16.0907,45.6433,macroseismic,323.61,6.1,0.3,0.8059,0.181121,0.875,12.4615,1.0131,0.348759,1.0822,0.134189,1.4737,0.027599,inferred,Stations_USGS
UTM:(33T 058 506 10000),,16.0925,45.7333,macroseismic,228.69,6.7,0.3,0.8059,0.23838,0.875,19.2949,1.0131,0.462296,1.0822,0.229554,1.4737,0.046738,inferred,Stations_USGS
UTM:(33T 058 507 10000),,16.0943,45.8233,macroseismic,294.92,6.4,0.3,0.8059,0.183702,0.875,15.5062,1.0131,0.376352,1.0822,0.189276,1.4737,0.039087,inferred,Stations_USGS
UTM:(33T 058 511 10000),,16.1014,46.1832,macroseismic,661.82,5.4,0.3,0.8059,0.08198,0.875,7.4826,1.0131,0.195848,1.0822,0.095804,1.4737,0.020647,inferred,Stations_USGS
UTM:(33T 058 516 10000),,16.1105,46.6331,macroseismic,204.9,3.9,0.3,,,,,,,,,,,inferred,Stations_USGS
UTM:(33T 059 506 10000),,16.221,45.732,macroseismic,222.59,6.1,0.3,0.8059,0.165233,0.875,12.4615,1.0131,0.332326,1.0822,0.141957,1.4737,0.029396,inferred,Stations_USGS
UTM:(33T 059 507 10000),,16.223,45.822,macroseismic,322.55,4.2,0.3,0.8059,0.046908,0.875,2.8651,1.0131,0.062609,1.0822,0.024176,1.4737,0.004402,inferred,Stations_USGS
UTM:(33T 059 510 10000),,16.2289,46.0919,macroseismic,385.04,5.3,0.3,0.8059,0.079966,0.875,6.9567,1.0131,0.188927,1.0822,0.086488,1.4737,0.018642,inferred,Stations_USGS
UTM:(33T 060 503 10000),,16.343,45.4606,macroseismic,225.29,8.7,0.3,0.8059,1.138778,0.875,82.8618,1.0131,1.662997,1.0822,0.923788,1.4737,0.173339,inferred,Stations_USGS
UTM:(33T 060 506 10000),,16.3495,45.7306,macroseismic,244.37,6,0.3,0.8059,0.15218,0.875,11.5857,1.0131,0.31105,1.0822,0.132743,1.4737,0.027609,inferred,Stations_USGS
UTM:(33T 060 511 10000),,16.3605,46.1805,macroseismic,386.62,6.1,0.3,0.8059,0.126466,0.875,12.4615,1.0131,0.288746,1.0822,0.167236,1.4737,0.035323,inferred,Stations_USGS
UTM:(33T 060 512 10000),,16.3627,46.2704,macroseismic,243.6,4.7,0.3,0.8059,0.05128,0.875,4.493,1.0131,0.092961,1.0822,0.056096,1.4737,0.012368,inferred,Stations_USGS
UTM:(33T 060 513 10000),,16.3649,46.3604,macroseismic,211.15,4.1,0.3,0.8059,0.02973,0.875,2.4497,1.0131,0.039577,1.0822,0.02787,1.4737,0.005628,inferred,Stations_USGS
UTM:(33T 060 514 10000),,16.3672,46.4504,macroseismic,389.58,4.5,0.3,0.8059,0.042899,0.875,3.8837,1.0131,0.066033,1.0822,0.04947,1.4737,0.011015,inferred,Stations_USGS
UTM:(33T 061 481 10000),,16.422,43.4791,macroseismic,600,3.4,0.3,,,,,,,,,,,inferred,Stations_USGS
UTM:(33T 061 513 10000),,16.4949,46.3588,macroseismic,217.17,4.1,0.3,0.8059,0.029405,0.875,2.4497,1.0131,0.039344,1.0822,0.028022,1.4737,0.005674,inferred,Stations_USGS
UTM:(33T 062 513 10000),,16.6248,46.357,macroseismic,218.19,4.9,0.3,0.8059,0.055811,0.875,5.1978,1.0131,0.11598,1.0822,0.067374,1.4737,0.014812,inferred,Stations_USGS
UTM:(33T 062 523 10000),,16.6521,47.2565,macroseismic,245.7,3,0.3,,,,,,,,,,,inferred,Stations_USGS
UTM:(33T 064 508 10000),,16.8694,45.9033,macroseismic,311.98,5.5,0.3,0.8059,0.089942,0.875,8.0482,1.0131,0.210392,1.0822,0.101803,1.4737,0.021827,inferred,Stations_USGS
UTM:(33T 064 511 10000),,16.8785,46.1731,macroseismic,234.05,4.6,0.3,0.8059,0.047528,0.875,4.1772,1.0131,0.079695,1.0822,0.052253,1.4737,0.011566,inferred,Stations_USGS
UTM:(33T 064 518 10000),,16.9003,46.8027,macroseismic,483.26,4.2,0.3,0.8059,0.025619,0.875,2.8651,1.0131,0.038632,1.0822,0.037588,1.4737,0.00854,inferred,Stations_USGS
UTM:(33T 065 502 10000),,16.9791,45.3613,macroseismic,441.57,5.9,0.3,0.8059,0.124601,0.875,10.7716,1.0131,0.273673,1.0822,0.13341,1.4737,0.028113,inferred,Stations_USGS
UTM:(33T 065 514 10000),,17.0178,46.4407,macroseismic,307.81,3.7,0.3,,,,,,,,,,,inferred,Stations_USGS
UTM:(33T 067 495 10000),,17.2099,44.727,macroseismic,428.92,5.6,0.3,0.8059,0.086637,0.875,8.6565,1.0131,0.21107,1.0822,0.117159,1.4737,0.025232,inferred,Stations_USGS
UTM:(33T 067 518 10000),,17.2932,46.7955,macroseismic,501.52,3,0.3,,,,,,,,,,,inferred,Stations_USGS
UTM:(33T 068 494 10000),,17.3325,44.6345,macroseismic,649.78,5.2,0.3,0.8059,0.065222,0.875,6.4678,1.0131,0.165888,1.0822,0.087128,1.4737,0.019033,inferred,Stations_USGS
UTM:(33T 071 497 10000),,17.723,44.8959,macroseismic,385.28,4.6,0.3,0.8059,0.04411,0.875,4.1772,1.0131,0.072393,1.0822,0.054699,1.4737,0.012175,inferred,Stations_USGS
UTM:(33T 071 513 10000),,17.7935,46.3344,macroseismic,364.99,3.6,0.3,,,,,,,,,,,inferred,Stations_USGS
UTM:(33T 071 514 10000),,17.7981,46.4243,macroseismic,289.52,4.2,0.3,0.8059,0.025168,0.875,2.8651,1.0131,0.038263,1.0822,0.037919,1.4737,0.008653,inferred,Stations_USGS
UTM:(33U 044 534 10000),,14.259,48.2558,macroseismic,760,3.3,0.3,,,,,,,,,,,inferred,Stations_USGS
UTM:(33U 045 554 10000),,14.3714,50.0556,macroseismic,760,2,0.3,,,,,,,,,,,inferred,Stations_USGS
UTM:(33U 046 542 10000),,14.5217,48.9769,macroseismic,760,3.2,0.3,,,,,,,,,,,inferred,Stations_USGS
UTM:(33U 059 533 10000),,16.2775,48.1611,macroseismic,760,2,0.3,,,,,,,,,,,inferred,Stations_USGS
UTM:(33U 059 534 10000),,16.2798,48.2511,macroseismic,760,2.5,0.3,,,,,,,,,,,inferred,Stations_USGS
UTM:(33U 060 533 10000),,16.412,48.1595,macroseismic,760,3.1,0.3,,,,,,,,,,,inferred,Stations_USGS
UTM:(33U 060 534 10000),,16.4144,48.2495,macroseismic,760,2.6,0.3,,,,,,,,,,,inferred,Stations_USGS
UTM:(33U 061 545 10000),,16.5798,49.2369,macroseismic,760,2,0.3,,,,,,,,,,,inferred,Stations_USGS
UTM:(33U 065 532 10000),,17.0803,48.0594,macroseismic,760,3.6,0.3,,,,,,,,,,,inferred,Stations_USGS
UTM:(33U 065 533 10000),,17.0839,48.1493,macroseismic,760,2.6,0.3,,,,,,,,,,,inferred,Stations_USGS
UTM:(33U 066 533 10000),,17.2183,48.1468,macroseismic,760,2.7,0.3,,,,,,,,,,,inferred,Stations_USGS
UTM:(34T 026 495 10000),,18.0333,44.7098,macroseismic,504.77,3.8,0.3,,,,,,,,,,,inferred,Stations_USGS
UTM:(34T 026 500 10000),,18.01,45.1593,macroseismic,259.93,4.8,0.3,0.8059,0.048733,0.875,4.8326,1.0131,0.09208,1.0822,0.065095,1.4737,0.014431,inferred,Stations_USGS
UTM:(34T 028 485 10000),,18.3266,43.8168,macroseismic,268.47,3.4,0.3,,,,,,,,,,,inferred,Stations_USGS
UTM:(34T 028 498 10000),,18.2728,44.9859,macroseismic,469.81,4,0.3,0.8059,0.018772,0.875,2.0945,1.0131,0.029198,1.0822,0.027898,1.4737,0.00582,inferred,Stations_USGS
UTM:(34T 028 510 10000),,18.2201,46.0647,macroseismic,335.24,4.1,0.3,0.8059,0.021335,0.875,2.4497,1.0131,0.033091,1.0822,0.032825,1.4737,0.007195,inferred,Stations_USGS
UTM:(34T 028 511 10000),,18.2156,46.1546,macroseismic,476.89,3.8,0.3,,,,,,,,,,,inferred,Stations_USGS
UTM:(34T 030 493 10000),,18.5453,44.5419,macroseismic,510.6,5.1,0.3,0.8059,0.052888,0.875,6.0133,1.0131,0.121068,1.0822,0.088086,1.4737,0.01951,inferred,Stations_USGS
UTM:(34T 030 522 10000),,18.4278,47.1496,macroseismic,293.57,2.9,0.3,,,,,,,,,,,inferred,Stations_USGS
UTM:(34T 031 493 10000),,18.6711,44.5446,macroseismic,380.82,3.9,0.3,,,,,,,,,,,inferred,Stations_USGS
UTM:(34T 031 504 10000),,18.6306,45.5339,macroseismic,193.41,3.9,0.3,,,,,,,,,,,inferred,Stations_USGS
UTM:(34T 032 504 10000),,18.7586,45.5365,macroseismic,209.81,3.2,0.3,,,,,,,,,,,inferred,Stations_USGS
UTM:(34T 032 513 10000),,18.7257,46.3459,macroseismic,221.16,4.1,0.3,0.8059,0.018038,0.875,2.4497,1.0131,0.030225,1.0822,0.035658,1.4737,0.008147,inferred,Stations_USGS
UTM:(34T 034 525 10000),,18.9446,47.43,macroseismic,760,3.1,0.3,,,,,,,,,,,inferred,Stations_USGS
UTM:(34T 034 526 10000),,18.9411,47.5199,macroseismic,760,2.2,0.3,,,,,,,,,,,inferred,Stations_USGS
UTM:(34T 035 495 10000),,19.1687,44.7337,macroseismic,311.26,3.5,0.3,,,,,,,,,,,inferred,Stations_USGS
UTM:(34T 035 525 10000),,19.0771,47.4323,macroseismic,760,2.9,0.3,,,,,,,,,,,inferred,Stations_USGS
UTM:(34T 035 526 10000),,19.0739,47.5222,macroseismic,760,2.8,0.3,,,,,,,,,,,inferred,Stations_USGS
UTM:(34T 036 525 10000),,19.2097,47.4344,macroseismic,760,4.3,0.3,0.8059,0.019637,0.875,3.351,1.0131,0.0354,1.0822,0.049879,1.4737,0.011398,inferred,Stations_USGS
UTM:(34T 039 501 10000),,19.6612,45.2806,macroseismic,760,3.7,0.3,,,,,,,,,,,inferred,Stations_USGS
UTM:(34T 040 501 10000),,19.7887,45.2821,macroseismic,760,3.2,0.3,,,,,,,,,,,inferred,Stations_USGS
UTM:(34T 043 512 10000),,20.1564,46.2754,macroseismic,760,2.7,0.3,,,,,,,,,,,inferred,Stations_USGS
UTM:(34T 045 495 10000),,20.4315,44.7469,macroseismic,760,2.9,0.3,,,,,,,,,,,inferred,Stations_USGS
UTM:(34T 045 496 10000),,20.4307,44.837,macroseismic,760,3.2,0.3,,,,,,,,,,,inferred,Stations_USGS
UTM:(34T 046 495 10000),,20.5579,44.7475,macroseismic,760,3.4,0.3,,,,,,,,,,,inferred,Stations_USGS
UTM:(34T 046 496 10000),,20.5572,44.8375,macroseismic,760,2.5,0.3,,,,,,,,,,,inferred,Stations_USGS
UTM:(34T 047 496 10000),,20.6837,44.8379,macroseismic,760,3.3,0.3,,,,,,,,,,,inferred,Stations_USGS