STATION_ID,STATION_NAME,LATITUDE,LONGITUDE,STATION_TYPE,REFERENCES,SOIL_TYPE,PGA_VALUE,PGA_LN_SIGMA,SA(0.3)_VALUE,SA(0.3)_LN_SIGMA,SA(0.6)_VALUE,SA(0.6)_LN_SIGMA,SA(1.0)_VALUE,SA(1.0)_LN_SIGMA,VS30,VS30_TYPE,MMI_VALUE,MMI_STDDEV,PGV_LN_SIGMA,PGV_VALUE,SA(3.0)_LN_SIGMA,SA(3.0)_VALUE
AMAA,AMALIADA,37.7949,21.3501,seismic,GHEAD,D,0.15648,0.0,0.422255016,0.0,0.191904212,0.0,0.078814177,0.0,,,,,,,,
ZAK1,ZAKYNTHOS,37.784,20.898,seismic,GHEAD,D,0.14742,0.0,0.328140372,0.0,0.316537069,0.0,0.119561219,0.0,,,,,,,,
PYR1,PYRGOS,37.6714,21.4327,seismic,GHEAD,D,0.029511999,0.0,0.089304631,0.0,0.045078583,0.0,0.028904493,0.0,,,,,,,,
PATA,PATRA A,38.2434,21.7333,seismic,GHEAD,C,0.013857,0.0,0.052024221,0.0,0.043503816,0.0,0.017211955,0.0,,,,,,,,
PAT1,PATRA B,38.2386,21.7265,seismic,GHEAD,C,0.013682,0.0,0.033009044,0.0,0.034107823,0.0,0.017974691,0.0,,,,,,,,
ARG1,ARGOSTOLI,38.177,20.4788,seismic,GHEAD,C,0.01316,0.0,0.031743791,0.0,0.01545587,0.0,0.00852707,0.0,,,,,,,,
OBS_1,KYLLINI  ELIA(952),37.927,21.133,macroseismic,Stations_USGS,,0.547533,0.8059,0.991181,1.0131,,,0.548378,1.0822,440.96,inferred,8.0,0.3,0.875,46.5966,1.4737,0.110707
OBS_2,VARTHOLOMIO  ELIA(3753),37.853,21.198,macroseismic,Stations_USGS,,0.520278,0.8059,0.96493,1.0131,,,0.565811,1.0822,317.63,inferred,8.0,0.3,0.875,46.5966,1.4737,0.114659
OBS_3,KASTRO  ELIA(857),37.886,21.145,macroseismic,Stations_USGS,,0.396002,0.8059,0.745501,1.0131,,,0.371608,1.0822,416.1,inferred,7.5,0.3,0.875,32.3688,1.4737,0.076189
OBS_4,KATO-PANAGIA  ELIA(1266),37.92,21.162,macroseismic,Stations_USGS,,0.394151,0.8059,0.743667,1.0131,,,0.372677,1.0822,458.45,inferred,7.5,0.3,0.875,32.3688,1.4737,0.076435
OBS_5,LYGIA  ELIA(627),37.85,21.142,macroseismic,Stations_USGS,,0.39264,0.8059,0.742166,1.0131,,,0.373555,1.0822,448.86,inferred,7.5,0.3,0.875,32.3688,1.4737,0.076637
OBS_6,MACHOS  ELIA(684),37.879,21.186,macroseismic,Stations_USGS,,0.386254,0.8059,0.735796,1.0131,,,0.377328,1.0822,399.44,inferred,7.5,0.3,0.875,32.3688,1.4737,0.077505
OBS_7,NEOCHORI  ELIA(426),37.433,21.665,macroseismic,Stations_USGS,,0.285521,0.8059,0.627718,1.0131,,,0.454104,1.0822,502.38,inferred,,,0.875,32.3688,1.4737,0.095385
OBS_9,GASTOUNI  ELIA(5883),37.845,21.247,macroseismic,Stations_USGS,,0.271141,0.8059,0.544799,1.0131,,,0.260418,1.0822,230.18,inferred,7.0,0.3,0.875,22.4853,1.4737,0.054445
OBS_8,AGIA-MAVRA  ELIA(376),37.873,21.308,macroseismic,Stations_USGS,,0.263814,0.8059,0.537009,1.0131,,,0.264827,1.0822,235.78,inferred,7.0,0.3,0.875,22.4853,1.4737,0.055479
OBS_10,TRAGANO  ELIA(2306),37.906,21.362,macroseismic,Stations_USGS,,0.257168,0.8059,0.529854,1.0131,,,0.269001,1.0822,434.12,inferred,7.0,0.3,0.875,22.4853,1.4737,0.05646
OBS_20,VANATO  ZAKYNTHOS(557),37.795,20.853,macroseismic,Stations_USGS,,0.215767,0.8059,0.430874,1.0131,,,0.166432,1.0822,316.94,inferred,6.5,0.3,0.875,15.6196,1.4737,0.035088
OBS_17,KALAMAKI  ZAKYNTHOS(472),37.738,20.889,macroseismic,Stations_USGS,,0.208284,0.8059,0.422952,1.0131,,,0.170072,1.0822,223.91,inferred,6.5,0.3,0.875,15.6196,1.4737,0.03595
OBS_18,MOUZAKI  ZAKYNTHOS(937),37.737,20.841,macroseismic,Stations_USGS,,0.206575,0.8059,0.421124,1.0131,,,0.170933,1.0822,267.73,inferred,6.5,0.3,0.875,15.6196,1.4737,0.036154
OBS_19,PANTOKRATORAS  ZAKYNTHOS(972),37.726,20.842,macroseismic,Stations_USGS,,0.205,0.8059,0.419433,1.0131,,,0.171737,1.0822,314.06,inferred,6.5,0.3,0.875,15.6196,1.4737,0.036344
OBS_14,LECHAINA  ELIA(3448),37.947,21.281,macroseismic,Stations_USGS,,0.197193,0.8059,0.410958,1.0131,,,0.175873,1.0822,214.46,inferred,6.5,0.3,0.875,15.6196,1.4737,0.037327
OBS_16,SAVALIA  ELIA(1119),37.82,21.285,macroseismic,Stations_USGS,,0.193427,0.8059,0.406813,1.0131,,,0.177964,1.0822,248.34,inferred,6.5,0.3,0.875,15.6196,1.4737,0.037824
OBS_15,MANOLADA  ELIA(1453),38.059,21.339,macroseismic,Stations_USGS,,0.188143,0.8059,0.400932,1.0131,,,0.181011,1.0822,198.81,inferred,6.5,0.3,0.875,15.6196,1.4737,0.038551
OBS_11,AMALIADA  ELIA(15857),37.8,21.343,macroseismic,Stations_USGS,,0.186954,0.8059,0.399598,1.0131,,,0.181716,1.0822,334.52,inferred,6.5,0.3,0.875,15.6196,1.4737,0.038719
OBS_12,KARDAMAS  ELIA(1029),37.761,21.342,macroseismic,Stations_USGS,,0.185033,0.8059,0.397434,1.0131,,,0.18287,1.0822,342.9,inferred,6.5,0.3,0.875,15.6196,1.4737,0.038995
OBS_13,KATAKOLO  ELIA(612),37.648,21.311,macroseismic,Stations_USGS,,0.179668,0.8059,0.391334,1.0131,,,0.186197,1.0822,394.11,inferred,6.5,0.3,0.875,15.6196,1.4737,0.039791
AMA,Amaliada-OTE Building,37.8,21.35,seismic,Stations_USGS,,0.156122,0.0,0.415306,0.0,,,0.081531,0.0,353.3,inferred,5.7,0.63,0.0,8.44,0.0,0.008276
ZAK,Zakynthos-OTE Building,37.785,20.9,seismic,Stations_USGS,,0.15102,0.0,0.310204,0.0,,,0.080306,0.0,600.0,inferred,6.0,0.63,0.0,8.01,0.0,0.009847
OBS_23,AVGEIO  ELIA(364),37.873,21.363,macroseismic,Stations_USGS,,0.137524,0.8059,0.30324,1.0131,,,0.121867,1.0822,335.98,inferred,6.0,0.3,0.875,10.8503,1.4737,0.026338
OBS_29,VARDA  ELIA(3821),38.02,21.377,macroseismic,Stations_USGS,,0.136299,0.8059,0.301816,1.0131,,,0.122538,1.0822,339.81,inferred,6.0,0.3,0.875,10.8503,1.4737,0.026501
OBS_30,VOUNARGO  ELIA(847),37.738,21.41,macroseismic,Stations_USGS,,0.130845,0.8059,0.295405,1.0131,,,0.125644,1.0822,548.46,inferred,6.0,0.3,0.875,10.8503,1.4737,0.027255
OBS_26,KERAMIDIA  ELIA(345),37.848,21.465,macroseismic,Stations_USGS,,0.130626,0.8059,0.295146,1.0131,,,0.125772,1.0822,463.6,inferred,6.0,0.3,0.875,10.8503,1.4737,0.027286
OBS_24,ELAIONAS  ELIA(468),37.762,21.47,macroseismic,Stations_USGS,,0.128503,0.8059,0.292614,1.0131,,,0.127042,1.0822,555.77,inferred,6.0,0.3,0.875,10.8503,1.4737,0.027595
OBS_28,OINOI  ELIA(319),37.831,21.516,macroseismic,Stations_USGS,,0.127571,0.8059,0.291496,1.0131,,,0.12761,1.0822,424.12,inferred,6.0,0.3,0.875,10.8503,1.4737,0.027733
OBS_21,LIMNOCHORI  ACHAIA(1131),38.153,21.483,macroseismic,Stations_USGS,,0.126819,0.8059,0.290593,1.0131,,,0.128073,1.0822,247.02,inferred,6.0,0.3,0.875,10.8503,1.4737,0.027846
OBS_27,MAZARAKI  ELIA(595),37.873,21.588,macroseismic,Stations_USGS,,0.124428,0.8059,0.287699,1.0131,,,0.129576,1.0822,542.72,inferred,6.0,0.3,0.875,10.8503,1.4737,0.028213
OBS_22,LOUSIKA  ACHAIA(852),38.101,21.587,macroseismic,Stations_USGS,,0.123262,0.8059,0.286279,1.0131,,,0.130326,1.0822,416.05,inferred,6.0,0.3,0.875,10.8503,1.4737,0.028396
OBS_25,GOUMERO  ELIA(1032),37.766,21.595,macroseismic,Stations_USGS,,0.122689,0.8059,0.285578,1.0131,,,0.130699,1.0822,570.22,inferred,6.0,0.3,0.875,10.8503,1.4737,0.028487
OBS_47,KALIPADO  ZAKYNTHOS(561),37.802,20.832,macroseismic,Stations_USGS,,0.11569,0.8059,0.246936,1.0131,,,0.075278,1.0822,462.2,inferred,5.5,0.3,0.875,7.5373,1.4737,0.016339
OBS_48,MARIES  ZAKYNTHOS(364),37.823,20.684,macroseismic,Stations_USGS,,0.109744,0.8059,0.24018,1.0131,,,0.077752,1.0822,458.54,inferred,5.5,0.3,0.875,7.5373,1.4737,0.016942
OBS_39,ANDRAVIDA  ELIA(3253),37.92,21.284,macroseismic,Stations_USGS,,0.105616,0.8059,0.235387,1.0131,,,0.079601,1.0822,226.33,inferred,5.5,0.3,0.875,7.5373,1.4737,0.017394
OBS_38,AMPELOKAMPOS  ELIA(645),37.835,21.313,macroseismic,Stations_USGS,,0.102692,0.8059,0.231939,1.0131,,,0.080982,1.0822,268.7,inferred,5.5,0.3,0.875,7.5373,1.4737,0.017733
OBS_44,NEA-MANOLADA  ELIA(1449),38.06,21.365,macroseismic,Stations_USGS,,0.099718,0.8059,0.228382,1.0131,,,0.082455,1.0822,240.23,inferred,5.5,0.3,0.875,7.5373,1.4737,0.018095
OBS_32,METOCHI  ACHAIA(1863),38.116,21.39,macroseismic,Stations_USGS,,0.097264,0.8059,0.22541,1.0131,,,0.083724,1.0822,182.37,inferred,5.5,0.3,0.875,7.5373,1.4737,0.018407
OBS_45,SKOUROCHORI  ELIA(703),37.679,21.345,macroseismic,Stations_USGS,,0.096444,0.8059,0.22441,1.0131,,,0.084159,1.0822,236.65,inferred,5.5,0.3,0.875,7.5373,1.4737,0.018514
OBS_33,MICHOI  ACHAIA(690),37.969,21.483,macroseismic,Stations_USGS,,0.095404,0.8059,0.223134,1.0131,,,0.08472,1.0822,402.34,inferred,5.5,0.3,0.875,7.5373,1.4737,0.018653
OBS_34,SAGAIIKA  ACHAIA(1846),38.12,21.453,macroseismic,Stations_USGS,,0.094702,0.8059,0.222269,1.0131,,,0.085104,1.0822,229.73,inferred,5.5,0.3,0.875,7.5373,1.4737,0.018748
OBS_41,EPHYRA  ELIA(473),37.848,21.516,macroseismic,Stations_USGS,,0.09364,0.8059,0.220955,1.0131,,,0.085695,1.0822,395.32,inferred,5.5,0.3,0.875,7.5373,1.4737,0.018893
OBS_42,KARATOULAS  ELIA(963),37.747,21.533,macroseismic,Stations_USGS,,0.091612,0.8059,0.218427,1.0131,,,0.086852,1.0822,417.76,inferred,5.5,0.3,0.875,7.5373,1.4737,0.01918
OBS_43,LANTHIO  ELIA(510),37.705,21.511,macroseismic,Stations_USGS,,0.091535,0.8059,0.21833,1.0131,,,0.086897,1.0822,629.41,inferred,5.5,0.3,0.875,7.5373,1.4737,0.019191
OBS_31,KALPHAS  ACHAIA(342),37.901,21.607,macroseismic,Stations_USGS,,0.09062,0.8059,0.21718,1.0131,,,0.087434,1.0822,293.71,inferred,5.5,0.3,0.875,7.5373,1.4737,0.019324
OBS_37,AGIA-ANNA  ELIA(279),37.788,21.592,macroseismic,Stations_USGS,,0.090255,0.8059,0.21672,1.0131,,,0.08765,1.0822,346.3,inferred,5.5,0.3,0.875,7.5373,1.4737,0.019377
OBS_46,STREPHIO  ELIA(875),37.657,21.556,macroseismic,Stations_USGS,,0.089199,0.8059,0.215383,1.0131,,,0.088285,1.0822,295.84,inferred,5.5,0.3,0.875,7.5373,1.4737,0.019535
OBS_40,CHELIDONI  ELIA(662),37.72,21.609,macroseismic,Stations_USGS,,0.088791,0.8059,0.214864,1.0131,,,0.088534,1.0822,589.15,inferred,5.5,0.3,0.875,7.5373,1.4737,0.019596
OBS_36,MEGALI-CHORA  AITOLOAKARNANIA(1449),38.633,21.367,macroseismic,Stations_USGS,,0.082091,0.8059,0.206182,1.0131,,,0.092895,1.0822,327.39,inferred,5.5,0.3,0.875,7.5373,1.4737,0.020681
OBS_99,VOLIMES  ZAKYNTHOS(730),37.895,20.678,macroseismic,Stations_USGS,,0.08176,0.8059,0.183484,1.0131,,,0.05174,1.0822,480.83,inferred,5.0,0.3,0.875,5.2359,1.4737,0.011425
OBS_35,AVARIKOS  AITOLOAKARNANIA(307),38.521,21.704,macroseismic,Stations_USGS,,0.080265,0.8059,0.203759,1.0131,,,0.094184,1.0822,664.01,inferred,5.5,0.3,0.875,7.5373,1.4737,0.021003
OBS_98,AGIOS-LEON  ZAKYNTHOS(413),37.757,20.722,macroseismic,Stations_USGS,,0.079298,0.8059,0.180559,1.0131,,,0.052719,1.0822,616.59,inferred,5.0,0.3,0.875,5.2359,1.4737,0.011667
OBS_87,KAPELETO  ELIA(641),38.003,21.347,macroseismic,Stations_USGS,,0.074429,0.8059,0.174643,1.0131,,,0.054807,1.0822,329.38,inferred,5.0,0.3,0.875,5.2359,1.4737,0.012186
OBS_83,ALPOCHORI  ELIA(811),37.727,21.37,macroseismic,Stations_USGS,,0.071131,0.8059,0.170531,1.0131,,,0.05635,1.0822,485.97,inferred,5.0,0.3,0.875,5.2359,1.4737,0.012572
OBS_52,KANKADI  ACHAIA(518),38.035,21.437,macroseismic,Stations_USGS,,0.070943,0.8059,0.170293,1.0131,,,0.056442,1.0822,346.8,inferred,5.0,0.3,0.875,5.2359,1.4737,0.012594
OBS_60,RIOLOS  ACHAIA(725),38.071,21.443,macroseismic,Stations_USGS,,0.070351,0.8059,0.169545,1.0131,,,0.056733,1.0822,287.71,inferred,5.0,0.3,0.875,5.2359,1.4737,0.012667
OBS_55,KRINOS  ACHAIA(393),38.06,21.495,macroseismic,Stations_USGS,,0.068956,0.8059,0.167769,1.0131,,,0.057433,1.0822,727.7,inferred,5.0,0.3,0.875,5.2359,1.4737,0.012843
OBS_81,AGIOS-GEORGIOS  ELIA(788),37.696,21.433,macroseismic,Stations_USGS,,0.068813,0.8059,0.167586,1.0131,,,0.057506,1.0822,438.24,inferred,5.0,0.3,0.875,5.2359,1.4737,0.012861
OBS_58,MYRTOS  ACHAIA(452),38.078,21.514,macroseismic,Stations_USGS,,0.068237,0.8059,0.166847,1.0131,,,0.057804,1.0822,631.22,inferred,5.0,0.3,0.875,5.2359,1.4737,0.012935
OBS_85,CHEIMADIO  ELIA(502),37.757,21.507,macroseismic,Stations_USGS,,0.067902,0.8059,0.166416,1.0131,,,0.057978,1.0822,585.28,inferred,5.0,0.3,0.875,5.2359,1.4737,0.012979
OBS_94,SIMOPOULO  ELIA(516),37.855,21.559,macroseismic,Stations_USGS,,0.067452,0.8059,0.165835,1.0131,,,0.058215,1.0822,341.01,inferred,5.0,0.3,0.875,5.2359,1.4737,0.013039
OBS_53,KATO-ACHAIA  ACHAIA(5244),38.132,21.542,macroseismic,Stations_USGS,,0.066897,0.8059,0.165116,1.0131,,,0.058511,1.0822,281.22,inferred,5.0,0.3,0.875,5.2359,1.4737,0.013113
OBS_91,MOUZAKI  ELIA(447),37.786,21.563,macroseismic,Stations_USGS,,0.066808,0.8059,0.165001,1.0131,,,0.058558,1.0822,451.63,inferred,5.0,0.3,0.875,5.2359,1.4737,0.013125
OBS_59,PHLOKAS  ACHAIA(218),38.034,21.631,macroseismic,Stations_USGS,,0.065597,0.8059,0.161695,1.0131,,,0.059218,1.0822,668.75,inferred,5.0,0.3,0.875,5.2359,1.4737,0.013291
OBS_86,IRAKLEIA  ELIA(343),37.682,21.566,macroseismic,Stations_USGS,,0.065498,0.8059,0.16138,1.0131,,,0.059273,1.0822,355.2,inferred,5.0,0.3,0.875,5.2359,1.4737,0.013305
OBS_63,AITOLIKO  AITOLOAKARNANIA(5381),38.428,21.318,macroseismic,Stations_USGS,,0.065081,0.8059,0.16006,1.0131,,,0.059505,1.0822,391.78,inferred,5.0,0.3,0.875,5.2359,1.4737,0.013363
OBS_93,PELOPI  ELIA(1023),37.673,21.589,macroseismic,Stations_USGS,,0.064889,0.8059,0.15945,1.0131,,,0.059614,1.0822,527.59,inferred,5.0,0.3,0.875,5.2359,1.4737,0.01339
OBS_57,MANESIO  ACHAIA(494),37.98,21.673,macroseismic,Stations_USGS,,0.064803,0.8059,0.159178,1.0131,,,0.059662,1.0822,642.86,inferred,5.0,0.3,0.875,5.2359,1.4737,0.013402
OBS_67,GOURIA  AITOLOAKARNANIA(1007),38.47,21.267,macroseismic,Stations_USGS,,0.064576,0.8059,0.15846,1.0131,,,0.059791,1.0822,331.81,inferred,5.0,0.3,0.875,5.2359,1.4737,0.013435
OBS_88,KLADEOS  ELIA(201),37.678,21.65,macroseismic,Stations_USGS,,0.063725,0.8059,0.155777,1.0131,,,0.060279,1.0822,604.2,inferred,5.0,0.3,0.875,5.2359,1.4737,0.013558
OBS_90,MAKRISIA  ELIA(2158),37.617,21.621,macroseismic,Stations_USGS,,0.063507,0.8059,0.155089,1.0131,,,0.060406,1.0822,607.92,inferred,5.0,0.3,0.875,5.2359,1.4737,0.01359
OBS_74,PALAIOMANINA  AITOLOAKARNANIA(983),38.542,21.222,macroseismic,Stations_USGS,,0.063154,0.8059,0.153983,1.0131,,,0.060612,1.0822,384.38,inferred,5.0,0.3,0.875,5.2359,1.4737,0.013642
OBS_50,KALENTZI  ACHAIA(482),37.953,21.755,macroseismic,Stations_USGS,,0.06306,0.8059,0.153684,1.0131,,,0.060668,1.0822,900.0,inferred,5.0,0.3,0.875,5.2359,1.4737,0.013656
OBS_89,LALAS  ELIA(795),37.705,21.713,macroseismic,Stations_USGS,,0.062797,0.8059,0.15286,1.0131,,,0.060823,1.0822,404.53,inferred,5.0,0.3,0.875,5.2359,1.4737,0.013695
OBS_51,KALOUSI  ACHAIA(276),38.021,21.781,macroseismic,Stations_USGS,,0.062425,0.8059,0.151697,1.0131,,,0.061045,1.0822,710.68,inferred,5.0,0.3,0.875,5.2359,1.4737,0.013751
OBS_77,RIGANI  AITOLOAKARNANIA(599),38.583,21.238,macroseismic,Stations_USGS,,0.062086,0.8059,0.150635,1.0131,,,0.061249,1.0822,571.44,inferred,5.0,0.3,0.875,5.2359,1.4737,0.013803
OBS_70,LYSIMACHEIA  AITOLOAKARNANIA(659),38.55,21.334,macroseismic,Stations_USGS,,0.062078,0.8059,0.15061,1.0131,,,0.061254,1.0822,583.41,inferred,5.0,0.3,0.875,5.2359,1.4737,0.013804
OBS_92,NEMOUTA  ELIA(566),37.69,21.771,macroseismic,Stations_USGS,,0.061625,0.8059,0.149198,1.0131,,,0.061529,1.0822,529.65,inferred,5.0,0.3,0.875,5.2359,1.4737,0.013873
OBS_95,XIROKAMPOS  ELIA(341),37.67,21.782,macroseismic,Stations_USGS,,0.061267,0.8059,0.148081,1.0131,,,0.06175,1.0822,372.98,inferred,5.0,0.3,0.875,5.2359,1.4737,0.013929
OBS_84,ASPRA-SPITIA  ELIA(313),37.61,21.771,macroseismic,Stations_USGS,,0.060888,0.8059,0.146901,1.0131,,,0.061985,1.0822,566.63,inferred,5.0,0.3,0.875,5.2359,1.4737,0.013989
OBS_64,ANTIRRIO  AITOLOAKARNANIA(1281),38.353,21.716,macroseismic,Stations_USGS,,0.060812,0.8059,0.146668,1.0131,,,0.062032,1.0822,537.2,inferred,5.0,0.3,0.875,5.2359,1.4737,0.014001
OBS_62,SOULI  ACHAIA(821),38.188,21.829,macroseismic,Stations_USGS,,0.060681,0.8059,0.14626,1.0131,,,0.062114,1.0822,900.0,inferred,5.0,0.3,0.875,5.2359,1.4737,0.014021
OBS_56,LIVARTZI  ACHAIA(349),37.919,21.9,macroseismic,Stations_USGS,,0.060364,0.8059,0.145278,1.0131,,,0.062314,1.0822,900.0,inferred,5.0,0.3,0.875,5.2359,1.4737,0.014072
OBS_72,NEA-AVORANI  AITOLOAKARNANIA(943),38.607,21.452,macroseismic,Stations_USGS,,0.059944,0.8059,0.143975,1.0131,,,0.062582,1.0822,402.86,inferred,5.0,0.3,0.875,5.2359,1.4737,0.01414
OBS_68,KAINOURGIO  AITOLOAKARNANIA(3249),38.62,21.481,macroseismic,Stations_USGS,,0.059474,0.8059,0.142524,1.0131,,,0.062884,1.0822,469.33,inferred,5.0,0.3,0.875,5.2359,1.4737,0.014216
OBS_75,PARAVOLA  AITOLOAKARNANIA(2115),38.622,21.525,macroseismic,Stations_USGS,,0.059068,0.8059,0.141272,1.0131,,,0.063149,1.0822,900.0,inferred,5.0,0.3,0.875,5.2359,1.4737,0.014283
OBS_71,MYRTIA  AITOLOAKARNANIA(880),38.581,21.601,macroseismic,Stations_USGS,,0.059011,0.8059,0.141098,1.0131,,,0.063186,1.0822,600.0,inferred,5.0,0.3,0.875,5.2359,1.4737,0.014293
OBS_69,LEPENOU  AITOLOAKARNANIA(2445),38.726,21.269,macroseismic,Stations_USGS,,0.058995,0.8059,0.141046,1.0131,,,0.063197,1.0822,615.66,inferred,5.0,0.3,0.875,5.2359,1.4737,0.014296
OBS_82,ALIPHEIRA  ELIA(137),37.546,21.859,macroseismic,Stations_USGS,,0.058992,0.8059,0.141039,1.0131,,,0.063198,1.0822,566.21,inferred,5.0,0.3,0.875,5.2359,1.4737,0.014296
OBS_78,STRATOS  AITOLOAKARNANIA(1101),38.72,21.307,macroseismic,Stations_USGS,,0.058911,0.8059,0.140789,1.0131,,,0.063252,1.0822,540.03,inferred,5.0,0.3,0.875,5.2359,1.4737,0.014309
OBS_73,PALAIOKARYA  AITOLOAKARNANIA(312),38.624,21.564,macroseismic,Stations_USGS,,0.058701,0.8059,0.140142,1.0131,,,0.063391,1.0822,870.89,inferred,5.0,0.3,0.875,5.2359,1.4737,0.014345
OBS_49,DROSATO  ACHAIA(178),38.068,22.017,macroseismic,Stations_USGS,,0.058362,0.8059,0.139103,1.0131,,,0.063615,1.0822,352.83,inferred,5.0,0.3,0.875,5.2359,1.4737,0.014402
OBS_61,SELIANITIKA  ACHAIA(997),38.275,22.018,macroseismic,Stations_USGS,,0.057403,0.8059,0.136164,1.0131,,,0.064265,1.0822,619.47,inferred,5.0,0.3,0.875,5.2359,1.4737,0.014567
OBS_76,PLATANOS  AITOLOAKARNANIA(285),38.591,21.787,macroseismic,Stations_USGS,,0.057098,0.8059,0.135234,1.0131,,,0.064475,1.0822,900.0,inferred,5.0,0.3,0.875,5.2359,1.4737,0.01462
OBS_79,VARETADA  AITOLOAKARNANIA(314),38.854,21.286,macroseismic,Stations_USGS,,0.056758,0.8059,0.134197,1.0131,,,0.064712,1.0822,760.0,inferred,5.0,0.3,0.875,5.2359,1.4737,0.01468
OBS_54,KLEITORIA  ACHAIA(999),37.949,22.205,macroseismic,Stations_USGS,,0.056016,0.8059,0.131943,1.0131,,,0.065236,1.0822,760.0,inferred,5.0,0.3,0.875,5.2359,1.4737,0.014813
OBS_65,CHOUNI  AITOLOAKARNANIA(563),38.849,21.538,macroseismic,Stations_USGS,,0.055662,0.8059,0.13087,1.0131,,,0.06549,1.0822,760.0,inferred,5.0,0.3,0.875,5.2359,1.4737,0.014878
OBS_97,GARGALIANOI  MESSINIA(5310),37.051,21.617,macroseismic,Stations_USGS,,0.055472,0.8059,0.130294,1.0131,,,0.065627,1.0822,477.13,inferred,5.0,0.3,0.875,5.2359,1.4737,0.014913
OBS_66,EMPESOS  AITOLOAKARNANIA(811),39.025,21.325,macroseismic,Stations_USGS,,0.054221,0.8059,0.126522,1.0131,,,0.066551,1.0822,760.0,inferred,5.0,0.3,0.875,5.2359,1.4737,0.015149
OBS_80,KANDILA  ARKADIA(994),37.767,22.353,macroseismic,Stations_USGS,,0.054151,0.8059,0.126312,1.0131,,,0.066604,1.0822,760.0,inferred,5.0,0.3,0.875,5.2359,1.4737,0.015162
OBS_96,CHANDRINOS  MESSINIA(1002),36.948,21.78,macroseismic,Stations_USGS,,0.053354,0.8059,0.123923,1.0131,,,0.067212,1.0822,760.0,inferred,5.0,0.3,0.875,5.2359,1.4737,0.015317
OBS_119,ARGOSTOLI  KEPHALLINIA(7402),38.155,20.5,macroseismic,Stations_USGS,,0.052163,0.8059,0.090929,1.0131,,,0.031635,1.0822,589.38,inferred,4.5,0.3,0.875,3.6371,1.4737,0.006785
OBS_108,AGIOS-ILIAS-PINIION  ELIA(409),37.882,21.455,macroseismic,Stations_USGS,,0.051767,0.8059,0.09004,1.0131,,,0.03192,1.0822,375.92,inferred,4.5,0.3,0.875,3.6371,1.4737,0.006877
OBS_120,ITHAKI  KEPHALLINIA(1715),38.352,20.693,macroseismic,Stations_USGS,,0.050669,0.8059,0.087588,1.0131,,,0.032736,1.0822,900.0,inferred,4.5,0.3,0.875,3.6371,1.4737,0.007143
OBS_116,SMILA  ELIA(528),37.683,21.548,macroseismic,Stations_USGS,,0.048276,0.8059,0.082297,1.0131,,,0.034654,1.0822,357.67,inferred,4.5,0.3,0.875,3.6371,1.4737,0.00778
OBS_109,ANEMOCHORI  ELIA(404),37.6,21.543,macroseismic,Stations_USGS,,0.047394,0.8059,0.080367,1.0131,,,0.035414,1.0822,493.27,inferred,4.5,0.3,0.875,3.6371,1.4737,0.008038
OBS_102,VRACHNAIIKA  ACHAIA(2393),38.132,21.664,macroseismic,Stations_USGS,,0.047001,0.8059,0.079511,1.0131,,,0.035762,1.0822,539.37,inferred,4.5,0.3,0.875,3.6371,1.4737,0.008157
OBS_104,KARAISKAKIS  AITOLOAKARNANIA(742),38.561,21.077,macroseismic,Stations_USGS,,0.046502,0.8059,0.078424,1.0131,,,0.036215,1.0822,900.0,inferred,4.5,0.3,0.875,3.6371,1.4737,0.008313
OBS_114,MILIES  ELIA(234),37.738,21.712,macroseismic,Stations_USGS,,0.046226,0.8059,0.077826,1.0131,,,0.036469,1.0822,640.03,inferred,4.5,0.3,0.875,3.6371,1.4737,0.0084
OBS_113,LAMPEIA  ELIA(663),37.835,21.793,macroseismic,Stations_USGS,,0.045502,0.8059,0.076258,1.0131,,,0.037154,1.0822,900.0,inferred,4.5,0.3,0.875,3.6371,1.4737,0.008638
OBS_110,GRAIKA  ELIA(338),37.556,21.697,macroseismic,Stations_USGS,,0.045014,0.8059,0.075207,1.0131,,,0.037628,1.0822,900.0,inferred,4.5,0.3,0.875,3.6371,1.4737,0.008804
OBS_118,ZACHARO  ELIA(5037),37.489,21.637,macroseismic,Stations_USGS,,0.045004,0.8059,0.075186,1.0131,,,0.037638,1.0822,281.15,inferred,4.5,0.3,0.875,3.6371,1.4737,0.008808
OBS_105,MATARANKA  AITOLOAKARNANIA(2057),38.514,21.477,macroseismic,Stations_USGS,,0.044975,0.8059,0.075124,1.0131,,,0.037666,1.0822,900.0,inferred,4.5,0.3,0.875,3.6371,1.4737,0.008818
OBS_117,VASILAKI  ELIA(552),37.642,21.772,macroseismic,Stations_USGS,,0.044821,0.8059,0.074793,1.0131,,,0.037819,1.0822,323.06,inferred,4.5,0.3,0.875,3.6371,1.4737,0.008871
OBS_106,MESARISTA  AITOLOAKARNANIA(455),38.454,21.593,macroseismic,Stations_USGS,,0.044732,0.8059,0.074601,1.0131,,,0.037908,1.0822,528.26,inferred,4.5,0.3,0.875,3.6371,1.4737,0.008903
OBS_111,KAKOVATOS  ELIA(447),37.451,21.647,macroseismic,Stations_USGS,,0.044498,0.8059,0.074099,1.0131,,,0.038142,1.0822,309.25,inferred,4.5,0.3,0.875,3.6371,1.4737,0.008985
OBS_112,KALIDONA  ELIA(453),37.472,21.709,macroseismic,Stations_USGS,,0.044104,0.8059,0.073254,1.0131,,,0.038544,1.0822,576.25,inferred,4.5,0.3,0.875,3.6371,1.4737,0.009128
OBS_121,NYDRI  LEPHKADA(783),38.71,20.702,macroseismic,Stations_USGS,,0.043777,0.8059,0.072557,1.0131,,,0.038883,1.0822,533.15,inferred,4.5,0.3,0.875,3.6371,1.4737,0.009249
OBS_115,MYRONIA  ELIA(389),37.485,21.807,macroseismic,Stations_USGS,,0.043274,0.8059,0.071486,1.0131,,,0.039415,1.0822,700.59,inferred,4.5,0.3,0.875,3.6371,1.4737,0.009439
OBS_192,AGIA-EIRINI  KEPHALLINIA(306),38.123,20.756,macroseismic,Stations_USGS,,0.043018,0.8059,0.053588,1.0131,,,0.012838,1.0822,560.28,inferred,4.0,0.3,0.875,1.8191,1.4737,0.002057
OBS_101,PRIOLITHOS  ACHAIA(176),37.928,22.034,macroseismic,Stations_USGS,,0.042696,0.8059,0.070258,1.0131,,,0.040044,1.0822,900.0,inferred,4.5,0.3,0.875,3.6371,1.4737,0.009666
OBS_107,MONASTIRAKI  AITOLOAKARNANIA(1802),38.847,20.918,macroseismic,Stations_USGS,,0.042173,0.8059,0.069152,1.0131,,,0.040629,1.0822,760.0,inferred,4.5,0.3,0.875,3.6371,1.4737,0.009917
OBS_100,KERPINI  ACHAIA(235),38.074,22.091,macroseismic,Stations_USGS,,0.041994,0.8059,0.068773,1.0131,,,0.040834,1.0822,760.0,inferred,4.5,0.3,0.875,3.6371,1.4737,0.009946
OBS_193,AGIOS-NIKOLAOS  KEPHALLINIA(171),38.16,20.721,macroseismic,Stations_USGS,,0.041554,0.8059,0.051251,1.0131,,,0.013372,1.0822,318.78,inferred,4.0,0.3,0.875,1.8191,1.4737,0.002187
OBS_123,DORIO  MESSINIA(1628),37.288,21.86,macroseismic,Stations_USGS,,0.041296,0.8059,0.067305,1.0131,,,0.041647,1.0822,335.13,inferred,4.5,0.3,0.875,3.6371,1.4737,0.010062
OBS_103,AGIOS-VLASIOS  AITOLOAKARNANIA(445),38.837,21.495,macroseismic,Stations_USGS,,0.041065,0.8059,0.066821,1.0131,,,0.041922,1.0822,575.75,inferred,4.5,0.3,0.875,3.6371,1.4737,0.0101
OBS_122,ANDROUSA  MESSINIA(780),37.1,21.936,macroseismic,Stations_USGS,,0.039469,0.8059,0.063494,1.0131,,,0.043926,1.0822,336.13,inferred,4.5,0.3,0.875,3.6371,1.4737,0.010379
OBS_197,METAXATA  KEPHALLINIA(357),38.111,20.542,macroseismic,Stations_USGS,,0.039451,0.8059,0.047935,1.0131,,,0.014215,1.0822,559.74,inferred,4.0,0.3,0.875,1.8191,1.4737,0.002398
OBS_201,SVORONATA  KEPHALLINIA(488),38.11,20.521,macroseismic,Stations_USGS,,0.039104,0.8059,0.047392,1.0131,,,0.014364,1.0822,460.64,inferred,4.0,0.3,0.875,1.8191,1.4737,0.002435
OBS_200,POULATA  KEPHALLINIA(161),38.23,20.595,macroseismic,Stations_USGS,,0.038424,0.8059,0.046334,1.0131,,,0.014664,1.0822,814.96,inferred,4.0,0.3,0.875,1.8191,1.4737,0.002512
OBS_199,PHARAKLATA  KEPHALLINIA(540),38.189,20.52,macroseismic,Stations_USGS,,0.038075,0.8059,0.045776,1.0131,,,0.014827,1.0822,561.48,inferred,4.0,0.3,0.875,1.8191,1.4737,0.002554
OBS_198,PERACHORI  KEPHALLINIA(399),38.331,20.715,macroseismic,Stations_USGS,,0.037122,0.8059,0.045154,1.0131,,,0.015013,1.0822,714.86,inferred,4.0,0.3,0.875,1.8191,1.4737,0.002602
OBS_128,ARAXOS  ACHAIA(560),38.179,21.383,macroseismic,Stations_USGS,,0.037087,0.8059,0.045131,1.0131,,,0.01502,1.0822,461.94,inferred,4.0,0.3,0.875,1.8191,1.4737,0.002604
OBS_139,LAKKOPETRA  ACHAIA(955),38.171,21.451,macroseismic,Stations_USGS,,0.035127,0.8059,0.043829,1.0131,,,0.015428,1.0822,405.03,inferred,4.0,0.3,0.875,1.8191,1.4737,0.002711
OBS_196,LIXOURI  KEPHALLINIA(3424),38.205,20.422,macroseismic,Stations_USGS,,0.034605,0.8059,0.043476,1.0131,,,0.015542,1.0822,406.63,inferred,4.0,0.3,0.875,1.8191,1.4737,0.002741
OBS_147,SANTOMERI  ACHAIA(511),38.003,21.56,macroseismic,Stations_USGS,,0.033875,0.8059,0.042979,1.0131,,,0.015707,1.0822,433.85,inferred,4.0,0.3,0.875,1.8191,1.4737,0.002785
OBS_195,CHAVRIATA  KEPHALLINIA(256),38.18,20.373,macroseismic,Stations_USGS,,0.033753,0.8059,0.042895,1.0131,,,0.015735,1.0822,537.88,inferred,4.0,0.3,0.875,1.8191,1.4737,0.002792
OBS_194,CHAVDATA  KEPHALLINIA(393),38.192,20.378,macroseismic,Stations_USGS,,0.033652,0.8059,0.042826,1.0131,,,0.015758,1.0822,735.83,inferred,4.0,0.3,0.875,1.8191,1.4737,0.002799
OBS_163,KATOCHI  AITOLOAKARNANIA(3002),38.403,21.185,macroseismic,Stations_USGS,,0.033611,0.8059,0.042798,1.0131,,,0.015767,1.0822,247.63,inferred,4.0,0.3,0.875,1.8191,1.4737,0.002801
OBS_166,LESINI  AITOLOAKARNANIA(943),38.459,21.199,macroseismic,Stations_USGS,,0.031518,0.8059,0.041338,1.0131,,,0.016275,1.0822,449.05,inferred,4.0,0.3,0.875,1.8191,1.4737,0.002938
OBS_142,MITOPOLI  ACHAIA(550),38.045,21.679,macroseismic,Stations_USGS,,0.030286,0.8059,0.040459,1.0131,,,0.016598,1.0822,900.0,inferred,4.0,0.3,0.875,1.8191,1.4737,0.003026
OBS_188,KAKOTARI  ELIA(237),37.835,21.702,macroseismic,Stations_USGS,,0.029723,0.8059,0.040051,1.0131,,,0.016753,1.0822,495.99,inferred,4.0,0.3,0.875,1.8191,1.4737,0.003068
OBS_153,AGIOS-THOMAS  AITOLOAKARNANIA(679),38.39,21.472,macroseismic,Stations_USGS,,0.029609,0.8059,0.039968,1.0131,,,0.016785,1.0822,450.93,inferred,4.0,0.3,0.875,1.8191,1.4737,0.003077
OBS_187,ANTRONIO  ELIA(735),37.817,21.706,macroseismic,Stations_USGS,,0.029528,0.8059,0.039909,1.0131,,,0.016807,1.0822,397.23,inferred,4.0,0.3,0.875,1.8191,1.4737,0.003083
OBS_134,DROSIA  ACHAIA(673),37.921,21.726,macroseismic,Stations_USGS,,0.029417,0.8059,0.039829,1.0131,,,0.016838,1.0822,544.83,inferred,4.0,0.3,0.875,1.8191,1.4737,0.003092
KYL,Kyllini-Police Station,37.933,21.133,seismic,Stations_USGS,,0.029388,0.0,0.036122,0.0,,,0.005316,0.0,414.08,inferred,,,0.0,1.06,0.0,0.002582
OBS_190,TSIPIANA  ELIA(227),37.865,21.74,macroseismic,Stations_USGS,,0.028973,0.8059,0.039503,1.0131,,,0.016965,1.0822,805.12,inferred,4.0,0.3,0.875,1.8191,1.4737,0.003127
OBS_174,STAMNA  AITOLOAKARNANIA(1291),38.526,21.287,macroseismic,Stations_USGS,,0.028717,0.8059,0.039314,1.0131,,,0.017039,1.0822,350.74,inferred,4.0,0.3,0.875,1.8191,1.4737,0.003147
OBS_141,MINTILOGLI  ACHAIA(1594),38.172,21.704,macroseismic,Stations_USGS,,0.028701,0.8059,0.039302,1.0131,,,0.017044,1.0822,493.89,inferred,4.0,0.3,0.875,1.8191,1.4737,0.003149
OBS_158,CHRYSOVERGI  AITOLOAKARNANIA(641),38.508,21.353,macroseismic,Stations_USGS,,0.028489,0.8059,0.039146,1.0131,,,0.017107,1.0822,679.96,inferred,4.0,0.3,0.875,1.8191,1.4737,0.003166
OBS_186,AGIA-KYRIAKI  ELIA(128),37.848,21.761,macroseismic,Stations_USGS,,0.028452,0.8059,0.039118,1.0131,,,0.017118,1.0822,810.0,inferred,4.0,0.3,0.875,1.8191,1.4737,0.003169
OBS_177,VASILOPOULO  AITOLOAKARNANIA(636),38.598,21.072,macroseismic,Stations_USGS,,0.028216,0.8059,0.038942,1.0131,,,0.017188,1.0822,829.27,inferred,4.0,0.3,0.875,1.8191,1.4737,0.003189
OBS_131,CHALANDRITSA  ACHAIA(1165),38.094,21.758,macroseismic,Stations_USGS,,0.028213,0.8059,0.03894,1.0131,,,0.017189,1.0822,444.47,inferred,4.0,0.3,0.875,1.8191,1.4737,0.003189
OBS_143,PLATANIOTISSA  ACHAIA(425),38.13,21.754,macroseismic,Stations_USGS,,0.02805,0.8059,0.038819,1.0131,,,0.017238,1.0822,759.61,inferred,4.0,0.3,0.875,1.8191,1.4737,0.003202
OBS_162,KATO-KERASOVO  AITOLOAKARNANIA(623),38.516,21.431,macroseismic,Stations_USGS,,0.027458,0.8059,0.038375,1.0131,,,0.01742,1.0822,726.31,inferred,4.0,0.3,0.875,1.8191,1.4737,0.003253
OBS_156,ANGELOKASTRO  AITOLOAKARNANIA(1849),38.578,21.289,macroseismic,Stations_USGS,,0.02745,0.8059,0.038369,1.0131,,,0.017423,1.0822,449.3,inferred,4.0,0.3,0.875,1.8191,1.4737,0.003254
OBS_169,PAPPADATES  AITOLOAKARNANIA(1733),38.526,21.448,macroseismic,Stations_USGS,,0.027065,0.8059,0.038077,1.0131,,,0.017545,1.0822,677.58,inferred,4.0,0.3,0.875,1.8191,1.4737,0.003288
OBS_136,KALANOS  ACHAIA(158),38.055,21.856,macroseismic,Stations_USGS,,0.026508,0.8059,0.037652,1.0131,,,0.017726,1.0822,900.0,inferred,4.0,0.3,0.875,1.8191,1.4737,0.003339
OBS_214,SPARTOCHORI  LEPHKADA(511),38.67,20.77,macroseismic,Stations_USGS,,0.026382,0.8059,0.037556,1.0131,,,0.017767,1.0822,465.79,inferred,4.0,0.3,0.875,1.8191,1.4737,0.003351
OBS_159,GRAMMATIKOU  AITOLOAKARNANIA(1037),38.534,21.5,macroseismic,Stations_USGS,,0.026347,0.8059,0.037529,1.0131,,,0.017779,1.0822,485.76,inferred,4.0,0.3,0.875,1.8191,1.4737,0.003354
OBS_211,KATOCHORI  LEPHKADA(178),38.665,20.698,macroseismic,Stations_USGS,,0.026225,0.8059,0.037435,1.0131,,,0.01782,1.0822,572.51,inferred,4.0,0.3,0.875,1.8191,1.4737,0.003366
OBS_157,BAMPINI  AITOLOAKARNANIA(467),38.67,21.152,macroseismic,Stations_USGS,,0.026174,0.8059,0.037396,1.0131,,,0.017837,1.0822,510.86,inferred,4.0,0.3,0.875,1.8191,1.4737,0.003371
OBS_145,RIO  ACHAIA(3496),38.293,21.782,macroseismic,Stations_USGS,,0.026061,0.8059,0.037308,1.0131,,,0.017875,1.0822,468.77,inferred,4.0,0.3,0.875,1.8191,1.4737,0.003382
OBS_215,SYVROS  LEPHKADA(458),38.658,20.633,macroseismic,Stations_USGS,,0.026058,0.8059,0.037306,1.0131,,,0.017876,1.0822,582.41,inferred,4.0,0.3,0.875,1.8191,1.4737,0.003382
OBS_160,KANDILA  AITOLOAKARNANIA(1324),38.696,20.929,macroseismic,Stations_USGS,,0.026041,0.8059,0.037293,1.0131,,,0.017881,1.0822,752.53,inferred,4.0,0.3,0.875,1.8191,1.4737,0.003384
OBS_127,ANO-KASTRITSI  ACHAIA(764),38.262,21.829,macroseismic,Stations_USGS,,0.025634,0.8059,0.036978,1.0131,,,0.018021,1.0822,900.0,inferred,4.0,0.3,0.875,1.8191,1.4737,0.003423
OBS_209,AGIOS-ILIAS  LEPHKADA(186),38.688,20.642,macroseismic,Stations_USGS,,0.025484,0.8059,0.036861,1.0131,,,0.018073,1.0822,900.0,inferred,4.0,0.3,0.875,1.8191,1.4737,0.003438
OBS_129,ARGYRA  ACHAIA(275),38.279,21.864,macroseismic,Stations_USGS,,0.024971,0.8059,0.036459,1.0131,,,0.018255,1.0822,900.0,inferred,4.0,0.3,0.875,1.8191,1.4737,0.00349
OBS_168,PANTANASSA  AITOLOAKARNANIA(805),38.59,21.557,macroseismic,Stations_USGS,,0.024826,0.8059,0.036344,1.0131,,,0.018308,1.0822,600.0,inferred,4.0,0.3,0.875,1.8191,1.4737,0.003505
OBS_170,PETROCHORI  AITOLOAKARNANIA(525),38.537,21.645,macroseismic,Stations_USGS,,0.024748,0.8059,0.036282,1.0131,,,0.018336,1.0822,600.0,inferred,4.0,0.3,0.875,1.8191,1.4737,0.003514
OBS_155,ANALIPSI  AITOLOAKARNANIA(1074),38.487,21.716,macroseismic,Stations_USGS,,0.024648,0.8059,0.036203,1.0131,,,0.018373,1.0822,709.89,inferred,4.0,0.3,0.875,1.8191,1.4737,0.003524
OBS_144,PSATHOPYRGOS  ACHAIA(669),38.323,21.868,macroseismic,Stations_USGS,,0.024538,0.8059,0.036116,1.0131,,,0.018413,1.0822,700.89,inferred,4.0,0.3,0.875,1.8191,1.4737,0.003536
OBS_167,NAFPAKTOS  AITOLOAKARNANIA(10854),38.392,21.824,macroseismic,Stations_USGS,,0.024451,0.8059,0.036047,1.0131,,,0.018446,1.0822,598.04,inferred,4.0,0.3,0.875,1.8191,1.4737,0.003545
OBS_178,VOMVOKOU  AITOLOAKARNANIA(177),38.421,21.813,macroseismic,Stations_USGS,,0.024284,0.8059,0.035914,1.0131,,,0.018508,1.0822,900.0,inferred,4.0,0.3,0.875,1.8191,1.4737,0.003563
OBS_130,AROANIA  ACHAIA(159),37.887,22.011,macroseismic,Stations_USGS,,0.024127,0.8059,0.035788,1.0131,,,0.018568,1.0822,567.09,inferred,4.0,0.3,0.875,1.8191,1.4737,0.00358
OBS_212,KATOUNA  LEPHKADA(772),38.775,20.709,macroseismic,Stations_USGS,,0.024085,0.8059,0.035755,1.0131,,,0.018584,1.0822,523.84,inferred,4.0,0.3,0.875,1.8191,1.4737,0.003585
OBS_151,ZIRIA  ACHAIA(895),38.303,21.938,macroseismic,Stations_USGS,,0.023788,0.8059,0.035517,1.0131,,,0.018697,1.0822,523.89,inferred,4.0,0.3,0.875,1.8191,1.4737,0.003618
OBS_210,KARIOTES  LEPHKADA(340),38.795,20.703,macroseismic,Stations_USGS,,0.023716,0.8059,0.035458,1.0131,,,0.018726,1.0822,857.36,inferred,4.0,0.3,0.875,1.8191,1.4737,0.003626
OBS_176,TRYPHOS  AITOLOAKARNANIA(1011),38.812,21.047,macroseismic,Stations_USGS,,0.023662,0.8059,0.035415,1.0131,,,0.018747,1.0822,683.16,inferred,4.0,0.3,0.875,1.8191,1.4737,0.003632
OBS_161,KASTRAKI  AITOLOAKARNANIA(585),38.766,21.329,macroseismic,Stations_USGS,,0.023557,0.8059,0.03533,1.0131,,,0.018788,1.0822,592.78,inferred,4.0,0.3,0.875,1.8191,1.4737,0.003644
OBS_172,PLAGIA  AITOLOAKARNANIA(950),38.817,20.791,macroseismic,Stations_USGS,,0.023534,0.8059,0.035311,1.0131,,,0.018797,1.0822,900.0,inferred,4.0,0.3,0.875,1.8191,1.4737,0.003647
OBS_132,DAPHNI  ACHAIA(1333),37.813,22.045,macroseismic,Stations_USGS,,0.023509,0.8059,0.035291,1.0131,,,0.018807,1.0822,454.96,inferred,4.0,0.3,0.875,1.8191,1.4737,0.00365
OBS_138,KOUNINA  ACHAIA(577),38.189,22.018,macroseismic,Stations_USGS,,0.023444,0.8059,0.035238,1.0131,,,0.018832,1.0822,450.8,inferred,4.0,0.3,0.875,1.8191,1.4737,0.003657
OBS_137,KAMARES  ACHAIA(1401),38.297,21.997,macroseismic,Stations_USGS,,0.023098,0.8059,0.034956,1.0131,,,0.018971,1.0822,490.46,inferred,4.0,0.3,0.875,1.8191,1.4737,0.003698
OBS_213,LEFKADA  LEPHKADA(6721),38.831,20.691,macroseismic,Stations_USGS,,0.023077,0.8059,0.03494,1.0131,,,0.018979,1.0822,283.23,inferred,4.0,0.3,0.875,1.8191,1.4737,0.0037
OBS_220,KYPARISSIA  MESSINIA(5149),37.239,21.673,macroseismic,Stations_USGS,,0.023075,0.8059,0.034938,1.0131,,,0.01898,1.0822,900.0,inferred,4.0,0.3,0.875,1.8191,1.4737,0.0037
OBS_189,THEISOA  ELIA(198),37.509,21.96,macroseismic,Stations_USGS,,0.022969,0.8059,0.034851,1.0131,,,0.019023,1.0822,550.22,inferred,4.0,0.3,0.875,1.8191,1.4737,0.003713
OBS_140,LONGOS  ACHAIA(729),38.297,22.015,macroseismic,Stations_USGS,,0.022883,0.8059,0.034781,1.0131,,,0.019059,1.0822,354.28,inferred,4.0,0.3,0.875,1.8191,1.4737,0.003723
OBS_175,THYRIO  AITOLOAKARNANIA(1330),38.865,20.987,macroseismic,Stations_USGS,,0.022828,0.8059,0.034736,1.0131,,,0.019081,1.0822,760.0,inferred,4.0,0.3,0.875,1.8191,1.4737,0.00373
OBS_164,KATOUNA  AITOLOAKARNANIA(2763),38.866,21.058,macroseismic,Stations_USGS,,0.022744,0.8059,0.034666,1.0131,,,0.019116,1.0822,760.0,inferred,4.0,0.3,0.875,1.8191,1.4737,0.00374
OBS_146,RODODAPHNI  ACHAIA(2736),38.267,22.049,macroseismic,Stations_USGS,,0.02266,0.8059,0.034597,1.0131,,,0.019151,1.0822,492.96,inferred,4.0,0.3,0.875,1.8191,1.4737,0.003751
OBS_179,VONITSA  AITOLOAKARNANIA(4353),38.891,20.874,macroseismic,Stations_USGS,,0.022416,0.8059,0.034396,1.0131,,,0.019253,1.0822,760.0,inferred,4.0,0.3,0.875,1.8191,1.4737,0.003781
OBS_152,AGIOS-NIKOLAOS-VONITSAS  AITOLOAKARNANIA(448),38.889,20.787,macroseismic,Stations_USGS,,0.02236,0.8059,0.034349,1.0131,,,0.019277,1.0822,760.0,inferred,4.0,0.3,0.875,1.8191,1.4737,0.003788
OBS_165,KONISKA  AITOLOAKARNANIA(317),38.649,21.754,macroseismic,Stations_USGS,,0.022325,0.8059,0.03432,1.0131,,,0.019292,1.0822,900.0,inferred,4.0,0.3,0.875,1.8191,1.4737,0.003792
OBS_224,PHILIATRA  MESSINIA(6592),37.128,21.613,macroseismic,Stations_USGS,,0.022122,0.8059,0.034151,1.0131,,,0.019379,1.0822,565.57,inferred,4.0,0.3,0.875,1.8191,1.4737,0.003818
OBS_135,ELIKI  ACHAIA(553),38.217,22.118,macroseismic,Stations_USGS,,0.022109,0.8059,0.034141,1.0131,,,0.019385,1.0822,760.0,inferred,4.0,0.3,0.875,1.8191,1.4737,0.00382
OBS_148,TEMENI  ACHAIA(1171),38.235,22.119,macroseismic,Stations_USGS,,0.02202,0.8059,0.034067,1.0131,,,0.019423,1.0822,760.0,inferred,4.0,0.3,0.875,1.8191,1.4737,0.003831
OBS_173,SARDINIA  AITOLOAKARNANIA(976),38.895,21.232,macroseismic,Stations_USGS,,0.021945,0.8059,0.034004,1.0131,,,0.019456,1.0822,760.0,inferred,4.0,0.3,0.875,1.8191,1.4737,0.003841
OBS_149,VALIMITIKA  ACHAIA(550),38.223,22.135,macroseismic,Stations_USGS,,0.021895,0.8059,0.033962,1.0131,,,0.019478,1.0822,760.0,inferred,4.0,0.3,0.875,1.8191,1.4737,0.003847
OBS_227,VASILIKO  MESSINIA(484),37.275,21.893,macroseismic,Stations_USGS,,0.0216,0.8059,0.033715,1.0131,,,0.019609,1.0822,509.33,inferred,4.0,0.3,0.875,1.8191,1.4737,0.003886
OBS_133,DIAKOPTO  ACHAIA(2242),38.149,22.187,macroseismic,Stations_USGS,,0.021585,0.8059,0.033702,1.0131,,,0.019616,1.0822,760.0,inferred,4.0,0.3,0.875,1.8191,1.4737,0.003888
OBS_154,AMPELAKI  AITOLOAKARNANIA(1096),38.926,21.233,macroseismic,Stations_USGS,,0.021513,0.8059,0.033642,1.0131,,,0.019648,1.0822,760.0,inferred,4.0,0.3,0.875,1.8191,1.4737,0.003898
OBS_171,PETRONA  AITOLOAKARNANIA(270),38.898,21.393,macroseismic,Stations_USGS,,0.021376,0.8059,0.033526,1.0131,,,0.01971,1.0822,760.0,inferred,4.0,0.3,0.875,1.8191,1.4737,0.003916
OBS_126,ANO-DIAKOPTO  ACHAIA(329),38.13,22.238,macroseismic,Stations_USGS,,0.021097,0.8059,0.033289,1.0131,,,0.019838,1.0822,760.0,inferred,4.0,0.3,0.875,1.8191,1.4737,0.003954
OBS_150,ZAROUCHLA  ACHAIA(96),37.979,22.271,macroseismic,Stations_USGS,,0.020964,0.8059,0.033176,1.0131,,,0.0199,1.0822,760.0,inferred,4.0,0.3,0.875,1.8191,1.4737,0.003973
OBS_228,ZERMPISIA  MESSINIA(212),37.205,21.896,macroseismic,Stations_USGS,,0.020935,0.8059,0.03315,1.0131,,,0.019914,1.0822,584.04,inferred,4.0,0.3,0.875,1.8191,1.4737,0.003977
OBS_229,ZEVGOLATEIO  MESSINIA(599),37.251,21.965,macroseismic,Stations_USGS,,0.020809,0.8059,0.033042,1.0131,,,0.019973,1.0822,251.68,inferred,4.0,0.3,0.875,1.8191,1.4737,0.003995
OBS_183,MEGALOPOLI  ARKADIA(4684),37.416,22.118,macroseismic,Stations_USGS,,0.020739,0.8059,0.032983,1.0131,,,0.020006,1.0822,760.0,inferred,4.0,0.3,0.875,1.8191,1.4737,0.004005
OBS_223,OICHALIA  MESSINIA(413),37.25,21.997,macroseismic,Stations_USGS,,0.020553,0.8059,0.032823,1.0131,,,0.020095,1.0822,352.78,inferred,4.0,0.3,0.875,1.8191,1.4737,0.004032
OBS_221,MANIAKI  MESSINIA(73),37.075,21.771,macroseismic,Stations_USGS,,0.02054,0.8059,0.032812,1.0131,,,0.020101,1.0822,638.41,inferred,4.0,0.3,0.875,1.8191,1.4737,0.004033
OBS_125,AMPELOKIPOI  ACHAIA(436),38.1,22.317,macroseismic,Stations_USGS,,0.020376,0.8059,0.03267,1.0131,,,0.020181,1.0822,760.0,inferred,4.0,0.3,0.875,1.8191,1.4737,0.004057
OBS_218,IKLAINA  MESSINIA(342),36.991,21.723,macroseismic,Stations_USGS,,0.01998,0.8059,0.032326,1.0131,,,0.020377,1.0822,760.0,inferred,4.0,0.3,0.875,1.8191,1.4737,0.004117
OBS_124,AIGEIRA  ACHAIA(1696),38.134,22.354,macroseismic,Stations_USGS,,0.019971,0.8059,0.032318,1.0131,,,0.020382,1.0822,760.0,inferred,4.0,0.3,0.875,1.8191,1.4737,0.004118
OBS_185,ANEZA  ARTA(1677),39.078,20.932,macroseismic,Stations_USGS,,0.019936,0.8059,0.032288,1.0131,,,0.020399,1.0822,760.0,inferred,4.0,0.3,0.875,1.8191,1.4737,0.004124
OBS_225,PLATY  MESSINIA(520),37.142,22.005,macroseismic,Stations_USGS,,0.019651,0.8059,0.032037,1.0131,,,0.020545,1.0822,337.7,inferred,4.0,0.3,0.875,1.8191,1.4737,0.004168
OBS_217,EVA  MESSINIA(689),37.111,21.975,macroseismic,Stations_USGS,,0.0196,0.8059,0.031993,1.0131,,,0.020571,1.0822,329.95,inferred,4.0,0.3,0.875,1.8191,1.4737,0.004176
OBS_203,DERVENI  KORINTHIA(1252),38.127,22.405,macroseismic,Stations_USGS,,0.019535,0.8059,0.031936,1.0131,,,0.020605,1.0822,760.0,inferred,4.0,0.3,0.875,1.8191,1.4737,0.004186
OBS_226,THOURIA  MESSINIA(1140),37.082,22.042,macroseismic,Stations_USGS,,0.018978,0.8059,0.031441,1.0131,,,0.020901,1.0822,315.2,inferred,4.0,0.3,0.875,1.8191,1.4737,0.004277
OBS_222,MESSINI  MESSINIA(6519),37.04,22.002,macroseismic,Stations_USGS,,0.018899,0.8059,0.03137,1.0131,,,0.020944,1.0822,347.34,inferred,4.0,0.3,0.875,1.8191,1.4737,0.00429
OBS_216,ACHLADOCHORI  MESSINIA(356),36.932,21.914,macroseismic,Stations_USGS,,0.018533,0.8059,0.031041,1.0131,,,0.021147,1.0822,760.0,inferred,4.0,0.3,0.875,1.8191,1.4737,0.004352
OBS_230,ITEA  PHOKIDA(4303),38.443,22.428,macroseismic,Stations_USGS,,0.018467,0.8059,0.030982,1.0131,,,0.021184,1.0822,760.0,inferred,4.0,0.3,0.875,1.8191,1.4737,0.004364
OBS_184,AMMOTOPOS  ARTA(1240),39.252,20.925,macroseismic,Stations_USGS,,0.018146,0.8059,0.03069,1.0131,,,0.021368,1.0822,760.0,inferred,4.0,0.3,0.875,1.8191,1.4737,0.004421
OBS_219,KORONI  MESSINIA(1794),36.793,21.939,macroseismic,Stations_USGS,,0.017422,0.8059,0.030023,1.0131,,,0.021801,1.0822,760.0,inferred,4.0,0.3,0.875,1.8191,1.4737,0.004556
OBS_205,SIKYONA(KIATO)  KORINTHIA(9167),38.004,22.746,macroseismic,Stations_USGS,,0.017141,0.8059,0.02976,1.0131,,,0.021977,1.0822,760.0,inferred,4.0,0.3,0.875,1.8191,1.4737,0.004612
OBS_180,ARGOS  ARGOLIDA(22289),37.626,22.708,macroseismic,Stations_USGS,,0.01709,0.8059,0.029713,1.0131,,,0.022009,1.0822,760.0,inferred,4.0,0.3,0.875,1.8191,1.4737,0.004622
OBS_231,LEIANOKLADI  PHTHIOTIDA(1212),38.92,22.299,macroseismic,Stations_USGS,,0.016972,0.8059,0.029602,1.0131,,,0.022085,1.0822,760.0,inferred,4.0,0.3,0.875,1.8191,1.4737,0.004645
OBS_181,NEA-KIOS  ARGOLIDA(2456),37.592,22.744,macroseismic,Stations_USGS,,0.016813,0.8059,0.029452,1.0131,,,0.022187,1.0822,760.0,inferred,4.0,0.3,0.875,1.8191,1.4737,0.004678
OBS_207,SPARTI  LAKONIA(14084),37.053,22.429,macroseismic,Stations_USGS,,0.016756,0.8059,0.029398,1.0131,,,0.022225,1.0822,760.0,inferred,4.0,0.3,0.875,1.8191,1.4737,0.00469
OBS_182,ASTROS  ARKADIA(2958),37.398,22.682,macroseismic,Stations_USGS,,0.016714,0.8059,0.029358,1.0131,,,0.022252,1.0822,760.0,inferred,4.0,0.3,0.875,1.8191,1.4737,0.004698
OBS_204,PERIGIALI  KORINTHIA(1194),37.919,22.838,macroseismic,Stations_USGS,,0.01659,0.8059,0.02924,1.0131,,,0.022334,1.0822,760.0,inferred,4.0,0.3,0.875,1.8191,1.4737,0.004724
OBS_208,XIROKAMPI  LAKONIA(1722),36.952,22.439,macroseismic,Stations_USGS,,0.016254,0.8059,0.02892,1.0131,,,0.02256,1.0822,760.0,inferred,4.0,0.3,0.875,1.8191,1.4737,0.004796
OBS_202,ATHIKIA  KORINTHIA(2093),37.828,22.933,macroseismic,Stations_USGS,,0.01603,0.8059,0.028704,1.0131,,,0.022716,1.0822,760.0,inferred,4.0,0.3,0.875,1.8191,1.4737,0.004846
OBS_206,SOPHIKO  KORINTHIA(1774),37.79,23.052,macroseismic,Stations_USGS,,0.015407,0.8059,0.028096,1.0131,,,0.023164,1.0822,760.0,inferred,4.0,0.3,0.875,1.8191,1.4737,0.00499
OBS_191,ANATOLI  IOANNINA(4451),39.636,20.866,macroseismic,Stations_USGS,,0.015294,0.8059,0.027985,1.0131,,,0.023248,1.0822,760.0,inferred,4.0,0.3,0.875,1.8191,1.4737,0.005018
ARG,Argostoli-OTE Building,38.167,20.483,seismic,Stations_USGS,,0.012449,0.0,0.032245,0.0,,,0.008367,0.0,458.89,inferred,3.6,0.63,0.0,1.05,0.0,0.004571
OBS_293,DRYMOS  AITOLOAKARNANIA(688),38.868,21.03,macroseismic,Stations_USGS,,,,,,,,,,760.0,inferred,2.0,0.3,,,,
OBS_274,KARYA  LEPHKADA(957),38.759,20.666,macroseismic,Stations_USGS,,,,,,,,,,455.25,inferred,3.0,0.3,,,,
OBS_275,KATOMERI  LEPHKADA(523),38.659,20.779,macroseismic,Stations_USGS,,,,,,,,,,453.35,inferred,3.0,0.3,,,,
OBS_250,KIVERI  ARGOLIDA(1174),37.505,22.678,macroseismic,Stations_USGS,,,,,,,,,,760.0,inferred,3.0,0.3,,,,
OBS_267,LECHAIO  KORINTHIA(2319),37.928,22.855,macroseismic,Stations_USGS,,,,,,,,,,760.0,inferred,3.0,0.3,,,,
OBS_264,LEFKIMMI  KERKYRA(4147),39.414,20.062,macroseismic,Stations_USGS,,,,,,,,,,760.0,inferred,3.0,0.3,,,,
OBS_257,VOURGARELI(DROSOPIGI)  ARTA(1014),39.383,21.165,macroseismic,Stations_USGS,,,,,,,,,,760.0,inferred,3.0,0.3,,,,
OBS_278,NEA-KORONI  MESSINIA(416),36.841,21.908,macroseismic,Stations_USGS,,,,,,,,,,760.0,inferred,3.0,0.3,,,,
OBS_233,DRYMONAS  AITOLOAKARNANIA(377),38.632,21.667,macroseismic,Stations_USGS,,,,,,,,,,803.87,inferred,3.5,0.3,,,,
OBS_269,AGIOS-IOANNIS  LAKONIA(692),37.044,22.405,macroseismic,Stations_USGS,,,,,,,,,,760.0,inferred,3.0,0.3,,,,
OBS_243,GOURIOTISSA  AITOLOAKARNANIA(756),38.613,21.229,macroseismic,Stations_USGS,,,,,,,,,,458.26,inferred,3.0,0.3,,,,
OBS_245,PATIOPOULO  AITOLOAKARNANIA(685),39.108,21.271,macroseismic,Stations_USGS,,,,,,,,,,760.0,inferred,3.0,0.3,,,,
OBS_290,PETAS  ARTA(3652),39.171,21.046,macroseismic,Stations_USGS,,,,,,,,,,760.0,inferred,2.5,0.3,,,,
OBS_242,GAVALOU  AITOLOAKARNANIA(1376),38.495,21.539,macroseismic,Stations_USGS,,,,,,,,,,899.2,inferred,3.0,0.3,,,,
OBS_287,KATO-TITHOREA  PHTHIOTIDA(2813),38.612,22.72,macroseismic,Stations_USGS,,,,,,,,,,760.0,inferred,3.0,0.3,,,,
OBS_283,CHRISSO(CHRYSO)  PHOKIDA(968),38.482,22.46,macroseismic,Stations_USGS,,,,,,,,,,760.0,inferred,3.0,0.3,,,,
OBS_258,PROUSOS  EVRYTANIA(440),38.733,21.637,macroseismic,Stations_USGS,,,,,,,,,,472.94,inferred,3.0,0.3,,,,
OBS_286,KALLITHEA  PHOKIDA(373),38.37,22.139,macroseismic,Stations_USGS,,,,,,,,,,760.0,inferred,3.0,0.3,,,,
OBS_279,NEDOUSA  MESSINIA(206),37.144,22.234,macroseismic,Stations_USGS,,,,,,,,,,760.0,inferred,3.0,0.3,,,,
OBS_280,PETALIDI  MESSINIA(1300),36.97,21.918,macroseismic,Stations_USGS,,,,,,,,,,760.0,inferred,3.0,0.3,,,,
OBS_288,ZELI  PHTHIOTIDA(1033),38.676,22.858,macroseismic,Stations_USGS,,,,,,,,,,760.0,inferred,3.0,0.3,,,,
OBS_255,AGIA-PARASKEVI  ARTA(1281),39.088,20.981,macroseismic,Stations_USGS,,,,,,,,,,760.0,inferred,3.0,0.3,,,,
OBS_285,GRAVIA  PHOKIDA(887),38.664,22.43,macroseismic,Stations_USGS,,,,,,,,,,760.0,inferred,3.0,0.3,,,,
OBS_259,DOLIANA  IOANNINA(1168),39.89,20.588,macroseismic,Stations_USGS,,,,,,,,,,760.0,inferred,3.0,0.3,,,,
OBS_254,LEVIDI  ARKADIA(1142),37.672,22.294,macroseismic,Stations_USGS,,,,,,,,,,760.0,inferred,3.0,0.3,,,,
OBS_291,LARISA  LARISSA(113090),39.629,22.418,macroseismic,Stations_USGS,,,,,,,,,,760.0,inferred,2.5,0.3,,,,
OBS_272,ENKLOUVI  LEPHKADA(333),38.725,20.64,macroseismic,Stations_USGS,,,,,,,,,,747.99,inferred,3.0,0.3,,,,
OBS_251,LIMNES  ARGOLIDA(1088),37.717,22.896,macroseismic,Stations_USGS,,,,,,,,,,760.0,inferred,3.0,0.3,,,,
OBS_282,SIDIROKASTRO  MESSINIA(322),37.326,21.769,macroseismic,Stations_USGS,,,,,,,,,,550.47,inferred,3.0,0.3,,,,
OBS_266,KORINTHOS  KORINTHIA(27412),37.931,22.936,macroseismic,Stations_USGS,,,,,,,,,,760.0,inferred,3.0,0.3,,,,
OBS_260,KIONI  KEPHALLINIA(226),38.439,20.686,macroseismic,Stations_USGS,,,,,,,,,,900.0,inferred,3.0,0.3,,,,
OBS_276,KAVALLOS  LEPHKADA(292),38.78,20.67,macroseismic,Stations_USGS,,,,,,,,,,336.87,inferred,3.0,0.3,,,,
OBS_289,SAGIADA  THESPROTIA(803),39.63,20.193,macroseismic,Stations_USGS,,,,,,,,,,760.0,inferred,3.0,0.3,,,,
OBS_281,PROASTIO  MESSINIA(435),36.863,22.263,macroseismic,Stations_USGS,,,,,,,,,,760.0,inferred,3.0,0.3,,,,
OBS_261,SPARTIA  KEPHALLINIA(441),38.102,20.557,macroseismic,Stations_USGS,,,,,,,,,,483.28,inferred,3.0,0.3,,,,
OBS_262,TOULIATA  KEPHALLINIA(291),38.435,20.553,macroseismic,Stations_USGS,,,,,,,,,,700.66,inferred,3.0,0.3,,,,
OBS_238,POROS  LEPHKADA(240),38.643,20.705,macroseismic,Stations_USGS,,,,,,,,,,821.82,inferred,3.5,0.3,,,,
OBS_240,KIRRA  PHOKIDA(1173),38.431,22.451,macroseismic,Stations_USGS,,,,,,,,,,760.0,inferred,3.5,0.3,,,,
OBS_252,NAFPLIO  ARGOLIDA(11897),37.56,22.807,macroseismic,Stations_USGS,,,,,,,,,,760.0,inferred,3.0,0.3,,,,
OBS_292,DESPHINA  PHOKIDA(2389),38.38,22.554,macroseismic,Stations_USGS,,,,,,,,,,760.0,inferred,2.5,0.3,,,,
OBS_235,XIROPIGADO  AITOLOAKARNANIA(518),38.402,21.864,macroseismic,Stations_USGS,,,,,,,,,,352.81,inferred,3.5,0.3,,,,
OBS_236,VYTINA  ARKADIA(839),37.668,22.192,macroseismic,Stations_USGS,,,,,,,,,,760.0,inferred,3.5,0.3,,,,
OBS_237,MEGALO-CHORIO  EVRYTANIA(339),38.828,21.751,macroseismic,Stations_USGS,,,,,,,,,,900.0,inferred,3.5,0.3,,,,
OBS_253,DOLIANA  ARKADIA(1283),37.442,22.662,macroseismic,Stations_USGS,,,,,,,,,,760.0,inferred,3.0,0.3,,,,
OBS_256,PIGES  ARTA(813),39.292,21.388,macroseismic,Stations_USGS,,,,,,,,,,760.0,inferred,3.0,0.3,,,,
OBS_277,METHONI  MESSINIA(1177),36.83,21.72,macroseismic,Stations_USGS,,,,,,,,,,760.0,inferred,3.0,0.3,,,,
OBS_232,AMPHILOCHIA  AITOLOAKARNANIA(5116),38.838,21.152,macroseismic,Stations_USGS,,,,,,,,,,760.0,inferred,3.5,0.3,,,,
OBS_268,VELO  KORINTHIA(3237),37.975,22.754,macroseismic,Stations_USGS,,,,,,,,,,760.0,inferred,3.0,0.3,,,,
OBS_244,KOMPOTI  AITOLOAKARNANIA(516),38.755,21.04,macroseismic,Stations_USGS,,,,,,,,,,621.58,inferred,3.0,0.3,,,,
OBS_234,SITARALONA  AITOLOAKARNANIA(333),38.524,21.641,macroseismic,Stations_USGS,,,,,,,,,,600.0,inferred,3.5,0.3,,,,
OBS_263,AGIOS-MATTHAIOS  KERKYRA(1629),39.479,19.882,macroseismic,Stations_USGS,,,,,,,,,,760.0,inferred,3.0,0.3,,,,
OBS_239,AVRAMIO  MESSINIA(628),37.023,21.94,macroseismic,Stations_USGS,,,,,,,,,,760.0,inferred,3.5,0.3,,,,
OBS_270,SELASSIA  LAKONIA(487),37.164,22.405,macroseismic,Stations_USGS,,,,,,,,,,760.0,inferred,3.0,0.3,,,,
OBS_273,KALAMITSI  LEPHKADA(307),38.745,20.595,macroseismic,Stations_USGS,,,,,,,,,,900.0,inferred,3.0,0.3,,,,
OBS_284,GALAXIDI  PHOKIDA(1369),38.386,22.348,macroseismic,Stations_USGS,,,,,,,,,,760.0,inferred,3.0,0.3,,,,
OBS_247,ARACHNAIO  ARGOLIDA(1086),37.678,22.98,macroseismic,Stations_USGS,,,,,,,,,,760.0,inferred,3.0,0.3,,,,
OBS_265,NYMPHES  KERKYRA(1105),39.762,19.776,macroseismic,Stations_USGS,,,,,,,,,,760.0,inferred,3.0,0.3,,,,
OBS_271,SKOURA  LAKONIA(483),37.01,22.502,macroseismic,Stations_USGS,,,,,,,,,,760.0,inferred,3.0,0.3,,,,
OBS_241,EVINOCHORI  AITOLOAKARNANIA(2012),38.361,21.529,macroseismic,Stations_USGS,,,,,,,,,,246.23,inferred,3.0,0.3,,,,
OBS_248,IRIA  ARGOLIDA(851),37.511,23.003,macroseismic,Stations_USGS,,,,,,,,,,760.0,inferred,3.0,0.3,,,,
OBS_246,AGIA-TRIADA  ARGOLIDA(1152),37.63,22.8,macroseismic,Stations_USGS,,,,,,,,,,760.0,inferred,3.0,0.3,,,,
OBS_249,KARYA  ARGOLIDA(1078),37.623,22.581,macroseismic,Stations_USGS,,,,,,,,,,760.0,inferred,3.0,0.3,,,,
