STATION_ID,STATION_NAME,LONGITUDE,LATITUDE,STATION_TYPE,VS30,MMI_VALUE,MMI_STDDEV,PGA_LN_SIGMA,PGA_VALUE,PGV_LN_SIGMA,PGV_VALUE,SA(0.3)_LN_SIGMA,SA(0.3)_VALUE,SA(1.0)_LN_SIGMA,SA(1.0)_VALUE,SA(3.0)_LN_SIGMA,SA(3.0)_VALUE,VS30_TYPE,REFERENCES
AQG,,13.337,42.3737,seismic,462.87,7.4,0.63,0.0,0.514699,0.0,32.0067,0.0,0.801462,0.0,0.466048,0.0,0.019777,inferred,Stations_USGS
CNM,,15.1045,41.6182,seismic,516.07,3.4,0.63,0.0,0.001913,0.0,0.6765,0.0,0.004723,0.0,0.004177,0.0,0.00329,inferred,Stations_USGS
GUMA,,13.3352,43.0627,seismic,518.06,3.9,0.63,0.0,0.024436,0.0,1.3171,0.0,0.035398,0.0,0.008144,0.0,0.002099,inferred,Stations_USGS
ASSB,,12.6587,43.0426,seismic,900.0,null,null,0.0,0.005073,0.0,0.1122,0.0,0.007231,0.0,0.002804,0.0,0.000839,inferred,Stations_USGS
CSNT,,11.2902,43.4731,seismic,361.08,2.1,0.63,0.0,0.001534,0.0,0.1026,0.0,0.000646,0.0,0.000954,0.0,0.00047,inferred,Stations_USGS
MTR,MTR,13.2448,42.524,seismic,517.98,null,null,0.0,0.06256,0.0,2.8864,0.0,0.16641,0.0,0.04966,0.0,0.00621,inferred,Stations_USGS
SCTE,,18.4675,40.0724,seismic,760.0,1.8,0.63,0.0,0.000274,0.0,0.0639,0.0,0.000431,0.0,0.000856,0.0,0.000288,inferred,Stations_USGS
SENI,,13.2331,43.7052,seismic,367.78,3.0,0.63,0.0,0.002337,0.0,0.3938,0.0,0.00615,0.0,0.004794,0.0,0.002021,inferred,Stations_USGS
AQK,,13.4009,42.345,seismic,414.74,7.5,0.63,0.0,0.360263,0.0,33.8027,0.0,0.6337,0.0,0.356868,0.0,0.088244,inferred,Stations_USGS
CMPO,,11.8056,44.5808,seismic,760.0,2.6,0.63,0.0,0.000627,0.0,0.2068,0.0,0.00068,0.0,0.002173,0.0,0.000758,inferred,Stations_USGS
DOI,,7.24665,44.5042,seismic,760.0,1.0,0.63,0.0,6.8e-05,0.0,0.0112,0.0,0.000126,0.0,5.8e-05,0.0,3.5e-05,inferred,Stations_USGS
ASS,,12.6041,43.075,seismic,537.45,3.0,0.63,0.0,0.006167,0.0,0.4429,0.0,0.022488,0.0,0.003673,0.0,0.001017,inferred,Stations_USGS
GRI,,16.42,38.8221,seismic,760.0,null,null,0.0,9.1e-05,0.0,0.0995,0.0,9.4e-05,0.0,0.000149,0.0,0.000134,inferred,Stations_USGS
VAGA,,14.2342,41.4154,seismic,675.85,3.2,0.63,0.0,0.009406,0.0,0.6177,0.0,0.01395,0.0,0.0088,0.0,0.002459,inferred,Stations_USGS
SDG,,15.5589,41.8426,seismic,425.44,3.2,0.63,0.0,0.002021,0.0,0.592,0.0,0.004294,0.0,0.002915,0.0,0.003315,inferred,Stations_USGS
PIC,,11.6849,42.8503,seismic,590.8,null,null,0.0,0.001268,0.0,0.3341,0.0,0.002243,0.0,0.003287,0.0,0.001229,inferred,Stations_USGS
ORI,,16.4504,40.051,seismic,760.0,2.3,0.63,0.0,0.000361,0.0,0.1358,0.0,0.000627,0.0,0.000672,0.0,0.000429,inferred,Stations_USGS
GIUL,,13.2546,41.5583,seismic,879.44,3.4,0.63,0.0,0.013528,0.0,0.6944,0.0,0.011656,0.0,0.016942,0.0,0.003861,inferred,Stations_USGS
TTS,TTS,15.7236,40.6013,seismic,459.14,null,null,0.0,0.00353,0.0,0.653,0.0,0.00404,0.0,0.01107,0.0,0.00333,inferred,Stations_USGS
PESA,,12.8402,43.941,seismic,502.08,3.1,0.63,0.0,0.002269,0.0,0.465,0.0,0.006822,0.0,0.006196,0.0,0.002117,inferred,Stations_USGS
CEL,,15.8939,38.2603,seismic,760.0,null,null,0.0,0.000184,0.0,0.0705,0.0,8.8e-05,0.0,0.000129,0.0,9.1e-05,inferred,Stations_USGS
MTRZ,,11.4248,44.3128,seismic,760.0,2.8,0.63,0.0,0.000656,0.0,0.2048,0.0,0.001112,0.0,0.002432,0.0,0.000652,inferred,Stations_USGS
CER,CER,15.9101,41.2595,seismic,760.0,null,null,0.0,0.00125,0.0,0.3564,0.0,0.00323,0.0,0.00301,0.0,0.00253,inferred,Stations_USGS
SANL,SANL,16.2718,40.2527,seismic,760.0,null,null,0.0,0.00238,null,null,0.0,0.00282,0.0,0.00632,0.0,0.00402,inferred,Stations_USGS
PTRP,,16.0612,40.5215,seismic,760.0,1.0,0.63,0.0,2e-06,0.0,0.0006,0.0,2e-06,0.0,3e-06,0.0,2e-06,inferred,Stations_USGS
ORC,ORC,13.6424,41.9536,seismic,488.26,null,null,0.0,0.06532,null,null,0.0,0.18525,0.0,0.07149,0.0,0.00548,inferred,Stations_USGS
MTSN,,15.7515,40.2663,seismic,760.0,2.5,0.63,0.0,0.000506,0.0,0.1921,0.0,0.00062,0.0,0.00092,0.0,0.000886,inferred,Stations_USGS
RESU,,14.0568,37.6468,seismic,760.0,null,null,0.0,0.000116,0.0,0.1377,0.0,9.4e-05,0.0,0.000101,0.0,0.000138,inferred,Stations_USGS
ASQU,,11.7893,43.7967,seismic,900.0,2.4,0.63,0.0,0.000538,0.0,0.176,0.0,0.001339,0.0,0.001701,0.0,0.000663,inferred,Stations_USGS
MIDA,,14.254,41.6419,seismic,900.0,3.4,0.63,0.0,0.015485,0.0,0.7369,0.0,0.023896,0.0,0.008563,0.0,0.003061,inferred,Stations_USGS
AMUR,,16.6041,40.9071,seismic,760.0,2.1,0.63,0.0,0.000384,0.0,0.0847,0.0,0.000812,0.0,0.000828,0.0,0.000381,inferred,Stations_USGS
TMO,TMO,14.975,41.9895,seismic,334.31,null,null,0.0,0.00464,0.0,0.9082,0.0,0.00759,0.0,0.00945,0.0,0.00723,inferred,Stations_USGS
MRVN,,16.1958,41.0609,seismic,760.0,2.2,0.63,0.0,0.000324,0.0,0.1178,0.0,0.000655,0.0,0.000674,0.0,0.000422,inferred,Stations_USGS
SACS,,11.9097,42.8491,seismic,382.48,3.0,0.63,0.0,0.002601,0.0,0.28,0.0,0.002162,0.0,0.002959,0.0,0.001435,inferred,Stations_USGS
MAON,,11.1309,42.4283,seismic,551.12,2.4,0.63,0.0,0.0005,0.0,0.0645,0.0,0.001077,0.0,0.000766,0.0,0.000275,inferred,Stations_USGS
ISR,ISR,14.2359,41.6106,seismic,441.2,3.4,0.63,0.0,0.00733,0.0,0.8586,0.0,0.01659,0.0,0.01316,0.0,0.00265,inferred,Stations_USGS
NAP,,14.1796,40.7993,seismic,517.25,null,null,0.0,0.002654,0.0,1.0607,0.0,0.00383,0.0,0.007652,0.0,0.003615,inferred,Stations_USGS
LPEL,,14.1832,42.0468,seismic,900.0,3.3,0.63,0.0,0.021717,0.0,0.7349,0.0,0.033037,0.0,0.013858,0.0,0.007012,inferred,Stations_USGS
ARVD,,12.9415,43.4981,seismic,599.39,3.1,0.63,0.0,0.002415,0.0,0.3566,0.0,0.004642,0.0,0.006732,0.0,0.001229,inferred,Stations_USGS
GALF,,14.5665,37.7107,seismic,760.0,1.0,0.63,0.0,3.8e-05,0.0,0.0268,0.0,4.8e-05,0.0,7.6e-05,0.0,3.2e-05,inferred,Stations_USGS
CRE,,11.9517,43.6189,seismic,747.79,2.2,0.63,0.0,0.000382,0.0,0.0961,0.0,0.001078,0.0,0.000851,0.0,0.000615,inferred,Stations_USGS
MCRV,,15.1684,40.7826,seismic,900.0,2.5,0.63,0.0,0.000737,0.0,0.1601,0.0,0.001065,0.0,0.001792,0.0,0.000515,inferred,Stations_USGS
CTI,,11.6497,46.0482,seismic,760.0,1.4,0.63,0.0,0.000261,0.0,0.029,0.0,0.000852,0.0,0.000315,0.0,0.000121,inferred,Stations_USGS
ROM9,,12.5155,41.8284,seismic,215.5,3.7,0.63,0.0,0.033653,0.0,1.2906,0.0,0.048968,0.0,0.015083,0.0,0.004211,inferred,Stations_USGS
SSR,,15.3736,41.6913,seismic,261.11,null,null,0.0,0.005451,0.0,1.4704,0.0,0.007875,0.0,0.010868,0.0,0.008273,inferred,Stations_USGS
QLNO,,8.34592,44.3242,seismic,760.0,1.0,0.63,0.0,0.000117,0.0,0.0254,0.0,5.2e-05,0.0,7.8e-05,0.0,0.000126,inferred,Stations_USGS
MODR,,13.8779,41.1459,seismic,615.35,2.7,0.63,0.0,0.00325,0.0,0.2724,0.0,0.001304,0.0,0.002038,0.0,0.000981,inferred,Stations_USGS
STN,,15.1117,41.0183,seismic,807.04,2.8,0.63,0.0,0.001401,0.0,0.2789,0.0,0.001472,0.0,0.00417,0.0,0.001677,inferred,Stations_USGS
RMP,,12.7022,41.8111,seismic,644.15,3.7,0.63,0.0,0.008626,0.0,1.2311,0.0,0.028646,0.0,0.00791,0.0,0.003239,inferred,Stations_USGS
SSY,,15.0737,37.1577,seismic,760.0,1.1,0.63,0.0,0.000115,0.0,0.0254,0.0,5.4e-05,0.0,7.2e-05,0.0,4.2e-05,inferred,Stations_USGS
CORL,,13.3038,37.8943,seismic,760.0,1.7,0.63,0.0,8.3e-05,0.0,0.0349,0.0,4.7e-05,0.0,6.6e-05,0.0,8.6e-05,inferred,Stations_USGS
ZCCA,,10.9765,44.3509,seismic,760.0,2.7,0.63,0.0,0.000431,0.0,0.2351,0.0,0.000467,0.0,0.001209,0.0,0.001112,inferred,Stations_USGS
CDS,,14.1119,41.7871,seismic,464.4,4.0,0.63,0.0,0.010132,0.0,1.9222,0.0,0.024366,0.0,0.028174,0.0,0.009053,inferred,Stations_USGS
SNM,,12.4493,43.9343,seismic,477.72,null,null,0.0,0.002364,0.0,0.8146,0.0,0.002763,0.0,0.008749,0.0,0.002888,inferred,Stations_USGS
IFIL,,14.5753,38.5642,seismic,760.0,2.1,0.63,0.0,6e-05,0.0,0.1116,0.0,9.8e-05,0.0,9.2e-05,0.0,9.9e-05,inferred,Stations_USGS
SPC,,12.7392,42.7428,seismic,536.38,3.3,0.63,0.0,0.007718,0.0,0.6956,0.0,0.013234,0.0,0.010176,0.0,0.001657,inferred,Stations_USGS
MRLC,,15.4889,40.7564,seismic,685.46,2.5,0.63,0.0,0.000653,0.0,0.1835,0.0,0.000901,0.0,0.001359,0.0,0.001485,inferred,Stations_USGS
AOI,,13.602,43.5502,seismic,615.37,3.0,0.63,0.0,0.002906,0.0,0.4288,0.0,0.006111,0.0,0.008961,0.0,0.002381,inferred,Stations_USGS
SUL,SUL,13.9343,42.0895,seismic,900.0,null,null,0.0,0.02402,null,null,0.0,0.03387,0.0,0.01405,0.0,0.00748,inferred,Stations_USGS
GSA,,13.5194,42.4207,seismic,681.99,6.0,0.63,0.0,0.148838,0.0,11.3967,0.0,0.482687,0.0,0.094002,0.0,0.029604,inferred,Stations_USGS
FSSB,,12.7771,43.6931,seismic,900.0,3.1,0.63,0.0,0.004434,0.0,0.4751,0.0,0.019633,0.0,0.003646,0.0,0.001153,inferred,Stations_USGS
CHT,CHT,14.1478,42.3698,seismic,483.94,null,null,,,,,,,,,,,inferred,Stations_USGS
FDMO,,13.0873,43.0365,seismic,594.74,3.3,0.63,0.0,0.005909,0.0,0.7008,0.0,0.019221,0.0,0.00614,0.0,0.003898,inferred,Stations_USGS
STL,,15.6431,40.5408,seismic,760.0,2.8,0.63,0.0,0.000963,0.0,0.303,0.0,0.001058,0.0,0.00281,0.0,0.001299,inferred,Stations_USGS
HVZN,,14.7155,37.1783,seismic,760.0,1.1,0.63,0.0,6.1e-05,0.0,0.0313,0.0,6.5e-05,0.0,0.000126,0.0,4.6e-05,inferred,Stations_USGS
NOCI,,17.0644,40.7888,seismic,760.0,2.0,0.63,0.0,0.000329,0.0,0.0858,0.0,0.000921,0.0,0.000886,0.0,0.00049,inferred,Stations_USGS
SEP,,14.8802,41.625,seismic,592.95,3.6,0.63,0.0,0.003578,0.0,0.9546,0.0,0.004596,0.0,0.010727,0.0,0.005037,inferred,Stations_USGS
PLAC,,16.4383,38.4494,seismic,760.0,null,null,0.0,9e-05,0.0,0.098,0.0,8.3e-05,0.0,0.00013,0.0,0.000168,inferred,Stations_USGS
VCEL,,13.8406,42.3946,seismic,788.62,null,null,0.0,0.025908,0.0,6.6818,0.0,0.082583,0.0,0.054533,0.0,0.010519,inferred,Stations_USGS
MTCE,,12.7422,42.0228,seismic,418.3,3.3,0.63,0.0,0.015002,0.0,0.5656,0.0,0.013597,0.0,0.008238,0.0,0.002117,inferred,Stations_USGS
TIR,,19.8631,41.3472,seismic,760.0,null,null,0.0,0.001164,0.0,0.082,0.0,0.000473,0.0,0.000501,0.0,0.000448,inferred,Stations_USGS
SCM,,14.9838,41.7108,seismic,425.16,3.5,0.63,0.0,0.00431,0.0,0.7131,0.0,0.006898,0.0,0.009453,0.0,0.00382,inferred,Stations_USGS
SFI,,11.8469,43.9048,seismic,746.2,2.3,0.63,0.0,0.000675,0.0,0.151,0.0,0.000899,0.0,0.001649,0.0,0.000923,inferred,Stations_USGS
PTF,PTF,14.7024,41.6963,seismic,650.0,3.7,0.63,0.0,0.00671,0.0,1.325,0.0,0.01657,0.0,0.01503,0.0,0.00627,inferred,Stations_USGS
CTL,,12.7358,43.955,seismic,280.37,null,null,0.0,0.00445,0.0,0.7386,0.0,0.00791,0.0,0.021423,0.0,0.002026,inferred,Stations_USGS
CAFR,,14.347,42.2273,seismic,504.45,3.6,0.63,0.0,0.030631,0.0,1.0163,0.0,0.065125,0.0,0.017563,0.0,0.005149,inferred,Stations_USGS
HAVL,,15.122,36.9596,seismic,760.0,1.1,0.63,0.0,4.5e-05,0.0,0.0315,0.0,2.9e-05,0.0,3.6e-05,0.0,3.2e-05,inferred,Stations_USGS
CERT,,12.9818,41.949,seismic,900.0,4.0,0.63,0.0,0.057119,0.0,2.1162,0.0,0.071729,0.0,0.021383,0.0,0.011382,inferred,Stations_USGS
CAFE,,15.2366,41.028,seismic,810.55,2.6,0.63,0.0,0.000608,0.0,0.2373,0.0,0.000887,0.0,0.001415,0.0,0.001364,inferred,Stations_USGS
PSB1,,14.8108,41.2234,seismic,534.37,3.2,0.63,0.0,0.009867,0.0,0.5596,0.0,0.004292,0.0,0.005197,0.0,0.002296,inferred,Stations_USGS
NRCA,,13.1143,42.8336,seismic,900.0,3.2,0.63,0.0,0.027341,0.0,0.5901,0.0,0.020181,0.0,0.00604,0.0,0.004159,inferred,Stations_USGS
MRB1,,14.9681,41.1227,seismic,477.81,3.3,0.63,0.0,0.012014,0.0,0.6426,0.0,0.003078,0.0,0.007207,0.0,0.003387,inferred,Stations_USGS
PRMA,,10.3131,44.7637,seismic,760.0,2.2,0.63,0.0,0.000343,0.0,0.131,0.0,0.000278,0.0,0.000454,0.0,0.000368,inferred,Stations_USGS
TERO,,13.6039,42.6228,seismic,550.47,null,null,0.0,0.034745,0.0,0.8537,0.0,0.040131,0.0,0.013602,0.0,0.003523,inferred,Stations_USGS
SGG,,14.3792,41.3867,seismic,900.0,null,null,0.0,0.060271,0.0,0.7956,0.0,0.023493,0.0,0.006856,0.0,0.001206,inferred,Stations_USGS
FRES,,14.6693,41.9735,seismic,604.23,3.3,0.63,0.0,0.014025,0.0,0.6408,0.0,0.009089,0.0,0.007669,0.0,0.005233,inferred,Stations_USGS
FMG,,13.1172,42.268,seismic,900.0,4.2,0.63,0.0,0.026862,0.0,1.6637,0.0,0.056828,0.0,0.026016,0.0,0.00423,inferred,Stations_USGS
BSSO,,14.5938,41.5461,seismic,551.88,3.3,0.63,0.0,0.009888,0.0,0.6895,0.0,0.005357,0.0,0.006399,0.0,0.005092,inferred,Stations_USGS
MPAZ,,16.0067,37.9531,seismic,760.0,null,null,0.0,0.000718,0.0,0.081,0.0,0.000108,0.0,8.6e-05,0.0,8.3e-05,inferred,Stations_USGS
FIU,,11.4916,44.6403,seismic,760.0,null,null,0.0,0.000705,0.0,0.3011,0.0,0.000954,0.0,0.002747,0.0,0.001414,inferred,Stations_USGS
ACER,,15.9427,40.7867,seismic,760.0,2.6,0.63,0.0,0.001037,0.0,0.2438,0.0,0.001446,0.0,0.003191,0.0,0.001617,inferred,Stations_USGS
RDP,,12.7167,41.7583,seismic,593.56,3.4,0.63,0.0,0.022454,0.0,0.783,0.0,0.033239,0.0,0.020924,0.0,0.00316,inferred,Stations_USGS
CERA,,14.0183,41.5978,seismic,799.19,3.3,0.63,0.0,0.016795,0.0,0.6829,0.0,0.024017,0.0,0.015239,0.0,0.004056,inferred,Stations_USGS
SNS,,12.1435,43.5673,seismic,403.69,3.4,0.63,0.0,0.003902,0.0,0.8369,0.0,0.005802,0.0,0.014533,0.0,0.002854,inferred,Stations_USGS
SACR,,14.7057,41.3974,seismic,526.21,3.2,0.63,0.0,0.022298,0.0,0.5265,0.0,0.009577,0.0,0.004446,0.0,0.002729,inferred,Stations_USGS
GNL,GNL,16.0331,40.8433,seismic,760.0,null,null,0.0,0.00198,0.0,0.5537,0.0,0.00374,0.0,0.00589,0.0,0.00282,inferred,Stations_USGS
TRTR,,13.9138,42.8081,seismic,572.35,3.5,0.63,0.0,0.029176,0.0,0.8289,0.0,0.028258,0.0,0.018884,0.0,0.004727,inferred,Stations_USGS
CRAC,,16.435,40.365,seismic,760.0,2.6,0.63,0.0,0.000668,0.0,0.2124,0.0,0.000994,0.0,0.002118,0.0,0.000936,inferred,Stations_USGS
NOVE,,10.7161,44.7982,seismic,760.0,null,null,0.0,0.000398,0.0,0.2291,0.0,0.000522,0.0,0.000973,0.0,0.001238,inferred,Stations_USGS
MA9,,12.6593,41.7702,seismic,456.54,3.5,0.63,0.0,0.007728,0.0,0.9688,0.0,0.011888,0.0,0.015128,0.0,0.003369,inferred,Stations_USGS
ARCI,,11.4754,42.8519,seismic,785.39,2.3,0.63,0.0,0.000413,0.0,0.1455,0.0,0.000598,0.0,0.000845,0.0,0.000503,inferred,Stations_USGS
CAN,CAN,15.4754,41.2032,seismic,385.19,null,null,,,,,,,,,,,inferred,Stations_USGS
WDD,,14.5242,35.8373,seismic,760.0,1.0,0.63,0.0,7e-05,0.0,0.0081,0.0,1e-05,0.0,1.8e-05,0.0,1.4e-05,inferred,Stations_USGS
BRMO,,10.3731,46.476,seismic,760.0,1.0,0.63,0.0,0.000103,0.0,0.0116,0.0,9.4e-05,0.0,9.9e-05,0.0,4.1e-05,inferred,Stations_USGS
INTR,,13.9046,42.0115,seismic,780.35,3.5,0.63,0.0,0.030053,0.0,0.7225,0.0,0.061809,0.0,0.028498,0.0,0.003623,inferred,Stations_USGS
POFI,,13.712,41.7174,seismic,761.55,3.4,0.63,0.0,0.019376,0.0,0.7417,0.0,0.016761,0.0,0.013503,0.0,0.004035,inferred,Stations_USGS
PARC,,12.2386,43.6486,seismic,357.72,3.0,0.63,0.0,0.001687,0.0,0.4074,0.0,0.003078,0.0,0.00372,0.0,0.002146,inferred,Stations_USGS
MSAG,,15.9096,41.712,seismic,760.0,3.1,0.63,0.0,0.004504,0.0,0.494,0.0,0.011286,0.0,0.005422,0.0,0.001648,inferred,Stations_USGS
MNG,,15.959,41.7032,seismic,760.0,2.9,0.63,0.0,0.002357,0.0,0.3837,0.0,0.005377,0.0,0.005526,0.0,0.001114,inferred,Stations_USGS
SOI,,16.0542,38.0732,seismic,760.0,1.2,0.63,0.0,3.9e-05,0.0,0.0302,0.0,7.6e-05,0.0,0.000116,0.0,4.3e-05,inferred,Stations_USGS
BDT,,12.188,43.7068,seismic,590.29,2.9,0.63,0.0,0.002029,0.0,0.3099,0.0,0.004819,0.0,0.003728,0.0,0.002324,inferred,Stations_USGS
MURB,,12.5246,43.263,seismic,481.94,3.3,0.63,0.0,0.041251,0.0,0.6386,0.0,0.035127,0.0,0.01109,0.0,0.002427,inferred,Stations_USGS
VRP,,14.1317,41.3332,seismic,542.81,3.5,0.63,0.0,0.003599,0.0,0.7332,0.0,0.004979,0.0,0.006814,0.0,0.002436,inferred,Stations_USGS
SIRI,,15.8675,40.1821,seismic,760.0,2.2,0.63,0.0,0.000279,0.0,0.1131,0.0,0.000486,0.0,0.000567,0.0,0.00074,inferred,Stations_USGS
SCP,SCP,15.1646,41.8072,seismic,468.81,null,null,0.0,0.00575,null,null,0.0,0.0126,0.0,0.01121,0.0,0.00562,inferred,Stations_USGS
CLN,,13.5207,42.0852,seismic,883.12,5.3,0.63,0.0,0.089818,0.0,6.6854,0.0,0.147211,0.0,0.084145,0.0,0.013644,inferred,Stations_USGS
SGTA,,15.365,41.135,seismic,373.14,2.9,0.63,0.0,0.001165,0.0,0.3247,0.0,0.00173,0.0,0.005429,0.0,0.001124,inferred,Stations_USGS
ERBM,,10.4127,44.4194,seismic,760.0,2.2,0.63,0.0,0.000272,0.0,0.1178,0.0,0.000278,0.0,0.000506,0.0,0.000792,inferred,Stations_USGS
BNE,,14.7849,41.1276,seismic,435.2,3.3,0.63,0.0,0.00208,0.0,0.6956,0.0,0.00218,0.0,0.006911,0.0,0.002828,inferred,Stations_USGS
BULG,,15.3776,40.0783,seismic,760.0,2.5,0.63,0.0,0.000428,0.0,0.1946,0.0,0.000555,0.0,0.000812,0.0,0.000759,inferred,Stations_USGS
CSO1,CSO1,13.0881,42.1009,seismic,464.06,4.1,0.63,0.0,0.01863,0.0,2.3116,0.0,0.05101,0.0,0.02916,0.0,0.00456,inferred,Stations_USGS
CESI,,12.9046,43.0049,seismic,686.35,2.8,0.63,0.0,0.004815,0.0,0.2888,0.0,0.00539,0.0,0.002694,0.0,0.001128,inferred,Stations_USGS
CMB,CMB,14.6523,41.5628,seismic,442.33,3.7,0.63,0.0,0.00292,0.0,1.3219,0.0,0.00331,0.0,0.00559,0.0,0.00656,inferred,Stations_USGS
AQV,,13.3439,42.3771,seismic,373.68,7.9,0.63,0.0,0.62441,0.0,40.6775,0.0,0.842705,0.0,0.472665,0.0,0.057329,inferred,Stations_USGS
GIB,,14.0262,37.9903,seismic,760.0,1.2,0.63,0.0,4.1e-05,0.0,0.0332,0.0,5.5e-05,0.0,0.000103,0.0,9.9e-05,inferred,Stations_USGS
SALO,,10.5255,45.6078,seismic,760.0,1.5,0.63,0.0,0.000226,0.0,0.0421,0.0,0.000485,0.0,0.000566,0.0,0.000221,inferred,Stations_USGS
MRGE,,7.06101,45.7698,seismic,760.0,1.0,0.63,0.0,9.4e-05,0.0,0.0098,0.0,3.9e-05,0.0,6.1e-05,0.0,6.7e-05,inferred,Stations_USGS
RSM,,12.4497,43.9303,seismic,477.72,2.4,0.63,0.0,0.000416,0.0,0.1764,0.0,0.000475,0.0,0.001024,0.0,0.000536,inferred,Stations_USGS
FVI,,12.7804,46.5966,seismic,760.0,1.3,0.63,0.0,8.9e-05,0.0,0.0189,0.0,0.000202,0.0,0.000223,0.0,9e-05,inferred,Stations_USGS
GUAR,,13.3123,41.7945,seismic,816.58,3.5,0.63,0.0,0.0263,0.0,0.9358,0.0,0.027771,0.0,0.00586,0.0,0.002691,inferred,Stations_USGS
BOB,,9.44782,44.7679,seismic,760.0,1.9,0.63,0.0,0.000355,0.0,0.0768,0.0,0.000211,0.0,0.000465,0.0,0.000321,inferred,Stations_USGS
SGRT,,15.7437,41.7546,seismic,552.25,2.9,0.63,0.0,0.001834,0.0,0.3703,0.0,0.003485,0.0,0.003737,0.0,0.001688,inferred,Stations_USGS
SBPO,,10.9199,45.0511,seismic,760.0,null,null,0.0,0.002714,0.0,0.2491,0.0,0.000723,0.0,0.001788,0.0,0.001603,inferred,Stations_USGS
RIC,,14.8377,41.4827,seismic,557.74,3.2,0.63,0.0,0.002535,0.0,0.5929,0.0,0.003791,0.0,0.005352,0.0,0.002604,inferred,Stations_USGS
MNS,,12.6811,42.3855,seismic,648.51,3.2,0.63,0.0,0.013372,0.0,0.6017,0.0,0.019921,0.0,0.006497,0.0,0.002504,inferred,Stations_USGS
PIEI,,12.535,43.5357,seismic,900.0,null,null,0.0,0.001623,0.0,0.1942,0.0,0.005946,0.0,0.002879,0.0,0.000703,inferred,Stations_USGS
MDI,,9.716,45.7697,seismic,760.0,1.0,0.63,0.0,0.00011,0.0,0.0216,0.0,0.000243,0.0,0.00018,0.0,6.2e-05,inferred,Stations_USGS
VVLD,,13.6232,41.8697,seismic,781.71,3.6,0.63,0.0,0.043474,0.0,1.0074,0.0,0.060314,0.0,0.023397,0.0,0.006431,inferred,Stations_USGS
VIE,,16.1661,41.8769,seismic,760.0,null,null,0.0,0.002245,0.0,0.527,0.0,0.006758,0.0,0.003712,0.0,0.003774,inferred,Stations_USGS
ANT,,13.0786,42.4182,seismic,461.24,4.1,0.63,0.0,0.026341,0.0,2.5491,0.0,0.053437,0.0,0.033585,0.0,0.004374,inferred,Stations_USGS
MGAB,,12.1121,42.9126,seismic,415.15,3.0,0.63,0.0,0.003425,0.0,0.4482,0.0,0.006889,0.0,0.003864,0.0,0.000817,inferred,Stations_USGS
SCHR,,16.0759,40.1992,seismic,760.0,2.2,0.63,0.0,0.000205,0.0,0.0745,0.0,0.000255,0.0,0.000453,0.0,0.000341,inferred,Stations_USGS
LATE,,11.804,42.6137,seismic,443.41,null,null,0.0,0.000244,0.0,0.0401,0.0,0.000857,0.0,0.000364,0.0,0.000147,inferred,Stations_USGS
OFFI,,13.6857,42.935,seismic,538.3,3.4,0.63,0.0,0.036972,0.0,0.7371,0.0,0.034362,0.0,0.015361,0.0,0.003131,inferred,Stations_USGS
AGST,,15.2271,37.2565,seismic,760.0,1.0,0.63,0.0,1.9e-05,0.0,0.0287,0.0,2.2e-05,0.0,3.4e-05,0.0,3e-05,inferred,Stations_USGS
MIGL,,16.441,40.6044,seismic,760.0,null,null,0.0,0.001497,0.0,0.5314,0.0,0.001506,0.0,0.00311,0.0,0.002634,inferred,Stations_USGS
TUE,,9.34732,46.4722,seismic,760.0,1.0,0.63,0.0,0.000332,0.0,0.0138,0.0,0.00013,0.0,0.000116,0.0,5.6e-05,inferred,Stations_USGS
MMP,MMP,12.7485,42.2485,seismic,487.67,3.5,0.63,0.0,0.009,0.0,0.8735,0.0,0.02215,0.0,0.00831,0.0,0.00292,inferred,Stations_USGS
CMR,CMR,14.712,41.8334,seismic,869.48,3.4,0.63,0.0,0.00411,null,null,0.0,0.01313,0.0,0.00894,0.0,0.00262,inferred,Stations_USGS
AVL,,14.7871,40.9228,seismic,430.58,3.1,0.63,0.0,0.001303,0.0,0.3289,0.0,0.001579,0.0,0.002632,0.0,0.001481,inferred,Stations_USGS
PTRJ,,14.529,41.3641,seismic,900.0,null,null,0.0,0.009034,0.0,1.3802,0.0,0.013044,0.0,0.034768,0.0,0.003516,inferred,Stations_USGS
MONC,,7.9271,45.0739,seismic,760.0,1.6,0.63,0.0,0.000842,0.0,0.0526,0.0,0.000351,0.0,0.00017,0.0,0.000173,inferred,Stations_USGS
CAFI,,11.9663,43.3292,seismic,620.12,2.5,0.63,0.0,0.000951,0.0,0.1917,0.0,0.001754,0.0,0.002995,0.0,0.000783,inferred,Stations_USGS
BOJ,,14.4721,41.4845,seismic,708.97,null,null,0.0,0.014436,0.0,3.1617,0.0,0.02159,0.0,0.063128,0.0,0.009961,inferred,Stations_USGS
MCEL,,15.8019,40.3249,seismic,760.0,2.2,0.63,0.0,0.000345,0.0,0.1304,0.0,0.000432,0.0,0.00104,0.0,0.000731,inferred,Stations_USGS
SNAL,,15.2091,40.9254,seismic,692.78,null,null,0.0,0.007095,0.0,0.5562,0.0,0.002981,0.0,0.005623,0.0,0.0035,inferred,Stations_USGS
GSG,GSG,13.55,42.46,seismic,900.0,4.3,0.63,0.0,0.02996,null,null,0.0,0.07441,0.0,0.03103,0.0,0.01002,inferred,Stations_USGS
CASP,,10.8652,42.7908,seismic,760.0,null,null,,,,,,,,,,,inferred,Stations_USGS
CESX,,12.58,42.61,seismic,900.0,3.8,0.63,0.0,0.056819,0.0,1.5414,0.0,0.034588,0.0,0.008941,0.0,0.004773,inferred,Stations_USGS
TOLF,,12.0002,42.0641,seismic,583.69,null,null,0.0,0.001246,0.0,0.162,0.0,0.003449,0.0,0.004062,0.0,0.000712,inferred,Stations_USGS
ILLI,,14.9483,38.4457,seismic,760.0,null,null,0.0,0.001908,0.0,0.1379,0.0,0.000787,0.0,0.000341,0.0,0.000291,inferred,Stations_USGS
SBC,,13.1055,41.9132,seismic,781.85,3.7,0.63,0.0,0.006785,0.0,1.1806,0.0,0.018177,0.0,0.014395,0.0,0.004555,inferred,Stations_USGS
FOR,,12.0419,44.1994,seismic,760.0,null,null,0.0,0.001641,0.0,0.6654,0.0,0.002102,0.0,0.003786,0.0,0.002113,inferred,Stations_USGS
CRMI,,10.97,43.79,seismic,760.0,2.1,0.63,0.0,0.000957,0.0,0.1062,0.0,0.000502,0.0,0.000449,0.0,0.000333,inferred,Stations_USGS
CING,,13.1954,43.3756,seismic,825.62,3.1,0.63,0.0,0.008334,0.0,0.5088,0.0,0.008963,0.0,0.005806,0.0,0.001451,inferred,Stations_USGS
PDM,,14.3854,41.3554,seismic,900.0,null,null,0.0,0.001538,0.0,0.3316,0.0,0.0021,0.0,0.001987,0.0,0.001797,inferred,Stations_USGS
TLS,,14.53,41.2222,seismic,434.45,3.2,0.63,0.0,0.002648,0.0,0.6173,0.0,0.00362,0.0,0.006589,0.0,0.002024,inferred,Stations_USGS
BADI,,12.2443,43.5097,seismic,538.11,3.0,0.63,0.0,0.00217,0.0,0.3955,0.0,0.003967,0.0,0.004068,0.0,0.002358,inferred,Stations_USGS
AVZ,,13.4259,42.0275,seismic,333.7,6.0,0.63,0.0,0.068998,0.0,11.2664,0.0,0.156599,0.0,0.100146,0.0,0.028231,inferred,Stations_USGS
LSS,,12.9689,42.5583,seismic,799.2,null,null,0.0,0.009795,0.0,0.6458,0.0,0.022731,0.0,0.013935,0.0,0.003047,inferred,Stations_USGS
AQU,,13.40193,42.35388,seismic,470.18,7.7,0.63,0.0,0.395897,0.0,38.5778,0.0,0.414665,0.0,0.544583,0.0,0.054877,inferred,Stations_USGS
SPO,,12.7406,42.7336,seismic,841.94,3.4,0.63,0.0,0.00977,0.0,0.8107,0.0,0.022087,0.0,0.007274,0.0,0.001688,inferred,Stations_USGS
VENT,,13.4216,40.7948,seismic,296.27,3.4,0.63,0.0,0.002403,0.0,0.7627,0.0,0.004193,0.0,0.00395,0.0,0.003059,inferred,Stations_USGS
CSS,CSS,13.8231,41.4858,seismic,655.14,null,null,,,,,,,,,,,inferred,Stations_USGS
CDCA,,12.2336,43.4584,seismic,463.9,2.8,0.63,0.0,0.001334,0.0,0.3041,0.0,0.002428,0.0,0.00393,0.0,0.001524,inferred,Stations_USGS
PDG,,19.2608,42.4297,seismic,760.0,null,null,0.0,0.0003,0.0,0.1109,0.0,0.000623,0.0,0.000472,0.0,0.000444,inferred,Stations_USGS
APPI,,11.2281,46.4787,seismic,760.0,1.0,0.63,0.0,0.000147,0.0,0.0257,0.0,0.000384,0.0,0.000173,0.0,0.000111,inferred,Stations_USGS
RSP,,7.26533,45.1482,seismic,760.0,1.0,0.63,0.0,0.000106,0.0,0.01,0.0,4.8e-05,0.0,4.2e-05,0.0,5e-05,inferred,Stations_USGS
PALZ,,15.9602,40.9441,seismic,760.0,2.9,0.63,0.0,0.001538,0.0,0.3646,0.0,0.001974,0.0,0.004549,0.0,0.002455,inferred,Stations_USGS
RAVA,,11.1188,44.7559,seismic,760.0,null,null,0.0,0.000591,0.0,0.2842,0.0,0.000804,0.0,0.001862,0.0,0.001623,inferred,Stations_USGS
HCRL,,15.0325,37.2831,seismic,760.0,1.3,0.63,0.0,0.000105,0.0,0.0222,0.0,3.4e-05,0.0,5.3e-05,0.0,3.7e-05,inferred,Stations_USGS
BBN,,11.8214,43.7476,seismic,582.12,2.9,0.63,0.0,0.001018,0.0,0.3308,0.0,0.001233,0.0,0.00259,0.0,0.001319,inferred,Stations_USGS
MNN,,15.9113,41.6342,seismic,760.0,2.8,0.63,0.0,0.002412,0.0,0.3083,0.0,0.008644,0.0,0.003114,0.0,0.001056,inferred,Stations_USGS
DBMI_1057,2 (Intensity II),10.34,43.87,macroseismic,760.0,2.0,0.3,,,,,,,,,,,inferred,Stations_USGS
DBMI_1369,1 (Intensity V),12.43,42.22,macroseismic,365.01,5.0,0.3,0.8059,0.064769,0.875,5.5179,1.0131,0.150634,1.0822,0.067159,1.4737,0.014719,inferred,Stations_USGS
DBMI_999,1 (Intensity V),13.96,41.45,macroseismic,900.0,4.5,0.3,0.8059,0.043468,0.875,3.833,1.0131,0.068084,1.0822,0.047645,1.4737,0.010664,inferred,Stations_USGS
DBMI_36,48 (Intensity V),13.93,42.46,macroseismic,597.74,5.5,0.3,0.8059,0.103264,0.875,7.9433,1.0131,0.227499,1.0822,0.090819,1.4737,0.019393,inferred,Stations_USGS
DBMI_1277,1 (Intensity II),8.91,45.6,macroseismic,760.0,2.0,0.3,,,,,,,,,,,inferred,Stations_USGS
DBMI_1268,1 (Intensity II),10.24,45.48,macroseismic,760.0,2.0,0.3,,,,,,,,,,,inferred,Stations_USGS
DBMI_693,2 (Intensity V),13.1,41.84,macroseismic,900.0,5.3,0.3,0.8059,0.085186,0.875,6.8661,1.0131,0.196403,1.0822,0.080781,1.4737,0.017438,inferred,Stations_USGS
DBMI_853,1 (Intensity II),15.15,37.09,macroseismic,760.0,2.0,0.3,,,,,,,,,,,inferred,Stations_USGS
DBMI_659,2 (Intensity IV),12.08,42.97,macroseismic,397.47,4.0,0.3,0.8059,0.022046,0.875,2.0363,1.0131,0.03228,1.0822,0.024352,1.4737,0.004866,inferred,Stations_USGS
DBMI_324,4 (Intensity IV),13.28,41.54,macroseismic,900.0,4.3,0.3,0.8059,0.040829,0.875,3.2578,1.0131,0.056142,1.0822,0.033711,1.4737,0.007201,inferred,Stations_USGS
DBMI_921,2 (Intensity IV),13.35,43.27,macroseismic,518.72,3.5,0.3,,,,,,,,,,,inferred,Stations_USGS
DBMI_99,25 (Intensity V),13.36,42.09,macroseismic,420.62,4.8,0.3,0.8059,0.079833,0.875,4.7696,1.0131,0.169278,1.0822,0.046703,1.4737,0.010044,inferred,Stations_USGS
DBMI_571,1 (Intensity IV),12.74,42.88,macroseismic,708.61,3.5,0.3,,,,,,,,,,,inferred,Stations_USGS
DBMI_829,1 (Intensity II),12.25,45.56,macroseismic,760.0,2.0,0.3,,,,,,,,,,,inferred,Stations_USGS
DBMI_526,2 (Intensity V),13.55,41.62,macroseismic,522.34,4.7,0.3,0.8059,0.053935,0.875,4.4344,1.0131,0.100566,1.0822,0.052806,1.4737,0.011671,inferred,Stations_USGS
DBMI_601,2 (Intensity V),12.43,42.66,macroseismic,391.09,4.5,0.3,0.8059,0.046352,0.875,3.833,1.0131,0.073956,1.0822,0.045806,1.4737,0.010203,inferred,Stations_USGS
DBMI_870,1 (Intensity II),9.89,45.59,macroseismic,760.0,2.0,0.3,,,,,,,,,,,inferred,Stations_USGS
DBMI_507,11 (Intensity V),13.19,41.47,macroseismic,479.32,4.7,0.3,0.8059,0.050918,0.875,4.4344,1.0131,0.09338,1.0822,0.054702,1.4737,0.012142,inferred,Stations_USGS
DBMI_1097,1 (Intensity III),14.53,40.96,macroseismic,322.18,3.4,0.3,,,,,,,,,,,inferred,Stations_USGS
DBMI_1028,1 (Intensity II),8.82,45.83,macroseismic,760.0,2.0,0.3,,,,,,,,,,,inferred,Stations_USGS
DBMI_1142,1 (Intensity II),7.39,45.34,macroseismic,760.0,2.0,0.3,,,,,,,,,,,inferred,Stations_USGS
DBMI_292,3 (Intensity VI),14.37,42.26,macroseismic,516.29,5.5,0.3,0.8059,0.088256,0.875,7.9433,1.0131,0.209471,1.0822,0.099995,1.4737,0.021603,inferred,Stations_USGS
DBMI_371,1 (Intensity IV),14.19,42.21,macroseismic,543.61,3.5,0.3,,,,,,,,,,,inferred,Stations_USGS
DBMI_206,1 (Intensity VIII),13.66,42.29,macroseismic,900.0,8.0,0.3,0.8059,0.634178,0.875,49.1065,1.0131,1.047207,1.0822,0.563949,1.4737,0.109871,inferred,Stations_USGS
OBS_8,Ciampino::Lazio::Italy 3 responses 84 km,12.6,41.8,macroseismic,342.41,2.5,0.3,,,,,,,,,,,inferred,Stations_USGS
OBS_35,Rome::Lazio::Italy 339 responses 84 km,12.5,41.89,macroseismic,337.23,3.9,0.3,,,,,,,,,,,inferred,Stations_USGS
DBMI_811,3 (Intensity II),8.62,44.91,macroseismic,760.0,2.0,0.3,,,,,,,,,,,inferred,Stations_USGS
DBMI_551,1 (Intensity IV),13.14,43.48,macroseismic,574.47,3.6,0.3,,,,,,,,,,,inferred,Stations_USGS
DBMI_687,2 (Intensity II),17.94,40.63,macroseismic,760.0,2.0,0.3,,,,,,,,,,,inferred,Stations_USGS
DBMI_1284,1 (Intensity II),10.33,44.92,macroseismic,760.0,2.0,0.3,,,,,,,,,,,inferred,Stations_USGS
DBMI_376,1 (Intensity IV),13.09,43.06,macroseismic,613.98,3.5,0.3,,,,,,,,,,,inferred,Stations_USGS
DBMI_1276,1 (Intensity II),12.0,45.9,macroseismic,760.0,2.0,0.3,,,,,,,,,,,inferred,Stations_USGS
DBMI_905,1 (Intensity III),13.75,41.69,macroseismic,614.13,3.0,0.3,,,,,,,,,,,inferred,Stations_USGS
OBS_39,Tivoli::Lazio::Italy 4 responses 61 km,12.79,41.96,macroseismic,702.97,3.3,0.3,,,,,,,,,,,inferred,Stations_USGS
DBMI_431,38 (Intensity IV),12.61,41.8,macroseismic,343.87,4.1,0.3,0.8059,0.032934,0.875,2.3816,1.0131,0.042398,1.0822,0.025038,1.4737,0.004913,inferred,Stations_USGS
DBMI_1167,1 (Intensity II),9.69,44.96,macroseismic,760.0,2.0,0.3,,,,,,,,,,,inferred,Stations_USGS
DBMI_426,4 (Intensity IV),13.79,41.81,macroseismic,565.97,4.2,0.3,0.8059,0.041645,0.875,2.7855,1.0131,0.054449,1.0822,0.02628,1.4737,0.005116,inferred,Stations_USGS
DBMI_85,14 (Intensity V),13.91,42.88,macroseismic,405.13,4.8,0.3,0.8059,0.057951,0.875,4.7696,1.0131,0.116676,1.0822,0.056835,1.4737,0.012516,inferred,Stations_USGS
DBMI_664,2 (Intensity IV),14.79,41.89,macroseismic,550.41,3.8,0.3,,,,,,,,,,,inferred,Stations_USGS
DBMI_223,70 (Intensity V),13.6,42.85,macroseismic,474.89,4.8,0.3,0.8059,0.061993,0.875,4.7696,1.0131,0.12726,1.0822,0.054534,1.4737,0.01195,inferred,Stations_USGS
DBMI_200,2 (Intensity V),13.61,41.65,macroseismic,859.22,4.5,0.3,0.8059,0.048021,0.875,3.833,1.0131,0.077403,1.0822,0.043743,1.4737,0.009958,inferred,Stations_USGS
DBMI_1329,1 (Intensity III),13.04,42.88,macroseismic,754.53,2.5,0.3,,,,,,,,,,,inferred,Stations_USGS
DBMI_760,4 (Intensity IV),14.07,41.25,macroseismic,465.03,4.1,0.3,0.8059,0.025138,0.875,2.3816,1.0131,0.036648,1.0822,0.028606,1.4737,0.006001,inferred,Stations_USGS
DBMI_121,330 (Intensity IV),14.28,40.86,macroseismic,401.72,4.2,0.3,0.8059,0.023723,0.875,2.7855,1.0131,0.037571,1.0822,0.036889,1.4737,0.008513,inferred,Stations_USGS
DBMI_980,1 (Intensity II),9.21,45.37,macroseismic,760.0,2.0,0.3,,,,,,,,,,,inferred,Stations_USGS
DBMI_157,3 (Intensity V),13.03,42.4,macroseismic,663.06,5.1,0.3,0.8059,0.092139,0.875,5.935,1.0131,0.19551,1.0822,0.060859,1.4737,0.013017,inferred,Stations_USGS
DBMI_695,1 (Intensity IV),13.2,41.64,macroseismic,900.0,4.0,0.3,0.8059,0.031322,0.875,2.0363,1.0131,0.039014,1.0822,0.020479,1.4737,0.003752,inferred,Stations_USGS
DBMI_572,5 (Intensity II),15.55,38.19,macroseismic,760.0,2.0,0.3,,,,,,,,,,,inferred,Stations_USGS
DBMI_485,3 (Intensity V),14.76,40.73,macroseismic,900.0,4.5,0.3,0.8059,0.033093,0.875,3.833,1.0131,0.053203,1.0822,0.053579,1.4737,0.012163,inferred,Stations_USGS
DBMI_1075,1 (Intensity II),14.87,37.65,macroseismic,760.0,2.0,0.3,,,,,,,,,,,inferred,Stations_USGS
DBMI_646,3 (Intensity IV),13.74,41.25,macroseismic,373.07,4.2,0.3,0.8059,0.030706,0.875,2.7855,1.0131,0.043182,1.0822,0.032483,1.4737,0.007033,inferred,Stations_USGS
OBS_37,Teramo::Abruzzen::Italy 6 responses 47 km,13.7,42.67,macroseismic,560.64,4.9,0.3,0.8059,0.071219,0.875,5.1301,1.0131,0.160937,1.0822,0.056336,1.4737,0.012239,inferred,Stations_USGS
DBMI_932,1 (Intensity V),12.93,42.27,macroseismic,370.54,5.0,0.3,0.8059,0.080487,0.875,5.5179,1.0131,0.177973,1.0822,0.058785,1.4737,0.012678,inferred,Stations_USGS
DBMI_1259,1 (Intensity II),9.32,45.7,macroseismic,760.0,2.0,0.3,,,,,,,,,,,inferred,Stations_USGS
DBMI_768,1 (Intensity III),14.43,40.66,macroseismic,707.86,3.0,0.3,,,,,,,,,,,inferred,Stations_USGS
DBMI_481,8 (Intensity III),15.91,41.63,macroseismic,760.0,3.3,0.3,,,,,,,,,,,inferred,Stations_USGS
DBMI_1211,1 (Intensity II),9.26,45.92,macroseismic,760.0,2.0,0.3,,,,,,,,,,,inferred,Stations_USGS
DBMI_91,21 (Intensity IV),13.66,41.26,macroseismic,388.03,4.0,0.3,0.8059,0.023144,0.875,2.0363,1.0131,0.033138,1.0822,0.023775,1.4737,0.004694,inferred,Stations_USGS
DBMI_564,2 (Intensity IV),12.7,42.3,macroseismic,900.0,4.2,0.3,0.8059,0.043588,0.875,2.7855,1.0131,0.057742,1.0822,0.024906,1.4737,0.00472,inferred,Stations_USGS
DBMI_532,6 (Intensity V),12.84,42.16,macroseismic,900.0,4.6,0.3,0.8059,0.058071,0.875,4.1228,1.0131,0.10457,1.0822,0.043834,1.4737,0.009699,inferred,Stations_USGS
DBMI_1200,1 (Intensity IV),12.76,43.3,macroseismic,577.86,4.0,0.3,0.8059,0.023183,0.875,2.0363,1.0131,0.033168,1.0822,0.023755,1.4737,0.004688,inferred,Stations_USGS
DBMI_1140,1 (Intensity IV),14.26,40.97,macroseismic,281.65,3.6,0.3,,,,,,,,,,,inferred,Stations_USGS
DBMI_715,1 (Intensity II),10.47,44.64,macroseismic,760.0,2.0,0.3,,,,,,,,,,,inferred,Stations_USGS
DBMI_258,6 (Intensity IV),12.87,41.79,macroseismic,279.56,4.2,0.3,0.8059,0.040164,0.875,2.7855,1.0131,0.051967,1.0822,0.027424,1.4737,0.005455,inferred,Stations_USGS
DBMI_785,1 (Intensity II),16.16,39.41,macroseismic,760.0,2.0,0.3,,,,,,,,,,,inferred,Stations_USGS
DBMI_393,31 (Intensity IV),12.64,42.04,macroseismic,358.92,4.5,0.3,0.8059,0.049172,0.875,3.833,1.0131,0.079801,1.0822,0.04254,1.4737,0.009575,inferred,Stations_USGS
DBMI_1040,1 (Intensity V),12.91,42.47,macroseismic,652.45,4.5,0.3,0.8059,0.057432,0.875,3.833,1.0131,0.097465,1.0822,0.035434,1.4737,0.007278,inferred,Stations_USGS
DBMI_620,1 (Intensity III),9.23,45.36,macroseismic,760.0,3.4,0.3,,,,,,,,,,,inferred,Stations_USGS
DBMI_1225,1 (Intensity II),9.44,45.06,macroseismic,760.0,2.0,0.3,,,,,,,,,,,inferred,Stations_USGS
DBMI_357,2 (Intensity III),14.06,40.8,macroseismic,431.39,2.5,0.3,,,,,,,,,,,inferred,Stations_USGS
DBMI_984,1 (Intensity VI),12.84,43.56,macroseismic,424.21,null,null,0.8059,0.101782,0.875,11.4348,1.0131,0.253168,1.0822,0.164917,1.4737,0.035556,inferred,Stations_USGS
DBMI_1007,1 (Intensity III),14.67,41.2,macroseismic,853.17,3.1,0.3,,,,,,,,,,,inferred,Stations_USGS
DBMI_513,1 (Intensity VI),13.72,43.09,macroseismic,464.18,6.0,0.3,0.8059,0.116769,0.875,11.4348,1.0131,0.272127,1.0822,0.151601,1.4737,0.032354,inferred,Stations_USGS
DBMI_606,5 (Intensity II),14.72,36.93,macroseismic,760.0,2.0,0.3,,,,,,,,,,,inferred,Stations_USGS
DBMI_438,4 (Intensity V),12.92,41.78,macroseismic,371.51,4.5,0.3,0.8059,0.048729,0.875,3.833,1.0131,0.078876,1.0822,0.042996,1.4737,0.00973,inferred,Stations_USGS
DBMI_423,5 (Intensity IV),14.78,41.96,macroseismic,380.45,3.7,0.3,,,,,,,,,,,inferred,Stations_USGS
DBMI_1359,1 (Intensity V),13.99,41.41,macroseismic,605.1,4.5,0.3,0.8059,0.042893,0.875,3.833,1.0131,0.066926,1.0822,0.048035,1.4737,0.010762,inferred,Stations_USGS
DBMI_1104,2 (Intensity II),11.77,45.78,macroseismic,760.0,2.0,0.3,,,,,,,,,,,inferred,Stations_USGS
OBS_14,Forl::Emilia-Romagna::Italy 3 responses 234 km,12.03,44.22,macroseismic,760.0,3.0,0.3,,,,,,,,,,,inferred,Stations_USGS
DBMI_1208,1 (Intensity II),10.52,44.93,macroseismic,760.0,2.0,0.3,,,,,,,,,,,inferred,Stations_USGS
DBMI_699,3 (Intensity IV),13.77,41.41,macroseismic,276.23,4.2,0.3,0.8059,0.033903,0.875,2.7855,1.0131,0.045552,1.0822,0.030934,1.4737,0.006536,inferred,Stations_USGS
DBMI_1205,1 (Intensity II),8.94,45.79,macroseismic,760.0,2.0,0.3,,,,,,,,,,,inferred,Stations_USGS
DBMI_644,2 (Intensity V),11.57,43.53,macroseismic,296.51,5.3,0.3,0.8059,0.059963,0.875,6.8661,1.0131,0.161396,1.0822,0.100177,1.4737,0.022194,inferred,Stations_USGS
DBMI_948,1 (Intensity II),14.55,40.92,macroseismic,527.41,2.0,0.3,,,,,,,,,,,inferred,Stations_USGS
DBMI_122,10 (Intensity III),12.08,41.95,macroseismic,303.12,3.4,0.3,,,,,,,,,,,inferred,Stations_USGS
DBMI_819,1 (Intensity IV),11.71,43.51,macroseismic,397.3,3.6,0.3,,,,,,,,,,,inferred,Stations_USGS
DBMI_7,25 (Intensity V),13.64,42.82,macroseismic,526.63,4.9,0.3,0.8059,0.066598,0.875,5.1301,1.0131,0.147616,1.0822,0.0587,1.4737,0.012817,inferred,Stations_USGS
DBMI_172,2 (Intensity V),14.38,42.09,macroseismic,616.69,5.0,0.3,0.8059,0.063665,0.875,5.5179,1.0131,0.147334,1.0822,0.06787,1.4737,0.014894,inferred,Stations_USGS
DBMI_329,4 (Intensity IV),13.71,41.49,macroseismic,241.05,4.0,0.3,0.8059,0.026971,0.875,2.0363,1.0131,0.03599,1.0822,0.022047,1.4737,0.004192,inferred,Stations_USGS
DBMI_198,45 (Intensity IV),12.63,42.06,macroseismic,352.85,4.5,0.3,0.8059,0.049256,0.875,3.833,1.0131,0.079976,1.0822,0.042455,1.4737,0.009547,inferred,Stations_USGS
DBMI_1341,1 (Intensity III),14.55,40.87,macroseismic,496.93,3.0,0.3,,,,,,,,,,,inferred,Stations_USGS
DBMI_368,4 (Intensity IV),12.8,41.82,macroseismic,462.0,4.4,0.3,0.8059,0.045236,0.875,3.5637,1.0131,0.06776,1.0822,0.037447,1.4737,0.008165,inferred,Stations_USGS
DBMI_1090,2 (Intensity II),10.44,45.59,macroseismic,760.0,2.0,0.3,,,,,,,,,,,inferred,Stations_USGS
DBMI_663,1 (Intensity IV),14.53,41.58,macroseismic,584.78,4.0,0.3,0.8059,0.022489,0.875,2.0363,1.0131,0.032629,1.0822,0.024114,1.4737,0.004795,inferred,Stations_USGS
DBMI_621,2 (Intensity IV),15.44,41.79,macroseismic,378.05,3.8,0.3,,,,,,,,,,,inferred,Stations_USGS
DBMI_1312,1 (Intensity II),11.76,45.71,macroseismic,760.0,2.0,0.3,,,,,,,,,,,inferred,Stations_USGS
DBMI_146,8 (Intensity IV),13.69,43.23,macroseismic,325.17,4.3,0.3,0.8059,0.038843,0.875,3.2578,1.0131,0.05265,1.0822,0.035749,1.4737,0.007864,inferred,Stations_USGS
DBMI_62,7 (Intensity VI),13.49,42.3,macroseismic,545.99,6.1,0.3,0.8059,0.22343,0.875,12.2991,1.0131,0.391626,1.0822,0.114557,1.4737,0.023342,inferred,Stations_USGS
DBMI_1246,1 (Intensity II),10.4,44.12,macroseismic,760.0,2.0,0.3,,,,,,,,,,,inferred,Stations_USGS
DBMI_777,1 (Intensity II),10.5,45.55,macroseismic,760.0,2.0,0.3,,,,,,,,,,,inferred,Stations_USGS
DBMI_585,3 (Intensity II),10.05,44.05,macroseismic,760.0,2.0,0.3,,,,,,,,,,,inferred,Stations_USGS
DBMI_45,6 (Intensity VI),13.48,42.29,macroseismic,868.04,6.0,0.3,0.8059,0.209949,0.875,11.4348,1.0131,0.37044,1.0822,0.105813,1.4737,0.021623,inferred,Stations_USGS
DBMI_566,3 (Intensity V),12.39,42.46,macroseismic,244.62,5.0,0.3,0.8059,0.064067,0.875,5.5179,1.0131,0.148534,1.0822,0.067609,1.4737,0.014829,inferred,Stations_USGS
DBMI_1251,1 (Intensity II),13.0,45.78,macroseismic,760.0,2.0,0.3,,,,,,,,,,,inferred,Stations_USGS
DBMI_778,2 (Intensity II),16.08,39.13,macroseismic,760.0,2.0,0.3,,,,,,,,,,,inferred,Stations_USGS
DBMI_974,1 (Intensity II),10.8,45.61,macroseismic,760.0,2.0,0.3,,,,,,,,,,,inferred,Stations_USGS
DBMI_220,30 (Intensity IV),13.44,43.3,macroseismic,398.37,4.2,0.3,0.8059,0.033458,0.875,2.7855,1.0131,0.045228,1.0822,0.031136,1.4737,0.0066,inferred,Stations_USGS
DBMI_57,3 (Intensity V),13.69,42.98,macroseismic,396.17,4.7,0.3,0.8059,0.054314,0.875,4.4344,1.0131,0.101476,1.0822,0.05258,1.4737,0.011615,inferred,Stations_USGS
DBMI_604,5 (Intensity IV),14.39,40.91,macroseismic,272.68,4.0,0.3,0.8059,0.017679,0.875,2.0363,1.0131,0.028656,1.0822,0.027152,1.4737,0.00573,inferred,Stations_USGS
DBMI_766,2 (Intensity II),7.35,45.04,macroseismic,760.0,2.0,0.3,,,,,,,,,,,inferred,Stations_USGS
DBMI_1303,1 (Intensity II),16.01,40.09,macroseismic,760.0,2.0,0.3,,,,,,,,,,,inferred,Stations_USGS
DBMI_201,20 (Intensity V),13.65,42.03,macroseismic,591.78,5.0,0.3,0.8059,0.080455,0.875,5.5179,1.0131,0.177936,1.0822,0.0588,1.4737,0.012682,inferred,Stations_USGS
DBMI_13,13 (Intensity VI),13.93,42.24,macroseismic,402.44,5.7,0.3,0.8059,0.119507,0.875,9.1895,1.0131,0.257172,1.0822,0.105048,1.4737,0.022266,inferred,Stations_USGS
DBMI_1033,1 (Intensity II),9.23,44.35,macroseismic,760.0,2.0,0.3,,,,,,,,,,,inferred,Stations_USGS
DBMI_108,36 (Intensity V),14.02,42.67,macroseismic,506.06,4.6,0.3,0.8059,0.053241,0.875,4.1228,1.0131,0.093505,1.0822,0.047324,1.4737,0.010452,inferred,Stations_USGS
DBMI_713,3 (Intensity IV),12.03,42.54,macroseismic,434.31,4.0,0.3,0.8059,0.024011,0.875,2.0363,1.0131,0.033802,1.0822,0.023347,1.4737,0.004568,inferred,Stations_USGS
DBMI_884,3 (Intensity II),11.35,43.99,macroseismic,412.47,2.0,0.3,,,,,,,,,,,inferred,Stations_USGS
DBMI_584,10 (Intensity III),16.88,41.11,macroseismic,760.0,2.6,0.3,,,,,,,,,,,inferred,Stations_USGS
DBMI_1102,1 (Intensity II),15.32,40.15,macroseismic,760.0,2.0,0.3,,,,,,,,,,,inferred,Stations_USGS
DBMI_909,1 (Intensity IV),11.27,44.48,macroseismic,760.0,4.0,0.3,0.8059,0.012571,0.875,2.0363,1.0131,0.023841,1.0822,0.032124,1.4737,0.007376,inferred,Stations_USGS
DBMI_464,4 (Intensity II),11.13,46.08,macroseismic,760.0,2.4,0.3,,,,,,,,,,,inferred,Stations_USGS
DBMI_1186,1 (Intensity II),11.13,43.97,macroseismic,617.51,2.0,0.3,,,,,,,,,,,inferred,Stations_USGS
DBMI_723,2 (Intensity II),11.12,45.37,macroseismic,760.0,2.0,0.3,,,,,,,,,,,inferred,Stations_USGS
DBMI_267,10 (Intensity V),14.07,42.61,macroseismic,416.4,4.6,0.3,0.8059,0.053445,0.875,4.1228,1.0131,0.093967,1.0822,0.047213,1.4737,0.010424,inferred,Stations_USGS
DBMI_410,1 (Intensity II),10.8,44.21,macroseismic,760.0,2.0,0.3,,,,,,,,,,,inferred,Stations_USGS
DBMI_1039,1 (Intensity II),10.47,44.37,macroseismic,760.0,2.0,0.3,,,,,,,,,,,inferred,Stations_USGS
DBMI_112,5 (Intensity V),13.4,41.63,macroseismic,415.98,5.2,0.3,0.8059,0.074238,0.875,6.3836,1.0131,0.178564,1.0822,0.078141,1.4737,0.017012,inferred,Stations_USGS
DBMI_1236,1 (Intensity II),11.2,44.46,macroseismic,760.0,2.0,0.3,,,,,,,,,,,inferred,Stations_USGS
OBS_32,Ravenna::Emilia-Romagna::Italy 4 responses 249 km,12.21,44.42,macroseismic,760.0,3.7,0.3,,,,,,,,,,,inferred,Stations_USGS
DBMI_1241,1 (Intensity II),15.94,39.52,macroseismic,760.0,2.0,0.3,,,,,,,,,,,inferred,Stations_USGS
DBMI_885,3 (Intensity IV),13.4,43.52,macroseismic,425.24,3.8,0.3,,,,,,,,,,,inferred,Stations_USGS
DBMI_945,3 (Intensity IV),13.27,43.6,macroseismic,451.33,3.8,0.3,,,,,,,,,,,inferred,Stations_USGS
DBMI_268,12 (Intensity IV),13.87,42.99,macroseismic,576.2,4.0,0.3,0.8059,0.029453,0.875,2.0363,1.0131,0.037741,1.0822,0.02111,1.4737,0.003927,inferred,Stations_USGS
DBMI_239,2 (Intensity V),14.44,40.87,macroseismic,578.17,5.2,0.3,0.8059,0.057706,0.875,6.3836,1.0131,0.145236,1.0822,0.091187,1.4737,0.020225,inferred,Stations_USGS
DBMI_1349,1 (Intensity IV),14.15,41.26,macroseismic,534.03,4.0,0.3,0.8059,0.021433,0.875,2.0363,1.0131,0.031793,1.0822,0.024693,1.4737,0.004969,inferred,Stations_USGS
DBMI_321,1 (Intensity VI),13.58,42.25,macroseismic,595.09,6.0,0.3,0.8059,0.201609,0.875,11.4348,1.0131,0.362629,1.0822,0.108475,1.4737,0.022233,inferred,Stations_USGS
DBMI_130,5 (Intensity V),12.64,41.74,macroseismic,555.23,4.8,0.3,0.8059,0.054921,0.875,4.7696,1.0131,0.108879,1.0822,0.058736,1.4737,0.012987,inferred,Stations_USGS
DBMI_522,15 (Intensity IV),12.68,41.78,macroseismic,408.08,4.1,0.3,0.8059,0.033701,0.875,2.3816,1.0131,0.042928,1.0822,0.024756,1.4737,0.00483,inferred,Stations_USGS
DBMI_369,4 (Intensity IV),16.07,41.22,macroseismic,760.0,3.8,0.3,,,,,,,,,,,inferred,Stations_USGS
DBMI_222,5 (Intensity IV),12.87,41.97,macroseismic,461.48,4.3,0.3,0.8059,0.045459,0.875,3.2578,1.0131,0.064471,1.0822,0.029707,1.4737,0.005956,inferred,Stations_USGS
OBS_19,Lanciano::Abruzzen::Italy 4 responses 86 km,14.37,42.23,macroseismic,492.32,3.6,0.3,,,,,,,,,,,inferred,Stations_USGS
DBMI_459,3 (Intensity III),14.14,41.98,macroseismic,609.7,3.2,0.3,,,,,,,,,,,inferred,Stations_USGS
DBMI_775,1 (Intensity V),13.62,43.37,macroseismic,559.11,5.0,0.3,0.8059,0.057896,0.875,5.5179,1.0131,0.13037,1.0822,0.071939,1.4737,0.015898,inferred,Stations_USGS
DBMI_47,6 (Intensity VI),13.69,41.94,macroseismic,574.03,5.8,0.3,0.8059,0.123034,0.875,9.8841,1.0131,0.267185,1.0822,0.116063,1.4737,0.02459,inferred,Stations_USGS
DBMI_1196,1 (Intensity II),8.94,45.59,macroseismic,760.0,2.0,0.3,,,,,,,,,,,inferred,Stations_USGS
DBMI_904,1 (Intensity II),12.4,44.2,macroseismic,760.0,2.0,0.3,,,,,,,,,,,inferred,Stations_USGS
DBMI_1030,1 (Intensity V),13.58,43.19,macroseismic,501.78,4.6,0.3,0.8059,0.047688,0.875,4.1228,1.0131,0.08114,1.0822,0.050629,1.4737,0.011273,inferred,Stations_USGS
DBMI_1027,1 (Intensity II),15.41,38.17,macroseismic,760.0,2.0,0.3,,,,,,,,,,,inferred,Stations_USGS
DBMI_626,1 (Intensity II),10.92,45.56,macroseismic,760.0,2.0,0.3,,,,,,,,,,,inferred,Stations_USGS
DBMI_1010,7 (Intensity II),12.33,45.44,macroseismic,760.0,2.3,0.3,,,,,,,,,,,inferred,Stations_USGS
DBMI_1305,1 (Intensity II),12.01,45.83,macroseismic,760.0,2.0,0.3,,,,,,,,,,,inferred,Stations_USGS
DBMI_1367,1 (Intensity V),14.2,42.25,macroseismic,527.95,5.0,0.3,0.8059,0.068407,0.875,5.5179,1.0131,0.161618,1.0822,0.064946,1.4737,0.014176,inferred,Stations_USGS
DBMI_287,2 (Intensity III),14.59,42.14,macroseismic,436.73,3.4,0.3,,,,,,,,,,,inferred,Stations_USGS
DBMI_1267,1 (Intensity IV),13.17,43.58,macroseismic,327.61,3.5,0.3,,,,,,,,,,,inferred,Stations_USGS
DBMI_865,1 (Intensity II),16.37,39.08,macroseismic,760.0,2.0,0.3,,,,,,,,,,,inferred,Stations_USGS
DBMI_738,1 (Intensity IV),13.24,41.41,macroseismic,737.16,4.0,0.3,0.8059,0.025868,0.875,2.0363,1.0131,0.035188,1.0822,0.022506,1.4737,0.004323,inferred,Stations_USGS
DBMI_681,2 (Intensity II),10.11,44.02,macroseismic,760.0,2.0,0.3,,,,,,,,,,,inferred,Stations_USGS
DBMI_136,2 (Intensity V),14.38,41.04,macroseismic,593.59,5.0,0.3,0.8059,0.05255,0.875,5.5179,1.0131,0.115078,1.0822,0.07634,1.4737,0.016992,inferred,Stations_USGS
DBMI_989,1 (Intensity II),10.18,45.58,macroseismic,760.0,2.0,0.3,,,,,,,,,,,inferred,Stations_USGS
DBMI_838,1 (Intensity II),9.27,45.66,macroseismic,760.0,2.0,0.3,,,,,,,,,,,inferred,Stations_USGS
DBMI_347,1 (Intensity III),14.3,41.71,macroseismic,470.99,3.1,0.3,,,,,,,,,,,inferred,Stations_USGS
DBMI_521,1 (Intensity IV),12.4,42.38,macroseismic,349.61,3.5,0.3,,,,,,,,,,,inferred,Stations_USGS
DBMI_274,10 (Intensity IV),14.14,40.88,macroseismic,259.15,4.0,0.3,0.8059,0.01809,0.875,2.0363,1.0131,0.029013,1.0822,0.026846,1.4737,0.005634,inferred,Stations_USGS
DBMI_1314,2 (Intensity IV),13.49,41.6,macroseismic,299.1,4.2,0.3,0.8059,0.039294,0.875,2.7855,1.0131,0.050522,1.0822,0.02814,1.4737,0.00567,inferred,Stations_USGS
DBMI_441,13 (Intensity IV),12.69,42.27,macroseismic,584.18,4.4,0.3,0.8059,0.049049,0.875,3.5637,1.0131,0.075204,1.0822,0.034044,1.4737,0.007077,inferred,Stations_USGS
DBMI_692,2 (Intensity IV),14.27,40.96,macroseismic,272.51,3.8,0.3,,,,,,,,,,,inferred,Stations_USGS
DBMI_1022,1 (Intensity II),8.78,45.55,macroseismic,760.0,2.0,0.3,,,,,,,,,,,inferred,Stations_USGS
DBMI_833,1 (Intensity II),9.53,45.69,macroseismic,760.0,2.0,0.3,,,,,,,,,,,inferred,Stations_USGS
DBMI_493,6 (Intensity IV),14.57,40.74,macroseismic,296.56,3.9,0.3,,,,,,,,,,,inferred,Stations_USGS
DBMI_642,1 (Intensity IV),13.98,41.93,macroseismic,900.0,3.5,0.3,,,,,,,,,,,inferred,Stations_USGS
DBMI_1132,1 (Intensity II),15.14,37.6,macroseismic,760.0,2.0,0.3,,,,,,,,,,,inferred,Stations_USGS
DBMI_1148,1 (Intensity II),8.83,45.67,macroseismic,760.0,2.0,0.3,,,,,,,,,,,inferred,Stations_USGS
DBMI_27,7 (Intensity VI),13.74,42.6,macroseismic,644.23,5.9,0.3,0.8059,0.135563,0.875,10.6312,1.0131,0.287673,1.0822,0.123006,1.4737,0.025919,inferred,Stations_USGS
DBMI_917,1 (Intensity II),17.48,40.43,macroseismic,760.0,2.0,0.3,,,,,,,,,,,inferred,Stations_USGS
DBMI_673,3 (Intensity III),15.57,41.84,macroseismic,375.87,2.8,0.3,,,,,,,,,,,inferred,Stations_USGS
DBMI_762,1 (Intensity II),9.41,44.28,macroseismic,760.0,2.0,0.3,,,,,,,,,,,inferred,Stations_USGS
DBMI_466,3 (Intensity V),14.27,40.94,macroseismic,291.35,5.2,0.3,0.8059,0.058972,0.875,6.3836,1.0131,0.149352,1.0822,0.089982,1.4737,0.019926,inferred,Stations_USGS
DBMI_1052,1 (Intensity IV),13.13,41.83,macroseismic,900.0,3.5,0.3,,,,,,,,,,,inferred,Stations_USGS
DBMI_1164,1 (Intensity II),9.09,45.81,macroseismic,760.0,2.0,0.3,,,,,,,,,,,inferred,Stations_USGS
DBMI_632,2 (Intensity II),18.16,40.02,macroseismic,760.0,2.0,0.3,,,,,,,,,,,inferred,Stations_USGS
DBMI_949,2 (Intensity II),15.14,37.9,macroseismic,760.0,2.0,0.3,,,,,,,,,,,inferred,Stations_USGS
DBMI_415,1 (Intensity V),13.65,42.34,macroseismic,900.0,5.4,0.3,0.8059,0.126324,0.875,7.3851,1.0131,0.247202,1.0822,0.071364,1.4737,0.014988,inferred,Stations_USGS
DBMI_294,4 (Intensity IV),12.3,42.34,macroseismic,468.24,3.9,0.3,,,,,,,,,,,inferred,Stations_USGS
DBMI_1094,1 (Intensity II),10.23,45.45,macroseismic,760.0,2.0,0.3,,,,,,,,,,,inferred,Stations_USGS
DBMI_1103,1 (Intensity II),14.96,38.1,macroseismic,760.0,2.0,0.3,,,,,,,,,,,inferred,Stations_USGS
DBMI_1288,1 (Intensity II),9.14,45.63,macroseismic,760.0,2.0,0.3,,,,,,,,,,,inferred,Stations_USGS
DBMI_558,1 (Intensity IV),11.75,43.22,macroseismic,398.99,4.0,0.3,0.8059,0.018475,0.875,2.0363,1.0131,0.029345,1.0822,0.026569,1.4737,0.005546,inferred,Stations_USGS
DBMI_1229,1 (Intensity II),11.41,44.33,macroseismic,760.0,2.0,0.3,,,,,,,,,,,inferred,Stations_USGS
DBMI_352,6 (Intensity IV),13.1,42.79,macroseismic,507.93,4.5,0.3,0.8059,0.052692,0.875,3.833,1.0131,0.087232,1.0822,0.039215,1.4737,0.008474,inferred,Stations_USGS
DBMI_735,3 (Intensity V),14.71,40.7,macroseismic,221.32,4.5,0.3,0.8059,0.033035,0.875,3.833,1.0131,0.053153,1.0822,0.053603,1.4737,0.012169,inferred,Stations_USGS
DBMI_1081,2 (Intensity II),10.95,44.51,macroseismic,760.0,2.0,0.3,,,,,,,,,,,inferred,Stations_USGS
DBMI_333,2 (Intensity IV),14.31,42.06,macroseismic,598.12,4.0,0.3,0.8059,0.03054,0.875,2.0363,1.0131,0.038486,1.0822,0.020736,1.4737,0.003823,inferred,Stations_USGS
DBMI_44,2 (Intensity III),14.14,41.71,macroseismic,446.47,3.0,0.3,,,,,,,,,,,inferred,Stations_USGS
DBMI_1313,1 (Intensity II),11.19,43.66,macroseismic,404.51,2.0,0.3,,,,,,,,,,,inferred,Stations_USGS
DBMI_894,2 (Intensity II),10.14,44.76,macroseismic,760.0,2.0,0.3,,,,,,,,,,,inferred,Stations_USGS
DBMI_465,8 (Intensity V),13.23,41.62,macroseismic,577.2,4.8,0.3,0.8059,0.057349,0.875,4.7696,1.0131,0.115118,1.0822,0.0572,1.4737,0.012606,inferred,Stations_USGS
DBMI_50,5 (Intensity IV),14.04,42.25,macroseismic,546.98,4.1,0.3,0.8059,0.041759,0.875,2.3816,1.0131,0.051659,1.0822,0.020902,1.4737,0.003747,inferred,Stations_USGS
DBMI_1207,1 (Intensity II),8.61,44.68,macroseismic,760.0,2.0,0.3,,,,,,,,,,,inferred,Stations_USGS
DBMI_1309,1 (Intensity V),13.21,43.38,macroseismic,667.65,4.5,0.3,0.8059,0.042406,0.875,3.833,1.0131,0.06595,1.0822,0.048373,1.4737,0.010846,inferred,Stations_USGS
DBMI_661,1 (Intensity III),10.64,43.66,macroseismic,760.0,3.4,0.3,,,,,,,,,,,inferred,Stations_USGS
DBMI_323,4 (Intensity V),14.13,42.3,macroseismic,487.43,4.6,0.3,0.8059,0.054887,0.875,4.1228,1.0131,0.097246,1.0822,0.046449,1.4737,0.010235,inferred,Stations_USGS
DBMI_34,9 (Intensity IV),12.23,43.47,macroseismic,231.22,4.0,0.3,0.8059,0.0191,0.875,2.0363,1.0131,0.029877,1.0822,0.026136,1.4737,0.005411,inferred,Stations_USGS
DBMI_401,6 (Intensity V),13.74,42.84,macroseismic,686.74,4.6,0.3,0.8059,0.053734,0.875,4.1228,1.0131,0.094623,1.0822,0.047057,1.4737,0.010386,inferred,Stations_USGS
DBMI_1372,1 (Intensity IV),13.5,43.02,macroseismic,563.63,4.1,0.3,0.8059,0.036376,0.875,2.3816,1.0131,0.044734,1.0822,0.023841,1.4737,0.004565,inferred,Stations_USGS
DBMI_856,1 (Intensity II),10.48,44.67,macroseismic,760.0,2.0,0.3,,,,,,,,,,,inferred,Stations_USGS
DBMI_140,2 (Intensity IV),13.67,43.2,macroseismic,383.17,4.0,0.3,0.8059,0.026237,0.875,2.0363,1.0131,0.035458,1.0822,0.022349,1.4737,0.004278,inferred,Stations_USGS
DBMI_432,4 (Intensity IV),13.59,43.32,macroseismic,421.11,3.7,0.3,,,,,,,,,,,inferred,Stations_USGS
DBMI_1018,1 (Intensity II),12.81,43.69,macroseismic,614.71,2.0,0.3,,,,,,,,,,,inferred,Stations_USGS
DBMI_971,1 (Intensity II),11.31,45.65,macroseismic,760.0,2.0,0.3,,,,,,,,,,,inferred,Stations_USGS
DBMI_913,1 (Intensity II),15.37,41.83,macroseismic,364.67,2.0,0.3,,,,,,,,,,,inferred,Stations_USGS
DBMI_88,3 (Intensity V),13.52,42.29,macroseismic,417.51,5.0,0.3,0.8059,0.112679,0.875,5.5179,1.0131,0.212408,1.0822,0.047831,1.4737,0.010062,inferred,Stations_USGS
DBMI_927,2 (Intensity V),11.82,43.05,macroseismic,704.27,5.0,0.3,0.8059,0.053857,0.875,5.5179,1.0131,0.118778,1.0822,0.075199,1.4737,0.016708,inferred,Stations_USGS
DBMI_1082,1 (Intensity V),12.78,43.74,macroseismic,435.83,5.0,0.3,0.8059,0.052583,0.875,5.5179,1.0131,0.115171,1.0822,0.07631,1.4737,0.016985,inferred,Stations_USGS
DBMI_192,43 (Intensity IV),12.77,41.96,macroseismic,311.21,4.4,0.3,0.8059,0.046842,0.875,3.5637,1.0131,0.070875,1.0822,0.03594,1.4737,0.007677,inferred,Stations_USGS
OBS_5,Caserta::Campania::Italy 3 responses 162 km,14.32,41.07,macroseismic,276.03,2.0,0.3,,,,,,,,,,,inferred,Stations_USGS
DBMI_1254,1 (Intensity II),7.38,44.79,macroseismic,760.0,2.0,0.3,,,,,,,,,,,inferred,Stations_USGS
DBMI_1191,2 (Intensity II),10.87,43.4,macroseismic,760.0,2.0,0.3,,,,,,,,,,,inferred,Stations_USGS
DBMI_362,2 (Intensity III),15.13,41.54,macroseismic,548.67,2.8,0.3,,,,,,,,,,,inferred,Stations_USGS
DBMI_669,3 (Intensity IV),13.57,43.34,macroseismic,431.32,3.8,0.3,,,,,,,,,,,inferred,Stations_USGS
DBMI_801,3 (Intensity V),14.6,40.74,macroseismic,460.77,4.5,0.3,0.8059,0.033974,0.875,3.833,1.0131,0.053963,1.0822,0.053219,1.4737,0.012071,inferred,Stations_USGS
DBMI_897,1 (Intensity II),7.7,45.34,macroseismic,760.0,2.0,0.3,,,,,,,,,,,inferred,Stations_USGS
DBMI_900,1 (Intensity III),11.07,44.89,macroseismic,760.0,3.0,0.3,,,,,,,,,,,inferred,Stations_USGS
DBMI_920,1 (Intensity II),7.49,44.33,macroseismic,760.0,2.0,0.3,,,,,,,,,,,inferred,Stations_USGS
DBMI_1020,2 (Intensity II),9.83,44.82,macroseismic,760.0,2.0,0.3,,,,,,,,,,,inferred,Stations_USGS
DBMI_892,1 (Intensity IV),14.26,40.94,macroseismic,294.09,4.0,0.3,0.8059,0.018237,0.875,2.0363,1.0131,0.02914,1.0822,0.026739,1.4737,0.0056,inferred,Stations_USGS
DBMI_1179,2 (Intensity II),13.24,46.07,macroseismic,760.0,2.0,0.3,,,,,,,,,,,inferred,Stations_USGS
DBMI_970,1 (Intensity II),9.65,45.18,macroseismic,760.0,2.0,0.3,,,,,,,,,,,inferred,Stations_USGS
DBMI_1071,1 (Intensity III),12.97,41.59,macroseismic,744.84,3.5,0.3,,,,,,,,,,,inferred,Stations_USGS
DBMI_1220,1 (Intensity II),7.65,45.0,macroseismic,760.0,2.0,0.3,,,,,,,,,,,inferred,Stations_USGS
DBMI_1201,1 (Intensity II),10.23,43.95,macroseismic,760.0,2.0,0.3,,,,,,,,,,,inferred,Stations_USGS
DBMI_1296,1 (Intensity II),16.18,39.28,macroseismic,760.0,2.0,0.3,,,,,,,,,,,inferred,Stations_USGS
DBMI_181,1 (Intensity VI),12.81,42.14,macroseismic,784.19,5.5,0.3,0.8059,0.099785,0.875,7.9433,1.0131,0.223437,1.0822,0.092747,1.4737,0.019855,inferred,Stations_USGS
DBMI_1235,1 (Intensity II),16.58,39.02,macroseismic,760.0,2.0,0.3,,,,,,,,,,,inferred,Stations_USGS
DBMI_1120,1 (Intensity IV),12.95,43.15,macroseismic,610.74,4.5,0.3,0.8059,0.044715,0.875,3.833,1.0131,0.07061,1.0822,0.046826,1.4737,0.010458,inferred,Stations_USGS
DBMI_799,3 (Intensity II),9.91,44.08,macroseismic,760.0,2.0,0.3,,,,,,,,,,,inferred,Stations_USGS
DBMI_1130,1 (Intensity II),10.6,44.76,macroseismic,760.0,2.0,0.3,,,,,,,,,,,inferred,Stations_USGS
DBMI_1319,1 (Intensity II),10.67,45.26,macroseismic,760.0,2.0,0.3,,,,,,,,,,,inferred,Stations_USGS
DBMI_372,17 (Intensity IV),15.38,41.69,macroseismic,263.43,3.9,0.3,,,,,,,,,,,inferred,Stations_USGS
DBMI_191,4 (Intensity V),13.3,42.63,macroseismic,472.45,4.7,0.3,0.8059,0.069913,0.875,4.4344,1.0131,0.140467,1.0822,0.044154,1.4737,0.009495,inferred,Stations_USGS
DBMI_183,2 (Intensity IV),12.97,43.68,macroseismic,423.32,3.7,0.3,,,,,,,,,,,inferred,Stations_USGS
DBMI_161,2 (Intensity VI),13.76,42.33,macroseismic,900.0,5.8,0.3,0.8059,0.144191,0.875,9.8841,1.0131,0.290429,1.0822,0.105307,1.4737,0.022051,inferred,Stations_USGS
DBMI_872,2 (Intensity III),13.44,43.41,macroseismic,284.37,3.2,0.3,,,,,,,,,,,inferred,Stations_USGS
OBS_18,Isernia::Molise::Italy 3 responses 115 km,14.31,41.59,macroseismic,491.69,4.0,0.3,0.8059,0.024361,0.875,2.0363,1.0131,0.034067,1.0822,0.023182,1.4737,0.00452,inferred,Stations_USGS
DBMI_469,5 (Intensity V),13.9,41.48,macroseismic,576.31,4.6,0.3,0.8059,0.046925,0.875,4.1228,1.0131,0.079471,1.0822,0.051132,1.4737,0.011399,inferred,Stations_USGS
DBMI_636,1 (Intensity IV),14.93,41.27,macroseismic,493.12,3.5,0.3,,,,,,,,,,,inferred,Stations_USGS
DBMI_1330,3 (Intensity V),12.41,42.78,macroseismic,460.84,4.9,0.3,0.8059,0.057946,0.875,5.1301,1.0131,0.123394,1.0822,0.063927,1.4737,0.014102,inferred,Stations_USGS
DBMI_951,2 (Intensity IV),13.61,43.52,macroseismic,468.32,3.6,0.3,,,,,,,,,,,inferred,Stations_USGS
DBMI_247,2 (Intensity IV),13.34,41.99,macroseismic,857.84,3.8,0.3,,,,,,,,,,,inferred,Stations_USGS
DBMI_722,1 (Intensity II),9.4,44.95,macroseismic,760.0,2.0,0.3,,,,,,,,,,,inferred,Stations_USGS
OBS_13,Fondi::Lazio::Italy 3 responses 108 km,13.42,41.36,macroseismic,324.56,4.8,0.3,0.8059,0.052574,0.875,4.7696,1.0131,0.102924,1.0822,0.06033,1.4737,0.013382,inferred,Stations_USGS
DBMI_231,19 (Intensity II),11.0,45.44,macroseismic,760.0,2.3,0.3,,,,,,,,,,,inferred,Stations_USGS
DBMI_143,10 (Intensity VI),13.74,42.11,macroseismic,354.38,5.7,0.3,0.8059,0.127144,0.875,9.1895,1.0131,0.265686,1.0822,0.101134,1.4737,0.021339,inferred,Stations_USGS
DBMI_114,20 (Intensity V),13.24,42.19,macroseismic,607.09,5.2,0.3,0.8059,0.107918,0.875,6.3836,1.0131,0.217373,1.0822,0.06213,1.4737,0.013157,inferred,Stations_USGS
DBMI_177,5 (Intensity V),13.75,42.88,macroseismic,423.71,4.8,0.3,0.8059,0.059708,0.875,4.7696,1.0131,0.121252,1.0822,0.055804,1.4737,0.012262,inferred,Stations_USGS
DBMI_727,1 (Intensity IV),11.43,45.78,macroseismic,760.0,3.5,0.3,,,,,,,,,,,inferred,Stations_USGS
DBMI_1257,1 (Intensity II),10.81,45.76,macroseismic,760.0,2.0,0.3,,,,,,,,,,,inferred,Stations_USGS
DBMI_1221,1 (Intensity II),9.31,45.65,macroseismic,760.0,2.0,0.3,,,,,,,,,,,inferred,Stations_USGS
DBMI_266,1 (Intensity VI),16.38,40.6,macroseismic,760.0,null,null,0.8059,0.060225,0.875,7.9433,1.0131,0.171344,1.0822,0.126388,1.4737,0.028088,inferred,Stations_USGS
DBMI_402,4 (Intensity IV),13.13,42.27,macroseismic,900.0,4.1,0.3,0.8059,0.053432,0.875,2.3816,1.0131,0.070961,1.0822,0.015638,1.4737,0.002424,inferred,Stations_USGS
DBMI_761,7 (Intensity II),10.26,43.93,macroseismic,760.0,2.1,0.3,,,,,,,,,,,inferred,Stations_USGS
DBMI_1034,1 (Intensity III),11.79,43.1,macroseismic,451.52,3.1,0.3,,,,,,,,,,,inferred,Stations_USGS
DBMI_248,14 (Intensity IV),13.92,42.83,macroseismic,323.07,4.1,0.3,0.8059,0.038028,0.875,2.3816,1.0131,0.045819,1.0822,0.023324,1.4737,0.004417,inferred,Stations_USGS
DBMI_929,1 (Intensity II),8.22,44.05,macroseismic,760.0,2.0,0.3,,,,,,,,,,,inferred,Stations_USGS
DBMI_1157,1 (Intensity II),14.91,37.06,macroseismic,760.0,2.0,0.3,,,,,,,,,,,inferred,Stations_USGS
DBMI_987,1 (Intensity II),13.83,37.68,macroseismic,760.0,2.0,0.3,,,,,,,,,,,inferred,Stations_USGS
DBMI_751,1 (Intensity IV),12.99,41.94,macroseismic,583.73,4.0,0.3,0.8059,0.0387,0.875,2.0363,1.0131,0.044284,1.0822,0.01824,1.4737,0.003153,inferred,Stations_USGS
DBMI_1342,1 (Intensity V),13.8,41.66,macroseismic,404.16,4.6,0.3,0.8059,0.050264,0.875,4.1228,1.0131,0.086828,1.0822,0.049023,1.4737,0.010873,inferred,Stations_USGS
DBMI_188,1 (Intensity IV),10.75,43.85,macroseismic,760.0,4.0,0.3,0.8059,0.013225,0.875,2.0363,1.0131,0.024503,1.0822,0.03133,1.4737,0.007104,inferred,Stations_USGS
DBMI_490,2 (Intensity V),13.25,41.86,macroseismic,496.99,5.0,0.3,0.8059,0.073202,0.875,5.5179,1.0131,0.169314,1.0822,0.062305,1.4737,0.013532,inferred,Stations_USGS
DBMI_958,4 (Intensity IV),15.01,41.87,macroseismic,597.2,4.0,0.3,0.8059,0.020572,0.875,2.0363,1.0131,0.031097,1.0822,0.025197,1.4737,0.005122,inferred,Stations_USGS
DBMI_501,1 (Intensity V),13.81,41.3,macroseismic,589.62,4.6,0.3,0.8059,0.045017,0.875,4.1228,1.0131,0.075334,1.0822,0.05245,1.4737,0.011729,inferred,Stations_USGS
DBMI_616,7 (Intensity IV),13.89,41.11,macroseismic,220.57,4.1,0.3,0.8059,0.024047,0.875,2.3816,1.0131,0.035781,1.0822,0.029239,1.4737,0.006202,inferred,Stations_USGS
DBMI_1346,1 (Intensity III),13.02,41.96,macroseismic,828.33,2.5,0.3,,,,,,,,,,,inferred,Stations_USGS
DBMI_418,2 (Intensity IV),14.28,40.9,macroseismic,292.82,3.5,0.3,,,,,,,,,,,inferred,Stations_USGS
DBMI_1172,2 (Intensity II),9.85,44.11,macroseismic,760.0,2.0,0.3,,,,,,,,,,,inferred,Stations_USGS
DBMI_332,2 (Intensity VI),13.78,42.33,macroseismic,900.0,6.0,0.3,0.8059,0.16048,0.875,11.4348,1.0131,0.32164,1.0822,0.124756,1.4737,0.026006,inferred,Stations_USGS
DBMI_42,38 (Intensity IV),12.11,42.43,macroseismic,397.04,4.2,0.3,0.8059,0.034051,0.875,2.7855,1.0131,0.045659,1.0822,0.030868,1.4737,0.006515,inferred,Stations_USGS
DBMI_421,4 (Intensity IV),12.37,42.14,macroseismic,467.47,3.9,0.3,,,,,,,,,,,inferred,Stations_USGS
DBMI_482,2 (Intensity V),13.78,42.82,macroseismic,437.74,4.8,0.3,0.8059,0.06089,0.875,4.7696,1.0131,0.12435,1.0822,0.055138,1.4737,0.012098,inferred,Stations_USGS
DBMI_349,1 (Intensity III),8.08,43.91,macroseismic,760.0,3.0,0.3,,,,,,,,,,,inferred,Stations_USGS
DBMI_89,25 (Intensity V),14.18,42.42,macroseismic,372.63,4.7,0.3,0.8059,0.056893,0.875,4.4344,1.0131,0.107724,1.0822,0.051106,1.4737,0.011251,inferred,Stations_USGS
DBMI_38,39 (Intensity V),13.83,42.17,macroseismic,605.91,5.5,0.3,0.8059,0.110003,0.875,7.9433,1.0131,0.235187,1.0822,0.087367,1.4737,0.018569,inferred,Stations_USGS
DBMI_374,8 (Intensity IV),14.1,41.78,macroseismic,524.4,4.5,0.3,0.8059,0.046803,0.875,3.833,1.0131,0.074884,1.0822,0.045535,1.4737,0.010136,inferred,Stations_USGS
DBMI_750,6 (Intensity II),16.25,39.31,macroseismic,760.0,2.0,0.3,,,,,,,,,,,inferred,Stations_USGS
DBMI_425,3 (Intensity IV),15.02,41.82,macroseismic,247.42,3.7,0.3,,,,,,,,,,,inferred,Stations_USGS
DBMI_537,5 (Intensity IV),15.31,41.69,macroseismic,422.86,3.5,0.3,,,,,,,,,,,inferred,Stations_USGS
DBMI_394,2 (Intensity IV),13.46,43.22,macroseismic,423.35,4.3,0.3,0.8059,0.039329,0.875,3.2578,1.0131,0.0535,1.0822,0.03523,1.4737,0.007693,inferred,Stations_USGS
DBMI_1204,1 (Intensity II),15.89,38.43,macroseismic,760.0,2.0,0.3,,,,,,,,,,,inferred,Stations_USGS
DBMI_257,6 (Intensity VI),13.73,42.0,macroseismic,746.25,5.5,0.3,0.8059,0.104842,0.875,7.9433,1.0131,0.22932,1.0822,0.089979,1.4737,0.019192,inferred,Stations_USGS
DBMI_781,1 (Intensity IV),13.59,41.59,macroseismic,545.57,4.0,0.3,0.8059,0.029901,0.875,2.0363,1.0131,0.03805,1.0822,0.020954,1.4737,0.003883,inferred,Stations_USGS
DBMI_978,1 (Intensity II),14.95,38.47,macroseismic,760.0,2.0,0.3,,,,,,,,,,,inferred,Stations_USGS
DBMI_576,2 (Intensity IV),11.34,43.32,macroseismic,493.42,3.5,0.3,,,,,,,,,,,inferred,Stations_USGS
DBMI_41,13 (Intensity V),14.02,42.46,macroseismic,318.53,4.9,0.3,0.8059,0.068226,0.875,5.1301,1.0131,0.15228,1.0822,0.057838,1.4737,0.012606,inferred,Stations_USGS
DBMI_487,2 (Intensity V),12.77,42.45,macroseismic,611.84,5.0,0.3,0.8059,0.073475,0.875,5.5179,1.0131,0.169646,1.0822,0.062163,1.4737,0.013497,inferred,Stations_USGS
DBMI_769,1 (Intensity III),13.56,41.5,macroseismic,900.0,3.0,0.3,,,,,,,,,,,inferred,Stations_USGS
DBMI_1045,1 (Intensity II),9.41,45.7,macroseismic,760.0,2.0,0.3,,,,,,,,,,,inferred,Stations_USGS
DBMI_180,2 (Intensity VI),13.65,42.54,macroseismic,516.71,5.7,0.3,0.8059,0.129767,0.875,9.1895,1.0131,0.268554,1.0822,0.099876,1.4737,0.021042,inferred,Stations_USGS
DBMI_124,10 (Intensity IV),14.35,40.91,macroseismic,244.56,3.9,0.3,,,,,,,,,,,inferred,Stations_USGS
DBMI_405,2 (Intensity IV),14.56,41.06,macroseismic,473.52,4.0,0.3,0.8059,0.018149,0.875,2.0363,1.0131,0.029065,1.0822,0.026803,1.4737,0.00562,inferred,Stations_USGS
DBMI_386,17 (Intensity IV),13.93,41.24,macroseismic,460.2,4.4,0.3,0.8059,0.038867,0.875,3.5637,1.0131,0.055733,1.0822,0.045368,1.4737,0.010221,inferred,Stations_USGS
DBMI_147,7 (Intensity V),14.18,42.3,macroseismic,353.24,4.6,0.3,0.8059,0.053807,0.875,4.1228,1.0131,0.094789,1.0822,0.047018,1.4737,0.010376,inferred,Stations_USGS
DBMI_895,2 (Intensity V),13.41,41.51,macroseismic,685.79,4.7,0.3,0.8059,0.051898,0.875,4.4344,1.0131,0.095701,1.0822,0.054067,1.4737,0.011984,inferred,Stations_USGS
DBMI_656,2 (Intensity V),13.34,43.07,macroseismic,366.31,5.0,0.3,0.8059,0.064219,0.875,5.5179,1.0131,0.148987,1.0822,0.067511,1.4737,0.014805,inferred,Stations_USGS
DBMI_1126,1 (Intensity II),10.21,44.76,macroseismic,760.0,2.0,0.3,,,,,,,,,,,inferred,Stations_USGS
DBMI_1324,1 (Intensity V),13.49,43.12,macroseismic,479.63,4.5,0.3,0.8059,0.046073,0.875,3.833,1.0131,0.073384,1.0822,0.045975,1.4737,0.010246,inferred,Stations_USGS
DBMI_8,13 (Intensity VI),13.59,42.08,macroseismic,639.45,5.5,0.3,0.8059,0.11721,0.875,7.9433,1.0131,0.243166,1.0822,0.084034,1.4737,0.017777,inferred,Stations_USGS
DBMI_1273,1 (Intensity II),14.95,37.64,macroseismic,760.0,2.0,0.3,,,,,,,,,,,inferred,Stations_USGS
DBMI_752,2 (Intensity IV),13.61,43.12,macroseismic,322.68,4.2,0.3,0.8059,0.037955,0.875,2.7855,1.0131,0.048413,1.0822,0.029259,1.4737,0.006012,inferred,Stations_USGS
DBMI_208,38 (Intensity IV),14.71,42.13,macroseismic,488.07,4.3,0.3,0.8059,0.038146,0.875,3.2578,1.0131,0.051437,1.0822,0.036519,1.4737,0.00812,inferred,Stations_USGS
DBMI_708,1 (Intensity II),10.54,45.53,macroseismic,760.0,2.0,0.3,,,,,,,,,,,inferred,Stations_USGS
DBMI_93,2 (Intensity IV),13.82,42.86,macroseismic,629.33,4.0,0.3,0.8059,0.033589,0.875,2.0363,1.0131,0.040513,1.0822,0.019786,1.4737,0.003563,inferred,Stations_USGS
DBMI_194,29 (Intensity V),13.96,42.76,macroseismic,529.43,4.5,0.3,0.8059,0.049441,0.875,3.833,1.0131,0.080362,1.0822,0.042269,1.4737,0.009484,inferred,Stations_USGS
DBMI_938,1 (Intensity III),7.82,45.01,macroseismic,760.0,3.0,0.3,,,,,,,,,,,inferred,Stations_USGS
DBMI_1050,2 (Intensity III),12.22,42.24,macroseismic,371.04,3.0,0.3,,,,,,,,,,,inferred,Stations_USGS
DBMI_1056,1 (Intensity IV),14.66,41.98,macroseismic,582.59,4.0,0.3,0.8059,0.024436,0.875,2.0363,1.0131,0.034124,1.0822,0.023146,1.4737,0.004509,inferred,Stations_USGS
DBMI_1320,1 (Intensity II),18.0,40.49,macroseismic,760.0,2.0,0.3,,,,,,,,,,,inferred,Stations_USGS
DBMI_721,1 (Intensity II),9.59,45.7,macroseismic,760.0,2.0,0.3,,,,,,,,,,,inferred,Stations_USGS
DBMI_995,4 (Intensity IV),13.86,41.53,macroseismic,478.49,4.5,0.3,0.8059,0.044929,0.875,3.833,1.0131,0.071046,1.0822,0.046689,1.4737,0.010424,inferred,Stations_USGS
DBMI_1197,1 (Intensity II),16.6,41.2,macroseismic,760.0,2.0,0.3,,,,,,,,,,,inferred,Stations_USGS
DBMI_1348,1 (Intensity III),12.65,43.55,macroseismic,390.44,3.0,0.3,,,,,,,,,,,inferred,Stations_USGS
DBMI_879,1 (Intensity IV),14.1,41.09,macroseismic,216.59,4.0,0.3,0.8059,0.01993,0.875,2.0363,1.0131,0.03057,1.0822,0.025594,1.4737,0.005244,inferred,Stations_USGS
DBMI_73,13 (Intensity VI),13.82,42.22,macroseismic,877.1,5.6,0.3,0.8059,0.119888,0.875,8.5437,1.0131,0.251771,1.0822,0.093216,1.4737,0.01972,inferred,Stations_USGS
DBMI_834,3 (Intensity III),16.18,41.88,macroseismic,760.0,3.3,0.3,,,,,,,,,,,inferred,Stations_USGS
DBMI_1260,1 (Intensity II),12.14,45.44,macroseismic,760.0,2.0,0.3,,,,,,,,,,,inferred,Stations_USGS
OBS_29,Pescara::Abruzzen::Italy 28 responses 73 km,14.21,42.46,macroseismic,221.05,4.9,0.3,0.8059,0.063452,0.875,5.1301,1.0131,0.138697,1.0822,0.060468,1.4737,0.01325,inferred,Stations_USGS
DBMI_840,3 (Intensity II),9.92,44.15,macroseismic,760.0,2.0,0.3,,,,,,,,,,,inferred,Stations_USGS
DBMI_135,2 (Intensity IV),14.26,41.36,macroseismic,818.89,3.8,0.3,,,,,,,,,,,inferred,Stations_USGS
DBMI_655,2 (Intensity II),9.21,44.42,macroseismic,760.0,2.0,0.3,,,,,,,,,,,inferred,Stations_USGS
DBMI_151,12 (Intensity V),12.83,41.6,macroseismic,306.7,4.6,0.3,0.8059,0.048199,0.875,4.1228,1.0131,0.082261,1.0822,0.0503,1.4737,0.011191,inferred,Stations_USGS
DBMI_17,13 (Intensity V),13.81,42.1,macroseismic,576.3,5.4,0.3,0.8059,0.101188,0.875,7.3851,1.0131,0.219987,1.0822,0.081759,1.4737,0.017455,inferred,Stations_USGS
DBMI_252,3 (Intensity V),13.5,42.74,macroseismic,473.95,5.3,0.3,0.8059,0.091705,0.875,6.8661,1.0131,0.204166,1.0822,0.077211,1.4737,0.016577,inferred,Stations_USGS
DBMI_1113,1 (Intensity II),11.72,45.52,macroseismic,760.0,2.0,0.3,,,,,,,,,,,inferred,Stations_USGS
DBMI_654,20 (Intensity IV),12.63,41.76,macroseismic,568.95,3.7,0.3,,,,,,,,,,,inferred,Stations_USGS
DBMI_335,15 (Intensity IV),15.55,41.46,macroseismic,265.8,3.7,0.3,,,,,,,,,,,inferred,Stations_USGS
DBMI_828,1 (Intensity II),11.3,45.01,macroseismic,760.0,2.0,0.3,,,,,,,,,,,inferred,Stations_USGS
DBMI_166,4 (Intensity V),13.23,42.46,macroseismic,396.42,5.0,0.3,0.8059,0.100522,0.875,5.5179,1.0131,0.200035,1.0822,0.051298,1.4737,0.010883,inferred,Stations_USGS
DBMI_1328,1 (Intensity IV),14.3,40.96,macroseismic,241.91,4.0,0.3,0.8059,0.018273,0.875,2.0363,1.0131,0.029171,1.0822,0.026713,1.4737,0.005592,inferred,Stations_USGS
DBMI_789,14 (Intensity II),11.35,44.51,macroseismic,760.0,2.3,0.3,,,,,,,,,,,inferred,Stations_USGS
DBMI_142,1 (Intensity IV),17.12,40.59,macroseismic,760.0,3.5,0.3,,,,,,,,,,,inferred,Stations_USGS
DBMI_211,4 (Intensity VI),13.77,42.59,macroseismic,645.72,5.5,0.3,0.8059,0.104843,0.875,7.9433,1.0131,0.229321,1.0822,0.089978,1.4737,0.019192,inferred,Stations_USGS
DBMI_455,2 (Intensity IV),14.04,42.01,macroseismic,369.24,4.0,0.3,0.8059,0.036292,0.875,2.0363,1.0131,0.042241,1.0822,0.019045,1.4737,0.003365,inferred,Stations_USGS
DBMI_1021,1 (Intensity II),9.24,45.54,macroseismic,760.0,2.0,0.3,,,,,,,,,,,inferred,Stations_USGS
DBMI_813,1 (Intensity IV),13.15,43.49,macroseismic,521.73,4.0,0.3,0.8059,0.021839,0.875,2.0363,1.0131,0.032117,1.0822,0.024465,1.4737,0.0049,inferred,Stations_USGS
DBMI_373,1 (Intensity II),10.04,44.26,macroseismic,760.0,2.0,0.3,,,,,,,,,,,inferred,Stations_USGS
DBMI_284,14 (Intensity V),13.26,42.07,macroseismic,660.99,5.4,0.3,0.8059,0.11041,0.875,7.3851,1.0131,0.230309,1.0822,0.077503,1.4737,0.01644,inferred,Stations_USGS
DBMI_303,1 (Intensity VI),12.9,42.02,macroseismic,509.09,5.5,0.3,0.8059,0.098683,0.875,7.9433,1.0131,0.222136,1.0822,0.093381,1.4737,0.020008,inferred,Stations_USGS
DBMI_697,1 (Intensity VI),14.67,42.07,macroseismic,394.38,6.0,0.3,0.8059,0.110389,0.875,11.4348,1.0131,0.264206,1.0822,0.156913,1.4737,0.033627,inferred,Stations_USGS
DBMI_1079,1 (Intensity II),15.81,38.29,macroseismic,760.0,2.0,0.3,,,,,,,,,,,inferred,Stations_USGS
DBMI_476,6 (Intensity IV),14.21,40.91,macroseismic,362.43,3.7,0.3,,,,,,,,,,,inferred,Stations_USGS
DBMI_351,9 (Intensity IV),14.46,40.93,macroseismic,224.87,4.2,0.3,0.8059,0.023708,0.875,2.7855,1.0131,0.037558,1.0822,0.036901,1.4737,0.008517,inferred,Stations_USGS
DBMI_322,16 (Intensity IV),11.87,43.47,macroseismic,275.54,3.7,0.3,,,,,,,,,,,inferred,Stations_USGS
OBS_33,Rieti::Lazio::Italy 3 responses 39 km,12.86,42.41,macroseismic,243.3,5.1,0.3,0.8059,0.0823,0.875,5.935,1.0131,0.184241,1.0822,0.065221,1.4737,0.014067,inferred,Stations_USGS
DBMI_924,1 (Intensity II),16.71,41.02,macroseismic,760.0,2.0,0.3,,,,,,,,,,,inferred,Stations_USGS
DBMI_1133,3 (Intensity II),10.79,44.77,macroseismic,760.0,2.0,0.3,,,,,,,,,,,inferred,Stations_USGS
OBS_16,Francavilla al Mare::Abruzzen::Italy 3 responses 75 km,14.24,42.44,macroseismic,557.98,3.6,0.3,,,,,,,,,,,inferred,Stations_USGS
DBMI_1216,1 (Intensity II),11.04,43.55,macroseismic,760.0,2.0,0.3,,,,,,,,,,,inferred,Stations_USGS
DBMI_1165,1 (Intensity IV),15.17,41.85,macroseismic,489.42,3.5,0.3,,,,,,,,,,,inferred,Stations_USGS
DBMI_589,1 (Intensity V),12.97,42.22,macroseismic,530.92,5.5,0.3,0.8059,0.110909,0.875,7.9433,1.0131,0.236203,1.0822,0.086929,1.4737,0.018465,inferred,Stations_USGS
DBMI_608,1 (Intensity IV),14.16,41.24,macroseismic,657.97,4.1,0.3,0.8059,0.024572,0.875,2.3816,1.0131,0.036201,1.0822,0.028929,1.4737,0.006103,inferred,Stations_USGS
DBMI_209,15 (Intensity V),14.0,42.27,macroseismic,436.55,4.6,0.3,0.8059,0.058203,0.875,4.1228,1.0131,0.104875,1.0822,0.043717,1.4737,0.00966,inferred,Stations_USGS
DBMI_941,2 (Intensity IV),10.47,43.69,macroseismic,760.0,3.5,0.3,,,,,,,,,,,inferred,Stations_USGS
DBMI_12,274 (Intensity V),14.21,42.46,macroseismic,221.05,4.9,0.3,0.8059,0.063452,0.875,5.1301,1.0131,0.138697,1.0822,0.060468,1.4737,0.01325,inferred,Stations_USGS
OBS_6,Castel Frentano::Abruzzen::Italy 3 responses 86 km,14.37,42.2,macroseismic,463.03,4.2,0.3,0.8059,0.039195,0.875,2.7855,1.0131,0.050359,1.0822,0.028224,1.4737,0.005695,inferred,Stations_USGS
DBMI_58,37 (Intensity VI),13.26,42.37,macroseismic,599.52,5.9,0.3,0.8059,0.197282,0.875,10.6312,1.0131,0.350399,1.0822,0.097736,1.4737,0.02003,inferred,Stations_USGS
DBMI_614,2 (Intensity V),14.06,41.51,macroseismic,854.73,5.3,0.3,0.8059,0.071841,0.875,6.8661,1.0131,0.179575,1.0822,0.089673,1.4737,0.019603,inferred,Stations_USGS
DBMI_95,13 (Intensity IV),14.73,42.04,macroseismic,478.12,4.3,0.3,0.8059,0.037357,0.875,3.2578,1.0131,0.050769,1.0822,0.036957,1.4737,0.008267,inferred,Stations_USGS
DBMI_496,2 (Intensity II),12.22,46.15,macroseismic,760.0,2.0,0.3,,,,,,,,,,,inferred,Stations_USGS
DBMI_889,1 (Intensity III),12.11,43.5,macroseismic,382.0,3.1,0.3,,,,,,,,,,,inferred,Stations_USGS
DBMI_639,1 (Intensity II),10.11,45.81,macroseismic,760.0,2.0,0.3,,,,,,,,,,,inferred,Stations_USGS
DBMI_451,8 (Intensity IV),14.33,41.05,macroseismic,282.81,4.4,0.3,0.8059,0.034153,0.875,3.5637,1.0131,0.051163,1.0822,0.047253,1.4737,0.010698,inferred,Stations_USGS
DBMI_788,1 (Intensity II),15.36,37.99,macroseismic,760.0,2.0,0.3,,,,,,,,,,,inferred,Stations_USGS
DBMI_1198,1 (Intensity II),11.42,43.23,macroseismic,365.01,2.0,0.3,,,,,,,,,,,inferred,Stations_USGS
DBMI_1339,1 (Intensity III),13.69,43.03,macroseismic,322.22,2.5,0.3,,,,,,,,,,,inferred,Stations_USGS
DBMI_1116,1 (Intensity II),11.28,43.91,macroseismic,453.37,2.0,0.3,,,,,,,,,,,inferred,Stations_USGS
DBMI_790,1 (Intensity II),11.91,45.5,macroseismic,760.0,2.0,0.3,,,,,,,,,,,inferred,Stations_USGS
DBMI_798,2 (Intensity V),14.53,40.93,macroseismic,305.48,4.8,0.3,0.8059,0.045122,0.875,4.7696,1.0131,0.084534,1.0822,0.066255,1.4737,0.014864,inferred,Stations_USGS
DBMI_888,2 (Intensity II),7.53,45.1,macroseismic,760.0,2.0,0.3,,,,,,,,,,,inferred,Stations_USGS
DBMI_771,1 (Intensity VI),13.35,43.36,macroseismic,330.83,6.0,0.3,0.8059,0.108664,0.875,11.4348,1.0131,0.262028,1.0822,0.158434,1.4737,0.033993,inferred,Stations_USGS
DBMI_791,1 (Intensity III),14.85,40.99,macroseismic,478.72,3.0,0.3,,,,,,,,,,,inferred,Stations_USGS
DBMI_939,2 (Intensity III),9.99,44.32,macroseismic,760.0,3.0,0.3,,,,,,,,,,,inferred,Stations_USGS
DBMI_643,1 (Intensity IV),13.86,43.03,macroseismic,451.17,4.0,0.3,0.8059,0.028642,0.875,2.0363,1.0131,0.037176,1.0822,0.021403,1.4737,0.004009,inferred,Stations_USGS
DBMI_1194,1 (Intensity II),11.26,45.74,macroseismic,760.0,2.0,0.3,,,,,,,,,,,inferred,Stations_USGS
OBS_27,Perugia::Umbria::Italy 8 responses 115 km,12.39,43.11,macroseismic,343.16,2.3,0.3,,,,,,,,,,,inferred,Stations_USGS
DBMI_64,4 (Intensity VI),13.68,42.25,macroseismic,649.44,6.2,0.3,0.8059,0.199179,0.875,13.2288,1.0131,0.377212,1.0822,0.138246,1.4737,0.028457,inferred,Stations_USGS
DBMI_400,2 (Intensity V),12.79,42.16,macroseismic,805.69,4.5,0.3,0.8059,0.053416,0.875,3.833,1.0131,0.088778,1.0822,0.038591,1.4737,0.008272,inferred,Stations_USGS
DBMI_625,2 (Intensity IV),12.9,43.75,macroseismic,547.0,3.7,0.3,,,,,,,,,,,inferred,Stations_USGS
DBMI_277,11 (Intensity V),13.89,42.75,macroseismic,439.81,4.8,0.3,0.8059,0.060926,0.875,4.7696,1.0131,0.124447,1.0822,0.055117,1.4737,0.012093,inferred,Stations_USGS
DBMI_1210,1 (Intensity II),13.09,46.11,macroseismic,760.0,2.0,0.3,,,,,,,,,,,inferred,Stations_USGS
DBMI_1074,1 (Intensity II),9.43,45.66,macroseismic,760.0,2.0,0.3,,,,,,,,,,,inferred,Stations_USGS
DBMI_144,3 (Intensity VI),13.63,42.06,macroseismic,525.81,5.8,0.3,0.8059,0.136636,0.875,9.8841,1.0131,0.282328,1.0822,0.108838,1.4737,0.022881,inferred,Stations_USGS
DBMI_746,1 (Intensity III),10.28,45.4,macroseismic,760.0,3.0,0.3,,,,,,,,,,,inferred,Stations_USGS
DBMI_538,2 (Intensity IV),13.73,42.9,macroseismic,413.43,4.2,0.3,0.8059,0.040894,0.875,2.7855,1.0131,0.053187,1.0822,0.026849,1.4737,0.005284,inferred,Stations_USGS
DBMI_962,1 (Intensity IV),13.95,41.02,macroseismic,202.19,4.5,0.3,0.8059,0.039411,0.875,3.833,1.0131,0.060014,1.0822,0.050594,1.4737,0.011406,inferred,Stations_USGS
DBMI_1212,1 (Intensity II),16.07,38.61,macroseismic,760.0,2.0,0.3,,,,,,,,,,,inferred,Stations_USGS
DBMI_190,3 (Intensity V),13.9,42.33,macroseismic,462.62,5.5,0.3,0.8059,0.107808,0.875,7.9433,1.0131,0.232707,1.0822,0.088454,1.4737,0.018828,inferred,Stations_USGS
DBMI_1185,1 (Intensity II),7.65,45.75,macroseismic,760.0,2.0,0.3,,,,,,,,,,,inferred,Stations_USGS
DBMI_193,7 (Intensity VI),13.84,42.12,macroseismic,361.8,5.8,0.3,0.8059,0.129083,0.875,9.8841,1.0131,0.274012,1.0822,0.112698,1.4737,0.023793,inferred,Stations_USGS
DBMI_1226,1 (Intensity II),9.31,45.43,macroseismic,760.0,2.0,0.3,,,,,,,,,,,inferred,Stations_USGS
DBMI_1345,1 (Intensity III),14.18,41.52,macroseismic,900.0,3.0,0.3,,,,,,,,,,,inferred,Stations_USGS
DBMI_282,2 (Intensity IV),11.14,43.82,macroseismic,231.16,4.0,0.3,0.8059,0.014151,0.875,2.0363,1.0131,0.025414,1.0822,0.030302,1.4737,0.006757,inferred,Stations_USGS
DBMI_637,2 (Intensity IV),12.63,42.31,macroseismic,288.97,4.3,0.3,0.8059,0.045094,0.875,3.2578,1.0131,0.063805,1.0822,0.02999,1.4737,0.006041,inferred,Stations_USGS
DBMI_154,27 (Intensity V),14.05,42.4,macroseismic,385.54,5.0,0.3,0.8059,0.072428,0.875,5.5179,1.0131,0.16837,1.0822,0.062712,1.4737,0.013631,inferred,Stations_USGS
DBMI_342,1 (Intensity V),12.89,42.32,macroseismic,568.06,5.0,0.3,0.8059,0.07906,0.875,5.5179,1.0131,0.176307,1.0822,0.059434,1.4737,0.012835,inferred,Stations_USGS
DBMI_1350,1 (Intensity IV),13.6,43.16,macroseismic,455.03,4.0,0.3,0.8059,0.027324,0.875,2.0363,1.0131,0.036244,1.0822,0.021906,1.4737,0.004151,inferred,Stations_USGS
DBMI_773,1 (Intensity II),10.52,43.31,macroseismic,760.0,2.0,0.3,,,,,,,,,,,inferred,Stations_USGS
DBMI_1270,1 (Intensity II),12.24,44.16,macroseismic,760.0,2.0,0.3,,,,,,,,,,,inferred,Stations_USGS
DBMI_764,1 (Intensity II),7.9,45.31,macroseismic,760.0,2.0,0.3,,,,,,,,,,,inferred,Stations_USGS
DBMI_338,3 (Intensity V),13.56,41.81,macroseismic,389.73,5.2,0.3,0.8059,0.080426,0.875,6.3836,1.0131,0.186241,1.0822,0.074399,1.4737,0.016101,inferred,Stations_USGS
DBMI_793,2 (Intensity II),15.21,38.15,macroseismic,760.0,2.0,0.3,,,,,,,,,,,inferred,Stations_USGS
DBMI_1213,1 (Intensity II),14.53,36.95,macroseismic,760.0,2.0,0.3,,,,,,,,,,,inferred,Stations_USGS
DBMI_533,3 (Intensity V),13.69,42.83,macroseismic,583.43,5.0,0.3,0.8059,0.069896,0.875,5.5179,1.0131,0.165251,1.0822,0.064095,1.4737,0.013968,inferred,Stations_USGS
DBMI_514,1 (Intensity II),13.08,37.51,macroseismic,760.0,2.0,0.3,,,,,,,,,,,inferred,Stations_USGS
DBMI_907,2 (Intensity IV),14.31,41.08,macroseismic,424.27,3.5,0.3,,,,,,,,,,,inferred,Stations_USGS
DBMI_1122,1 (Intensity IV),13.11,43.67,macroseismic,467.36,3.5,0.3,,,,,,,,,,,inferred,Stations_USGS
DBMI_814,1 (Intensity II),10.94,45.27,macroseismic,760.0,2.0,0.3,,,,,,,,,,,inferred,Stations_USGS
DBMI_367,7 (Intensity V),12.97,41.83,macroseismic,900.0,5.2,0.3,0.8059,0.077579,0.875,6.3836,1.0131,0.182745,1.0822,0.07606,1.4737,0.016505,inferred,Stations_USGS
DBMI_1117,2 (Intensity II),8.85,45.61,macroseismic,760.0,2.0,0.3,,,,,,,,,,,inferred,Stations_USGS
DBMI_23,2 (Intensity IV),12.36,42.35,macroseismic,328.69,3.8,0.3,,,,,,,,,,,inferred,Stations_USGS
DBMI_251,27 (Intensity IV),13.73,43.17,macroseismic,422.28,3.9,0.3,,,,,,,,,,,inferred,Stations_USGS
DBMI_443,19 (Intensity V),12.83,41.72,macroseismic,437.3,4.9,0.3,0.8059,0.060232,0.875,5.1301,1.0131,0.1297,1.0822,0.062429,1.4737,0.013732,inferred,Stations_USGS
DBMI_380,1 (Intensity IV),13.33,42.84,macroseismic,586.68,3.9,0.3,,,,,,,,,,,inferred,Stations_USGS
DBMI_578,1 (Intensity V),12.94,41.99,macroseismic,900.0,4.6,0.3,0.8059,0.056463,0.875,4.1228,1.0131,0.100855,1.0822,0.04565,1.4737,0.010038,inferred,Stations_USGS
DBMI_981,1 (Intensity II),9.47,45.64,macroseismic,760.0,2.0,0.3,,,,,,,,,,,inferred,Stations_USGS
DBMI_716,1 (Intensity III),13.38,43.19,macroseismic,415.32,3.0,0.3,,,,,,,,,,,inferred,Stations_USGS
DBMI_511,9 (Intensity IV),13.75,43.26,macroseismic,485.6,4.0,0.3,0.8059,0.024835,0.875,2.0363,1.0131,0.034423,1.0822,0.022963,1.4737,0.004456,inferred,Stations_USGS
DBMI_622,8 (Intensity IV),12.98,41.55,macroseismic,799.57,4.4,0.3,0.8059,0.042682,0.875,3.5637,1.0131,0.062875,1.0822,0.040098,1.4737,0.009048,inferred,Stations_USGS
DBMI_629,13 (Intensity IV),12.11,42.72,macroseismic,466.1,3.9,0.3,,,,,,,,,,,inferred,Stations_USGS
DBMI_94,42 (Intensity V),14.28,42.42,macroseismic,520.15,4.6,0.3,0.8059,0.051653,0.875,4.1228,1.0131,0.08993,1.0822,0.04821,1.4737,0.010671,inferred,Stations_USGS
DBMI_186,19 (Intensity IV),13.33,41.57,macroseismic,516.87,4.3,0.3,0.8059,0.041351,0.875,3.2578,1.0131,0.057068,1.0822,0.033211,1.4737,0.007041,inferred,Stations_USGS
DBMI_531,1 (Intensity IV),12.64,42.42,macroseismic,900.0,4.0,0.3,0.8059,0.036669,0.875,2.0363,1.0131,0.042477,1.0822,0.018948,1.4737,0.003339,inferred,Stations_USGS
DBMI_1334,1 (Intensity IV),14.17,41.19,macroseismic,574.26,3.5,0.3,,,,,,,,,,,inferred,Stations_USGS
DBMI_835,5 (Intensity IV),15.03,41.96,macroseismic,446.97,3.8,0.3,,,,,,,,,,,inferred,Stations_USGS
DBMI_1101,1 (Intensity IV),8.86,45.32,macroseismic,760.0,4.0,0.3,0.8059,0.012262,0.875,2.0363,1.0131,0.023522,1.0822,0.032521,1.4737,0.007513,inferred,Stations_USGS
DBMI_982,3 (Intensity II),7.76,43.82,macroseismic,760.0,2.0,0.3,,,,,,,,,,,inferred,Stations_USGS
DBMI_868,1 (Intensity II),9.09,44.98,macroseismic,760.0,2.0,0.3,,,,,,,,,,,inferred,Stations_USGS
DBMI_199,1 (Intensity IV),13.72,42.54,macroseismic,526.2,4.0,0.3,0.8059,0.04335,0.875,2.0363,1.0131,0.051251,1.0822,0.01596,1.4737,0.002581,inferred,Stations_USGS
DBMI_411,1 (Intensity V),12.77,42.41,macroseismic,691.13,4.5,0.3,0.8059,0.05412,0.875,3.833,1.0131,0.090288,1.0822,0.038001,1.4737,0.008083,inferred,Stations_USGS
DBMI_61,5 (Intensity V),13.86,42.38,macroseismic,900.0,5.0,0.3,0.8059,0.080409,0.875,5.5179,1.0131,0.177883,1.0822,0.05882,1.4737,0.012687,inferred,Stations_USGS
DBMI_452,4 (Intensity V),13.47,43.11,macroseismic,482.75,4.5,0.3,0.8059,0.046271,0.875,3.833,1.0131,0.073789,1.0822,0.045855,1.4737,0.010216,inferred,Stations_USGS
DBMI_749,1 (Intensity II),10.19,45.13,macroseismic,760.0,2.0,0.3,,,,,,,,,,,inferred,Stations_USGS
DBMI_930,1 (Intensity II),8.71,44.63,macroseismic,760.0,2.0,0.3,,,,,,,,,,,inferred,Stations_USGS
DBMI_196,2 (Intensity IV),13.13,42.51,macroseismic,546.41,4.0,0.3,0.8059,0.047069,0.875,2.0363,1.0131,0.056981,1.0822,0.014486,1.4737,0.002231,inferred,Stations_USGS
DBMI_187,30 (Intensity V),13.01,41.73,macroseismic,289.96,4.5,0.3,0.8059,0.048588,0.875,3.833,1.0131,0.078582,1.0822,0.043143,1.4737,0.00978,inferred,Stations_USGS
DBMI_167,3 (Intensity V),13.61,42.23,macroseismic,869.39,4.7,0.3,0.8059,0.083958,0.875,4.4344,1.0131,0.169885,1.0822,0.035595,1.4737,0.006871,inferred,Stations_USGS
DBMI_810,3 (Intensity II),10.85,45.9,macroseismic,760.0,2.0,0.3,,,,,,,,,,,inferred,Stations_USGS
DBMI_1067,1 (Intensity IV),11.99,43.28,macroseismic,718.87,3.5,0.3,,,,,,,,,,,inferred,Stations_USGS
DBMI_28,69 (Intensity V),13.54,42.08,macroseismic,736.36,5.3,0.3,0.8059,0.105254,0.875,6.8661,1.0131,0.219505,1.0822,0.070958,1.4737,0.015079,inferred,Stations_USGS
DBMI_436,2 (Intensity III),14.19,40.91,macroseismic,376.68,3.2,0.3,,,,,,,,,,,inferred,Stations_USGS
DBMI_409,12 (Intensity IV),13.32,43.6,macroseismic,276.16,3.7,0.3,,,,,,,,,,,inferred,Stations_USGS
DBMI_724,6 (Intensity II),7.68,45.08,macroseismic,760.0,2.0,0.3,,,,,,,,,,,inferred,Stations_USGS
DBMI_29,172 (Intensity V),13.93,42.05,macroseismic,369.78,5.1,0.3,0.8059,0.077957,0.875,5.935,1.0131,0.179064,1.0822,0.067424,1.4737,0.014601,inferred,Stations_USGS
DBMI_718,1 (Intensity IV),14.5,40.83,macroseismic,436.15,3.8,0.3,,,,,,,,,,,inferred,Stations_USGS
DBMI_849,1 (Intensity IV),11.24,45.34,macroseismic,760.0,3.6,0.3,,,,,,,,,,,inferred,Stations_USGS
DBMI_407,3 (Intensity IV),15.35,41.86,macroseismic,264.09,3.8,0.3,,,,,,,,,,,inferred,Stations_USGS
DBMI_1098,2 (Intensity IV),11.98,42.81,macroseismic,448.18,4.0,0.3,0.8059,0.022247,0.875,2.0363,1.0131,0.032439,1.0822,0.024243,1.4737,0.004834,inferred,Stations_USGS
DBMI_502,1 (Intensity II),14.98,37.6,macroseismic,760.0,2.0,0.3,,,,,,,,,,,inferred,Stations_USGS
DBMI_753,1 (Intensity V),12.22,42.67,macroseismic,270.05,4.6,0.3,0.8059,0.046927,0.875,4.1228,1.0131,0.079475,1.0822,0.051131,1.4737,0.011399,inferred,Stations_USGS
DBMI_92,20 (Intensity VI),13.31,42.43,macroseismic,794.49,5.6,0.3,0.8059,0.163684,0.875,8.5437,1.0131,0.296551,1.0822,0.077021,1.4737,0.015923,inferred,Stations_USGS
DBMI_159,1 (Intensity VI),12.76,42.21,macroseismic,679.28,6.0,0.3,0.8059,0.135665,0.875,11.4348,1.0131,0.294454,1.0822,0.138285,1.4737,0.029186,inferred,Stations_USGS
DBMI_562,2 (Intensity II),11.93,46.8,macroseismic,760.0,2.0,0.3,,,,,,,,,,,inferred,Stations_USGS
DBMI_56,17 (Intensity V),14.07,42.37,macroseismic,391.18,5.2,0.3,0.8059,0.081575,0.875,6.3836,1.0131,0.187635,1.0822,0.073755,1.4737,0.015945,inferred,Stations_USGS
DBMI_946,1 (Intensity IV),12.32,44.95,macroseismic,760.0,4.0,0.3,0.8059,0.012317,0.875,2.0363,1.0131,0.02358,1.0822,0.032449,1.4737,0.007488,inferred,Stations_USGS
DBMI_1046,3 (Intensity II),10.79,44.74,macroseismic,760.0,2.0,0.3,,,,,,,,,,,inferred,Stations_USGS
DBMI_525,2 (Intensity V),13.31,41.52,macroseismic,900.0,5.3,0.3,0.8059,0.075586,0.875,6.8661,1.0131,0.184437,1.0822,0.086923,1.4737,0.018931,inferred,Stations_USGS
DBMI_1031,1 (Intensity IV),10.5,43.86,macroseismic,760.0,3.5,0.3,,,,,,,,,,,inferred,Stations_USGS
DBMI_969,1 (Intensity II),9.56,45.61,macroseismic,760.0,2.0,0.3,,,,,,,,,,,inferred,Stations_USGS
DBMI_544,15 (Intensity IV),13.23,41.29,macroseismic,213.28,4.3,0.3,0.8059,0.037114,0.875,3.2578,1.0131,0.050591,1.0822,0.037077,1.4737,0.008307,inferred,Stations_USGS
DBMI_1137,1 (Intensity II),11.91,45.91,macroseismic,760.0,2.0,0.3,,,,,,,,,,,inferred,Stations_USGS
DBMI_5,261 (Intensity V),13.44,42.04,macroseismic,431.16,5.1,0.3,0.8059,0.090923,0.875,5.935,1.0131,0.19415,1.0822,0.061357,1.4737,0.013136,inferred,Stations_USGS
DBMI_994,1 (Intensity II),11.22,42.44,macroseismic,200.68,2.0,0.3,,,,,,,,,,,inferred,Stations_USGS
DBMI_617,1 (Intensity II),14.8,41.03,macroseismic,824.35,2.0,0.3,,,,,,,,,,,inferred,Stations_USGS
DBMI_1053,1 (Intensity II),13.62,37.4,macroseismic,760.0,2.0,0.3,,,,,,,,,,,inferred,Stations_USGS
DBMI_756,2 (Intensity III),16.42,41.15,macroseismic,760.0,3.5,0.3,,,,,,,,,,,inferred,Stations_USGS
DBMI_950,7 (Intensity II),10.42,43.71,macroseismic,760.0,2.4,0.3,,,,,,,,,,,inferred,Stations_USGS
DBMI_229,3 (Intensity V),13.55,41.68,macroseismic,414.68,5.0,0.3,0.8059,0.066681,0.875,5.5179,1.0131,0.156384,1.0822,0.065972,1.4737,0.014428,inferred,Stations_USGS
DBMI_545,1 (Intensity III),10.82,43.69,macroseismic,760.0,3.0,0.3,,,,,,,,,,,inferred,Stations_USGS
DBMI_1136,1 (Intensity II),9.29,45.4,macroseismic,760.0,2.0,0.3,,,,,,,,,,,inferred,Stations_USGS
DBMI_546,2 (Intensity V),14.23,40.92,macroseismic,333.99,4.5,0.3,0.8059,0.038187,0.875,3.833,1.0131,0.057475,1.0822,0.051645,1.4737,0.011672,inferred,Stations_USGS
DBMI_579,1 (Intensity II),8.41,44.29,macroseismic,760.0,2.0,0.3,,,,,,,,,,,inferred,Stations_USGS
DBMI_75,10 (Intensity IV),14.45,42.07,macroseismic,409.82,4.5,0.3,0.8059,0.045685,0.875,3.833,1.0131,0.072588,1.0822,0.046214,1.4737,0.010305,inferred,Stations_USGS
DBMI_653,2 (Intensity V),13.72,42.86,macroseismic,399.69,4.5,0.3,0.8059,0.05023,0.875,3.833,1.0131,0.082019,1.0822,0.041487,1.4737,0.009222,inferred,Stations_USGS
DBMI_928,1 (Intensity II),11.0,45.76,macroseismic,760.0,2.0,0.3,,,,,,,,,,,inferred,Stations_USGS
DBMI_1219,1 (Intensity II),9.4,45.86,macroseismic,760.0,2.0,0.3,,,,,,,,,,,inferred,Stations_USGS
DBMI_1250,1 (Intensity III),16.01,38.36,macroseismic,760.0,2.9,0.3,,,,,,,,,,,inferred,Stations_USGS
DBMI_832,1 (Intensity II),9.04,44.95,macroseismic,760.0,2.0,0.3,,,,,,,,,,,inferred,Stations_USGS
DBMI_823,1 (Intensity II),9.56,45.68,macroseismic,760.0,2.0,0.3,,,,,,,,,,,inferred,Stations_USGS
DBMI_728,1 (Intensity V),13.28,42.01,macroseismic,763.52,4.6,0.3,0.8059,0.063909,0.875,4.1228,1.0131,0.118301,1.0822,0.039159,1.4737,0.008188,inferred,Stations_USGS
DBMI_1272,1 (Intensity II),10.23,45.95,macroseismic,760.0,2.0,0.3,,,,,,,,,,,inferred,Stations_USGS
DBMI_1285,1 (Intensity II),8.81,45.99,macroseismic,760.0,2.0,0.3,,,,,,,,,,,inferred,Stations_USGS
DBMI_152,1 (Intensity VII),14.37,42.03,macroseismic,900.0,null,null,0.8059,0.219899,0.875,23.6965,1.0131,0.477253,1.0822,0.333191,1.4737,0.06902,inferred,Stations_USGS
DBMI_286,5 (Intensity V),14.24,42.36,macroseismic,422.15,5.0,0.3,0.8059,0.067419,0.875,5.5179,1.0131,0.158618,1.0822,0.065528,1.4737,0.014319,inferred,Stations_USGS
OBS_25,Naples::Campania::Italy 34 responses 182 km,14.27,40.85,macroseismic,375.14,2.8,0.3,,,,,,,,,,,inferred,Stations_USGS
DBMI_1013,2 (Intensity V),13.41,42.96,macroseismic,436.66,4.8,0.3,0.8059,0.059466,0.875,4.7696,1.0131,0.120618,1.0822,0.055943,1.4737,0.012297,inferred,Stations_USGS
DBMI_837,4 (Intensity II),16.31,38.97,macroseismic,760.0,2.0,0.3,,,,,,,,,,,inferred,Stations_USGS
DBMI_767,1 (Intensity II),10.87,43.3,macroseismic,760.0,2.0,0.3,,,,,,,,,,,inferred,Stations_USGS
DBMI_839,2 (Intensity II),10.32,44.58,macroseismic,760.0,2.0,0.3,,,,,,,,,,,inferred,Stations_USGS
OBS_9,Faenza::Emilia-Romagna::Italy 3 responses 247 km,11.87,44.29,macroseismic,760.0,3.2,0.3,,,,,,,,,,,inferred,Stations_USGS
DBMI_709,6 (Intensity IV),13.35,43.44,macroseismic,497.89,3.7,0.3,,,,,,,,,,,inferred,Stations_USGS
DBMI_986,1 (Intensity II),14.71,37.16,macroseismic,760.0,2.0,0.3,,,,,,,,,,,inferred,Stations_USGS
DBMI_990,1 (Intensity IV),12.73,43.96,macroseismic,280.37,4.0,0.3,0.8059,0.01696,0.875,2.0363,1.0131,0.028021,1.0822,0.027714,1.4737,0.005909,inferred,Stations_USGS
DBMI_976,1 (Intensity III),13.07,43.24,macroseismic,560.2,3.1,0.3,,,,,,,,,,,inferred,Stations_USGS
DBMI_805,2 (Intensity II),11.94,43.7,macroseismic,702.84,2.0,0.3,,,,,,,,,,,inferred,Stations_USGS
DBMI_1343,1 (Intensity III),12.2,44.42,macroseismic,760.0,3.0,0.3,,,,,,,,,,,inferred,Stations_USGS
DBMI_694,1 (Intensity V),14.7,41.09,macroseismic,453.05,4.5,0.3,0.8059,0.037542,0.875,3.833,1.0131,0.05695,1.0822,0.051871,1.4737,0.011729,inferred,Stations_USGS
DBMI_1321,1 (Intensity II),9.88,44.38,macroseismic,760.0,2.0,0.3,,,,,,,,,,,inferred,Stations_USGS
DBMI_437,2 (Intensity V),13.08,43.49,macroseismic,688.92,4.5,0.3,0.8059,0.041078,0.875,3.833,1.0131,0.063301,1.0822,0.049326,1.4737,0.011086,inferred,Stations_USGS
DBMI_1143,1 (Intensity II),15.83,40.38,macroseismic,760.0,2.0,0.3,,,,,,,,,,,inferred,Stations_USGS
DBMI_1055,2 (Intensity II),15.81,40.64,macroseismic,760.0,2.0,0.3,,,,,,,,,,,inferred,Stations_USGS
DBMI_1112,1 (Intensity II),16.12,39.56,macroseismic,760.0,2.0,0.3,,,,,,,,,,,inferred,Stations_USGS
DBMI_1182,1 (Intensity II),15.66,40.34,macroseismic,760.0,2.0,0.3,,,,,,,,,,,inferred,Stations_USGS
DBMI_1058,1 (Intensity II),18.0,40.06,macroseismic,760.0,2.0,0.3,,,,,,,,,,,inferred,Stations_USGS
DBMI_560,6 (Intensity IV),13.02,43.84,macroseismic,290.85,3.8,0.3,,,,,,,,,,,inferred,Stations_USGS
DBMI_543,3 (Intensity IV),14.85,41.74,macroseismic,605.79,4.0,0.3,0.8059,0.021185,0.875,2.0363,1.0131,0.031594,1.0822,0.024835,1.4737,0.005012,inferred,Stations_USGS
DBMI_54,2 (Intensity IV),13.09,41.25,macroseismic,241.62,3.8,0.3,,,,,,,,,,,inferred,Stations_USGS
DBMI_1145,1 (Intensity II),7.47,44.99,macroseismic,760.0,2.0,0.3,,,,,,,,,,,inferred,Stations_USGS
OBS_26,Osimo::Marken::Italy 4 responses 128 km,13.47,43.49,macroseismic,444.29,3.3,0.3,,,,,,,,,,,inferred,Stations_USGS
DBMI_1318,1 (Intensity II),11.0,45.34,macroseismic,760.0,2.0,0.3,,,,,,,,,,,inferred,Stations_USGS
DBMI_770,1 (Intensity II),7.39,44.66,macroseismic,760.0,2.0,0.3,,,,,,,,,,,inferred,Stations_USGS
DBMI_748,1 (Intensity II),12.04,43.67,macroseismic,557.3,2.0,0.3,,,,,,,,,,,inferred,Stations_USGS
DBMI_163,7 (Intensity IV),13.77,42.89,macroseismic,450.37,4.4,0.3,0.8059,0.046201,0.875,3.5637,1.0131,0.069627,1.0822,0.036528,1.4737,0.007866,inferred,Stations_USGS
DBMI_906,3 (Intensity II),9.92,45.53,macroseismic,760.0,2.0,0.3,,,,,,,,,,,inferred,Stations_USGS
DBMI_330,6 (Intensity V),13.88,42.53,macroseismic,392.56,4.9,0.3,0.8059,0.070903,0.875,5.1301,1.0131,0.160017,1.0822,0.05649,1.4737,0.012277,inferred,Stations_USGS
DBMI_887,1 (Intensity IV),13.61,43.18,macroseismic,286.06,3.5,0.3,,,,,,,,,,,inferred,Stations_USGS
DBMI_1147,1 (Intensity II),13.76,37.58,macroseismic,760.0,2.0,0.3,,,,,,,,,,,inferred,Stations_USGS
DBMI_866,1 (Intensity II),7.85,44.7,macroseismic,760.0,2.0,0.3,,,,,,,,,,,inferred,Stations_USGS
DBMI_1228,1 (Intensity II),11.03,45.39,macroseismic,760.0,2.0,0.3,,,,,,,,,,,inferred,Stations_USGS
DBMI_262,16 (Intensity V),13.48,41.96,macroseismic,263.2,4.9,0.3,0.8059,0.074315,0.875,5.1301,1.0131,0.166799,1.0822,0.054885,1.4737,0.011887,inferred,Stations_USGS
DBMI_296,6 (Intensity IV),14.21,42.38,macroseismic,460.82,4.4,0.3,0.8059,0.046856,0.875,3.5637,1.0131,0.070902,1.0822,0.035928,1.4737,0.007673,inferred,Stations_USGS
DBMI_1064,1 (Intensity III),10.88,45.35,macroseismic,760.0,3.0,0.3,,,,,,,,,,,inferred,Stations_USGS
DBMI_256,5 (Intensity V),13.72,41.63,macroseismic,459.37,4.6,0.3,0.8059,0.05019,0.875,4.1228,1.0131,0.086663,1.0822,0.049067,1.4737,0.010884,inferred,Stations_USGS
DBMI_820,1 (Intensity II),9.91,44.92,macroseismic,760.0,2.0,0.3,,,,,,,,,,,inferred,Stations_USGS
DBMI_445,1 (Intensity V),13.47,41.89,macroseismic,900.0,5.0,0.3,0.8059,0.075184,0.875,5.5179,1.0131,0.171709,1.0822,0.061293,1.4737,0.013286,inferred,Stations_USGS
DBMI_947,1 (Intensity II),16.78,38.97,macroseismic,760.0,2.0,0.3,,,,,,,,,,,inferred,Stations_USGS
DBMI_20,4 (Intensity IV),14.27,40.92,macroseismic,325.59,3.6,0.3,,,,,,,,,,,inferred,Stations_USGS
DBMI_613,1 (Intensity V),14.3,41.05,macroseismic,271.27,4.5,0.3,0.8059,0.038789,0.875,3.833,1.0131,0.058796,1.0822,0.05109,1.4737,0.011531,inferred,Stations_USGS
DBMI_1337,1 (Intensity II),9.61,45.69,macroseismic,760.0,2.0,0.3,,,,,,,,,,,inferred,Stations_USGS
DBMI_1092,1 (Intensity IV),11.69,42.85,macroseismic,577.22,4.0,0.3,0.8059,0.019808,0.875,2.0363,1.0131,0.030469,1.0822,0.025672,1.4737,0.005268,inferred,Stations_USGS
DBMI_207,7 (Intensity IV),12.48,42.21,macroseismic,456.83,4.4,0.3,0.8059,0.045232,0.875,3.5637,1.0131,0.067752,1.0822,0.037451,1.4737,0.008166,inferred,Stations_USGS
DBMI_127,7 (Intensity V),13.87,42.03,macroseismic,523.96,5.4,0.3,0.8059,0.095343,0.875,7.3851,1.0131,0.213212,1.0822,0.084796,1.4737,0.018183,inferred,Stations_USGS
DBMI_334,80 (Intensity IV),13.51,43.59,macroseismic,486.01,4.0,0.3,0.8059,0.020736,0.875,2.0363,1.0131,0.031231,1.0822,0.025099,1.4737,0.005092,inferred,Stations_USGS
DBMI_977,1 (Intensity V),12.08,42.31,macroseismic,339.47,4.5,0.3,0.8059,0.043525,0.875,3.833,1.0131,0.0682,1.0822,0.047607,1.4737,0.010654,inferred,Stations_USGS
DBMI_1370,1 (Intensity III),14.39,41.14,macroseismic,702.77,3.0,0.3,,,,,,,,,,,inferred,Stations_USGS
DBMI_912,1 (Intensity IV),14.5,40.85,macroseismic,433.89,4.0,0.3,0.8059,0.017015,0.875,2.0363,1.0131,0.02807,1.0822,0.02767,1.4737,0.005895,inferred,Stations_USGS
DBMI_702,3 (Intensity II),10.27,44.61,macroseismic,760.0,2.0,0.3,,,,,,,,,,,inferred,Stations_USGS
DBMI_19,16 (Intensity VI),13.3,42.3,macroseismic,564.22,5.5,0.3,0.8059,0.153808,0.875,7.9433,1.0131,0.280508,1.0822,0.071142,1.4737,0.01475,inferred,Stations_USGS
DBMI_1062,1 (Intensity II),15.16,38.14,macroseismic,760.0,2.0,0.3,,,,,,,,,,,inferred,Stations_USGS
DBMI_729,1 (Intensity V),13.75,43.05,macroseismic,573.35,5.0,0.3,0.8059,0.063356,0.875,5.5179,1.0131,0.146414,1.0822,0.068073,1.4737,0.014944,inferred,Stations_USGS
DBMI_478,7 (Intensity IV),14.37,40.94,macroseismic,253.01,3.7,0.3,,,,,,,,,,,inferred,Stations_USGS
DBMI_996,1 (Intensity II),10.95,43.72,macroseismic,760.0,2.0,0.3,,,,,,,,,,,inferred,Stations_USGS
DBMI_737,1 (Intensity VI),13.18,41.53,macroseismic,900.0,5.5,0.3,0.8059,0.085454,0.875,7.9433,1.0131,0.205947,1.0822,0.101993,1.4737,0.022087,inferred,Stations_USGS
DBMI_1134,1 (Intensity II),7.6,43.79,macroseismic,760.0,2.0,0.3,,,,,,,,,,,inferred,Stations_USGS
DBMI_957,1 (Intensity IV),11.87,42.42,macroseismic,315.89,3.5,0.3,,,,,,,,,,,inferred,Stations_USGS
DBMI_1308,1 (Intensity II),10.69,44.96,macroseismic,760.0,2.0,0.3,,,,,,,,,,,inferred,Stations_USGS
DBMI_916,2 (Intensity V),13.9,41.4,macroseismic,593.39,5.0,0.3,0.8059,0.058882,0.875,5.5179,1.0131,0.133238,1.0822,0.071198,1.4737,0.015714,inferred,Stations_USGS
DBMI_993,1 (Intensity V),13.16,43.61,macroseismic,425.26,4.6,0.3,0.8059,0.04262,0.875,4.1228,1.0131,0.070208,1.0822,0.054239,1.4737,0.012178,inferred,Stations_USGS
DBMI_1070,1 (Intensity V),12.97,43.74,macroseismic,483.1,4.5,0.3,0.8059,0.038794,0.875,3.833,1.0131,0.058806,1.0822,0.051085,1.4737,0.01153,inferred,Stations_USGS
DBMI_1199,1 (Intensity II),9.12,45.37,macroseismic,760.0,2.0,0.3,,,,,,,,,,,inferred,Stations_USGS
DBMI_640,2 (Intensity IV),14.55,41.78,macroseismic,612.55,3.8,0.3,,,,,,,,,,,inferred,Stations_USGS
DBMI_16,2 (Intensity V),14.33,42.1,macroseismic,585.07,5.0,0.3,0.8059,0.064644,0.875,5.5179,1.0131,0.150261,1.0822,0.067238,1.4737,0.014738,inferred,Stations_USGS
DBMI_914,1 (Intensity II),16.84,40.9,macroseismic,760.0,2.0,0.3,,,,,,,,,,,inferred,Stations_USGS
DBMI_676,2 (Intensity II),10.88,45.49,macroseismic,760.0,2.0,0.3,,,,,,,,,,,inferred,Stations_USGS
DBMI_1044,1 (Intensity II),16.29,39.35,macroseismic,760.0,2.0,0.3,,,,,,,,,,,inferred,Stations_USGS
DBMI_667,1 (Intensity IV),11.66,45.23,macroseismic,760.0,4.5,0.3,0.8059,0.025771,0.875,3.833,1.0131,0.046488,1.0822,0.057132,1.4737,0.01307,inferred,Stations_USGS
DBMI_671,1 (Intensity VI),14.64,40.94,macroseismic,702.74,null,null,0.8059,0.09462,0.875,11.4348,1.0131,0.243641,1.0822,0.172459,1.4737,0.037383,inferred,Stations_USGS
DBMI_98,4 (Intensity IV),13.76,43.0,macroseismic,684.1,4.0,0.3,0.8059,0.030271,0.875,2.0363,1.0131,0.038302,1.0822,0.020827,1.4737,0.003848,inferred,Stations_USGS
DBMI_484,3 (Intensity IV),13.56,42.96,macroseismic,554.01,4.4,0.3,0.8059,0.046027,0.875,3.5637,1.0131,0.069291,1.0822,0.03669,1.4737,0.007919,inferred,Stations_USGS
DBMI_210,2 (Intensity VI),13.72,42.18,macroseismic,900.0,6.2,0.3,0.8059,0.184125,0.875,13.2288,1.0131,0.361945,1.0822,0.145068,1.4737,0.030036,inferred,Stations_USGS
DBMI_1347,1 (Intensity IV),13.55,43.53,macroseismic,465.52,4.0,0.3,0.8059,0.0214,0.875,2.0363,1.0131,0.031766,1.0822,0.024712,1.4737,0.004975,inferred,Stations_USGS
DBMI_439,3 (Intensity V),13.49,43.08,macroseismic,435.32,5.4,0.3,0.8059,0.08189,0.875,7.3851,1.0131,0.196826,1.0822,0.093081,1.4737,0.020186,inferred,Stations_USGS
DBMI_9,11 (Intensity V),13.79,42.79,macroseismic,383.64,4.7,0.3,0.8059,0.057822,0.875,4.4344,1.0131,0.109994,1.0822,0.050601,1.4737,0.011126,inferred,Stations_USGS
DBMI_902,2 (Intensity V),11.53,43.56,macroseismic,354.67,5.0,0.3,0.8059,0.049429,0.875,5.5179,1.0131,0.106352,1.0822,0.079259,1.4737,0.017722,inferred,Stations_USGS
DBMI_174,8 (Intensity V),13.04,41.65,macroseismic,544.52,4.9,0.3,0.8059,0.060702,0.875,5.1301,1.0131,0.131004,1.0822,0.062132,1.4737,0.013659,inferred,Stations_USGS
DBMI_508,5 (Intensity IV),13.62,43.44,macroseismic,487.22,4.3,0.3,0.8059,0.035067,0.875,3.2578,1.0131,0.049066,1.0822,0.038128,1.4737,0.008663,inferred,Stations_USGS
DBMI_497,5 (Intensity II),8.47,44.31,macroseismic,760.0,2.0,0.3,,,,,,,,,,,inferred,Stations_USGS
DBMI_500,2 (Intensity V),12.8,42.22,macroseismic,382.98,5.3,0.3,0.8059,0.089524,0.875,6.8661,1.0131,0.201599,1.0822,0.078359,1.4737,0.016853,inferred,Stations_USGS
DBMI_635,2 (Intensity IV),13.19,43.43,macroseismic,546.38,4.2,0.3,0.8059,0.030541,0.875,2.7855,1.0131,0.043056,1.0822,0.032569,1.4737,0.007061,inferred,Stations_USGS
DBMI_1175,1 (Intensity II),9.0,44.99,macroseismic,760.0,2.0,0.3,,,,,,,,,,,inferred,Stations_USGS
DBMI_516,2 (Intensity III),16.67,41.19,macroseismic,760.0,3.0,0.3,,,,,,,,,,,inferred,Stations_USGS
DBMI_1144,1 (Intensity II),12.04,45.83,macroseismic,760.0,2.0,0.3,,,,,,,,,,,inferred,Stations_USGS
DBMI_1338,1 (Intensity IV),12.98,41.94,macroseismic,617.98,4.1,0.3,0.8059,0.041061,0.875,2.3816,1.0131,0.050551,1.0822,0.02132,1.4737,0.00386,inferred,Stations_USGS
DBMI_1266,1 (Intensity II),11.39,45.39,macroseismic,760.0,2.0,0.3,,,,,,,,,,,inferred,Stations_USGS
DBMI_1041,1 (Intensity V),12.58,43.0,macroseismic,233.35,4.5,0.3,0.8059,0.044409,0.875,3.833,1.0131,0.069987,1.0822,0.047024,1.4737,0.010508,inferred,Stations_USGS
DBMI_641,4 (Intensity V),12.29,43.13,macroseismic,682.64,4.5,0.3,0.8059,0.04148,0.875,3.833,1.0131,0.0641,1.0822,0.049032,1.4737,0.011012,inferred,Stations_USGS
DBMI_864,1 (Intensity III),14.69,40.76,macroseismic,764.09,3.0,0.3,,,,,,,,,,,inferred,Stations_USGS
DBMI_1006,1 (Intensity III),14.15,41.47,macroseismic,886.09,2.6,0.3,,,,,,,,,,,inferred,Stations_USGS
DBMI_1025,1 (Intensity II),9.95,44.3,macroseismic,760.0,2.0,0.3,,,,,,,,,,,inferred,Stations_USGS
DBMI_1362,1 (Intensity V),12.2,42.65,macroseismic,480.38,4.6,0.3,0.8059,0.04683,0.875,4.1228,1.0131,0.079264,1.0822,0.051196,1.4737,0.011415,inferred,Stations_USGS
DBMI_553,10 (Intensity IV),14.22,41.11,macroseismic,201.0,3.5,0.3,,,,,,,,,,,inferred,Stations_USGS
DBMI_1016,1 (Intensity II),16.49,41.12,macroseismic,760.0,2.0,0.3,,,,,,,,,,,inferred,Stations_USGS
DBMI_391,5 (Intensity V),13.96,42.22,macroseismic,497.63,5.1,0.3,0.8059,0.080689,0.875,5.935,1.0131,0.182336,1.0822,0.066016,1.4737,0.014259,inferred,Stations_USGS
DBMI_821,5 (Intensity II),11.61,44.85,macroseismic,760.0,2.0,0.3,,,,,,,,,,,inferred,Stations_USGS
DBMI_228,1 (Intensity VI),13.54,42.27,macroseismic,522.41,6.0,0.3,0.8059,0.209949,0.875,11.4348,1.0131,0.37044,1.0822,0.105813,1.4737,0.021623,inferred,Stations_USGS
