STATION_ID,STATION_NAME,LATITUDE,LONGITUDE,STATION_TYPE,REFERENCES,SOIL_TYPE,PGA_VALUE,PGA_LN_SIGMA,SA(0.3)_VALUE,SA(0.3)_LN_SIGMA,SA(0.6)_VALUE,SA(0.6)_LN_SIGMA,SA(1.0)_VALUE,SA(1.0)_LN_SIGMA,VS30,VS30_TYPE
ANT,ANTRODOCO,42.418110,13.078598,seismic,INGV,A,0.025970692,0,0.05241538482677797,0,0.09738148698426166,0,0.03278600228410489,0,912,A
AQA,L AQUILA   V. ATERNO    F. ATERNO,42.375530,13.339298,seismic,INGV,B,0.43539367700000003,0,0.8971612567825341,0,0.5955147200308141,0,0.33474979436848196,0,549,B
AQF,L AQUILA   V. ATERNO    FERRIERA,42.380539,13.354740,seismic,INGV,B (inferred from geology),0.077230858,0,0.22326585764514933,0,0.03340841766855479,0,0.013668828484408264,0,,B (inferred from geology)
AQG,L AQUILA   V. ATERNO    COLLE GRILLI,42.373474,13.337026,seismic,INGV,B,0.479266876,0,0.968311505210356,0,0.6571844341265752,0,0.4542372275291309,0,696,B
AQK,L AQUILA   V. ATERNO   AQUIL PARK ING.,42.344967,13.400949,seismic,INGV,B,0.355459625,0,0.6203239373261182,0,0.4843178798351681,0,0.4212725914080844,0,705,B
AQM,L'AQUILA - V. ATERNO -  IL MORO,42.378643,13.349262,seismic,INGV,B (inferred from geology),0.124260971,0,0.21432290246590877,0,0.03295818788482501,0,0.02678434326964944,0,,B (inferred from geology)
AQP,L'AQUILA - V. ATERNO -  M. PETTINO,42.383686,13.368598,seismic,INGV,A,0.09213542200000001,0,0.17861853679432274,0,0.06980108782856466,0,0.03807024690223393,0,836,A
AQU,L AQUILA  ITALY,42.354000,13.405000,seismic,INGV,B (inferred from geology),0.306426453,0,0.47701136119145526,0,0.6614346704101064,0,0.42676614404228247,0,,B (inferred from geology)
AQV,L AQUILA   V. ATERNO   CENTRO VALLE,42.377222,13.343888,seismic,INGV,B,0.644246826,0,1.287582006402189,0,0.9529514642126932,0,0.46073800944549714,0,474,B
ASS,ASSISI,43.074982,12.604141,seismic,INGV,A (inferred from geology),0.006047272,0,0.022025574056541018,0,0.009708407332042448,0,0.0041521865220577854,0,,A (inferred from geology)
AVL,AVELLINO,40.922832,14.787044,seismic,INGV,C (inferred from geology),0.001269266,0,0.0015424930113549327,0,0.0024000884348239233,0,0.003145175175841659,0,,C (inferred from geology)
AVZ,AVEZZANO,42.027458,13.425929,seismic,INGV,C,0.06769146000000001,0,0.15389375274845118,0,0.1523957860720544,0,0.09779055307246763,0,199,C
BBN,BIBBIENA  NUOVA,43.747646,11.821428,seismic,INGV,A,0.001002029,0,0.0012111133571998036,0,0.0020252769840824556,0,0.0025319343146494614,0,1000,A
BDT,BADIA TEDALDA,43.706772,12.188036,seismic,INGV,B,0.001993674,0,0.004717681232240928,0,0.005175010518901476,0,0.004496518426233428,0,593,B
BNE,BENEVENTO (NUOVA),41.127556,14.784882,seismic,INGV,C (inferred from geology),0.002045972,0,0.0022887809153210622,0,0.0037256812255703226,0,0.006742519006666689,0,,C (inferred from geology)
BOJS,BOJANCI  SL,45.504300,15.251800,seismic,INGV,B (inferred from topography),0.014160506,0,0.021188303151279193,0,0.04820635926828235,0,0.061692255806182844,0,,B (inferred from topography)
BZZ,BAZZANO,42.337025,13.468575,seismic,INGV,B,0.068035057,0,0.12463800526915404,0,0.13989037805802942,0,0.059256188484180336,0,679,B
CAN,CANDELA,41.203197,15.475419,seismic,INGV,B (inferred from geology),0.0019005110000000001,0,0.0028682066483477755,0,0.0038050238040799075,0,0.004819438177550934,0,,B (inferred from geology)
CDCA,CITTA DI CASTELLO,43.458400,12.233600,seismic,INGV,C,0.009328004999999999,0,0.018987786151790236,0,0.027390955730427283,0,0.02692922327425266,0,277,C
CDS,CASTEL DI SANGRO,41.787140,14.111870,seismic,INGV,B (inferred from geology),0.009951902,0,0.025579187648049846,0,0.02640851926515906,0,0.02752211162138982,0,,B (inferred from geology)
CER,CERIGNOLA,41.259500,15.910200,seismic,INGV,B,0.001749768,0,0.003141400244995513,0,0.0031255266088843175,0,0.005174688874542599,0,396,B
CHT,CHIETI,42.369827,14.147809,seismic,INGV,B (inferred from geology),0.029429653,0,0.060958516203080126,0,0.06641511381670419,0,0.059949803379710176,0,,B (inferred from geology)
CLN,CELANO,42.085224,13.520722,seismic,INGV,B (inferred from geology),0.08846799500000001,0,0.18457237956205802,0,0.08128848010603283,0,0.08207269333146343,0,,B (inferred from geology)
CMB,CAMPOBASSO,41.562800,14.652300,seismic,INGV,B (inferred from geology),0.002887041,0,0.0032490063572564137,0,0.004925821487801066,0,0.007045240351244992,0,,B (inferred from geology)
CMR,CASTELMAURO,41.833427,14.712029,seismic,INGV,B (inferred from geology),0.005295523,0,0.012746533042864145,0,0.012118581851613432,0,0.009042925867412717,0,,B (inferred from geology)
CNM,CASALNUOVO MONTEROTARO (NUOVA),41.618225,15.104517,seismic,INGV,B (inferred from geology),0.0018784140000000001,0,0.004634460751709704,0,0.005522103063792094,0,0.004072179816531102,0,,B (inferred from geology)
CSO1,CARSOLI1,42.100933,13.088044,seismic,INGV,B (inferred from geology),0.0182878,0,0.05011582946523506,0,0.05642007113027762,0,0.02843898373796252,0,,B (inferred from geology)
CSS,CASSINO,41.485790,13.823090,seismic,INGV,B,0.009442088,0,0.026855449387026296,0,0.02382731488788057,0,0.019660829471939083,0,648,B
CTL,CATTOLICA,43.955116,12.735809,seismic,INGV,C,0.004362477,0,0.008743233759775666,0,0.01057037717364123,0,0.02091283937772984,0,208,C
FMG,FIAMIGNANO,42.268028,13.117220,seismic,INGV,B,0.026323769,0,0.055790814742293846,0,0.0775215408053284,0,0.04232284945822081,0,790,B
FOR,FORLI  NUOVA,44.199409,12.041916,seismic,INGV,C,0.001589024,0,0.002844258481607245,0,0.004524974884233024,0,0.003972516543511164,0,296,C
GNL,GENZANO DI LUCANIA,40.843315,16.033119,seismic,INGV,A (inferred from geology),0.0021936010000000003,0,0.0036579968753992654,0,0.004443462718108528,0,0.005976113121855711,0,,A (inferred from geology)
GSA,GRAN SASSO  LAB. INFN ASSERGI,42.420689,13.519362,seismic,INGV,B,0.276520233,0,0.4791584938744199,0,0.24162879554839614,0,0.09278083988186785,0,492,B
GSG,GRAN SASSO (LAB. INFN GALLERIA),42.460000,13.550000,seismic,INGV,B (inferred from geology),0.029394747,0,0.07278521654106844,0,0.03891552813987911,0,0.033742905417808416,0,,B (inferred from geology)
GUMA,GUALDO DI MACERATA,43.062700,13.335200,seismic,INGV,B,0.020388399,0,0.07490359282036387,0,0.04931496708915819,0,0.01825990243353667,0,488,B
ISR,ISERNIA,41.610600,14.235900,seismic,INGV,B (inferred from geology),0.0071855719999999994,0,0.016090898006471746,0,0.01721827096638945,0,0.012853589492304855,0,,B (inferred from geology)
LJU,LJUBLJANA  SL,46.043800,14.527800,seismic,INGV,B (inferred from topography),0.001469822,0,0.00359847598270278,0,0.003466314885412277,0,0.004588609373759231,0,,B (inferred from topography)
LSS,LEONESSA  NUOVA,42.558243,12.968894,seismic,INGV,A,0.009614135,0,0.022284116399053935,0,0.014991104744427365,0,0.0143138918716346,0,1091,A
MI05,S. EUSANIO FORCONESE  ITALY,42.289474,13.525255,seismic,INGV,A (inferred from geology),0.651508972,0,0.881969853804661,0,0.21476478040291816,0,0.09849775544512415,0,,A (inferred from geology)
MMP,MOMPEO,42.248547,12.748537,seismic,INGV,B (inferred from geology),0.008844919000000001,0,0.021873059199702883,0,0.019496006231980584,0,0.008089637762462683,0,,B (inferred from geology)
MNG,MONTE S. ANGELO,41.703540,15.958030,seismic,INGV,A (inferred from geology),0.002320077,0,0.006902952489275462,0,0.0054778591355079355,0,0.005383731917250022,0,,A (inferred from geology)
MNN,MANFREDONIA,41.634186,15.911320,seismic,INGV,A,0.0023696510000000004,0,0.008468394603827395,0,0.005676188682694006,0,0.0033330994407390355,0,815,A
MTR,MONTEREALE,42.524021,13.244796,seismic,INGV,B,0.061371239,0,0.1570140985249039,0,0.07511990427603595,0,0.05814075120279076,0,689,B
NAP,NAPOLI OVEST,40.799255,14.179607,seismic,INGV,C (inferred from geology),0.002617107,0,0.0037417160816556505,0,0.0070843592620608705,0,0.00746297900062746,0,,C (inferred from geology)
ORC,ORTUCCHIO  NUOVA,41.953606,13.642346,seismic,INGV,B,0.06407644700000001,0,0.18192729091769108,0,0.14222861972253115,0,0.07062875321327394,0,767,B
PDM,PIEDIMONTE MATESE,41.355354,14.385376,seismic,INGV,C (inferred from geology),0.001518625,0,0.0026029157817445106,0,0.0036984017189200286,0,0.0025905300243620494,0,,C (inferred from geology)
PIC,PIANCASTAGNAIO,42.850376,11.684975,seismic,INGV,B (inferred from geology),0.001239725,0,0.002212244411426843,0,0.0028594172024768,0,0.0036728208240310463,0,,B (inferred from geology)
PSC,PESCASSEROLI,41.812042,13.789196,seismic,INGV,A,0.005240302,0,0.01063417012005784,0,0.011695137376043694,0,0.006736881405712935,0,1000,A
PTF,PETRELLA TIFERNINA,41.696300,14.702400,seismic,INGV,B (inferred from geology),0.006865388,0,0.020424847047172207,0,0.017138107355230976,0,0.01468350327186956,0,,B (inferred from geology)
RIC,RICCIA,41.482738,14.837670,seismic,INGV,B (inferred from geology),0.0025141269999999997,0,0.003929032762439107,0,0.0054208196084860475,0,0.008066600927846196,0,,B (inferred from geology)
RM09,PIANO DI CASCINA  CAGNANO AMITERNO    AQ,42.435500,13.186490,seismic,INGV,B (inferred from geology),0.14751236,0,0.3286021396325034,0,0.3634004184825085,0,0.07404888526591787,0,,B (inferred from geology)
RM14,BARISCIANO   AQ,42.345360,13.572220,seismic,INGV,B (inferred from geology),0.130917236,0,0.3224529801381188,0,0.1390756315812979,0,0.0761308215180819,0,,B (inferred from geology)
SANL,SANTARCANGELO,40.252750,16.271763,seismic,INGV,B,0.0025257459999999997,0,0.0031965718322162382,0,0.005073790325694201,0,0.006825408978115986,0,443,B
SBC,SUBIACO,41.913158,13.105518,seismic,INGV,A,0.006647219,0,0.0177960014607904,0,0.014455691497821449,0,0.014053936671239421,0,1298,A
SCM,S. CROCE DI MAGLIANO,41.710827,14.983749,seismic,INGV,B (inferred from geology),0.004281238000000001,0,0.0077659264926148415,0,0.007890264032562024,0,0.013354539652455382,0,,B (inferred from geology)
SCN,SCANNO,41.918655,13.872396,seismic,INGV,A,0.019367096,0,0.02762322794029357,0,0.008736288796977859,0,0.004245609231033484,0,839,A
SCP,SERRACAPRIOLA,41.807213,15.164646,seismic,INGV,B (inferred from geology),0.005643338,0,0.01242010362833569,0,0.012513912394896545,0,0.010953594676972128,0,,B (inferred from geology)
SDG,SANNICANDRO GARGANICO,41.842600,15.558900,seismic,INGV,A,0.001997519,0,0.004203124835587504,0,0.004371149210569323,0,0.0028257979011433324,0,800,A
SENI,SENIGALLIA,43.705200,13.233100,seismic,INGV,C,0.013375853,0,0.05847166030983264,0,0.04118539036660363,0,0.020235945959375827,0,242,C
SNM,SAN MARINO,43.934326,12.449290,seismic,INGV,B (inferred from geology),0.002272005,0,0.0026643075375768844,0,0.004169536825204275,0,0.008506473897345405,0,,B (inferred from geology)
SNS,SANSEPOLCRO,43.567390,12.143375,seismic,INGV,C,0.003829636,0,0.005699096656504079,0,0.011088312884583786,0,0.01420262516413313,0,310,C
SPC,SPOLETO (CANTINA),42.743469,12.739693,seismic,INGV,C (inferred from geology),0.007554791,0,0.01784474222078001,0,0.013480558864334753,0,0.009915409050860363,0,,C (inferred from geology)
SPO,SPOLETO,42.733585,12.740602,seismic,INGV,A (inferred from geology),0.009574907,0,0.02164607421521853,0,0.022931477404250205,0,0.007094170267645035,0,,A (inferred from geology)
SSR,S.SEVERO,41.691341,15.373620,seismic,INGV,B (inferred from geology),0.005352002,0,0.008735242676432968,0,0.0077452821409791615,0,0.010614166660562592,0,,B (inferred from geology)
STL,SATRIANO DI LUCANIA,40.541065,15.642169,seismic,INGV,B,0.0009404120000000001,0,0.0010398335469441453,0,0.0021471578303833543,0,0.0027511495529695847,0,395,B
STN,STURNO,41.018353,15.111670,seismic,INGV,B (inferred from geology),0.001368541,0,0.002029422835734389,0,0.002867434321380462,0,0.004082642620460868,0,,B (inferred from geology)
SUL,SULMONA,42.089000,13.934000,seismic,INGV,A (inferred from geology),0.033624039,0,0.07215934538586029,0,0.053420415699245785,0,0.04031432790429862,0,,A (inferred from geology)
TLS,TELESE TERME,41.222237,14.529974,seismic,INGV,B (inferred from geology),0.002591692,0,0.003518937733801196,0,0.005119313147797326,0,0.007004055752200242,0,,B (inferred from geology)
TMO,TERMOLI,41.989445,14.975007,seismic,INGV,B (inferred from geology),0.009842912,0,0.022379460458249744,0,0.020700211794492114,0,0.017456638497647524,0,,B (inferred from geology)
TTS,TITO SCALO,40.601345,15.723605,seismic,INGV,D,0.003458751,0,0.003970707280468144,0,0.006470039652613106,0,0.01081478687033047,0,175,D
VIE,VIESTE,41.876976,16.165255,seismic,INGV,C (inferred from geology),0.002197671,0,0.006642743678095529,0,0.0042384616043976185,0,0.004540157980338876,0,,C (inferred from geology)
VRP,VAIRANO PATENORA,41.333210,14.131685,seismic,INGV,B (inferred from geology),0.003522281,0,0.004878884311056607,0,0.006015675159983027,0,0.010518676798676178,0,,B (inferred from geology)
